id HH MM SS longitude latitude altitude adc_1_ch0 adc_1_ch1 adc_1_ch2 adc_1_ch3 adc_1_ch4 adc_1_ch5 adc_1_ch6 adc_1_ch7 adc_1_ch8 adc_2_ch0 adc_2_ch1 adc_2_ch2 adc_2_ch3 adc_2_ch4 adc_2_ch5 adc_2_ch6 adc_2_ch7 adc_2_ch8 temp hum pres t_prog t_gps t_split t_adc t_temp t_hum t_pres trame_gga
1 08 21 51 4333.6866200128.73970159.21 2P@†CÄ/ 00128.73970 159.2 1101010101 1100010010 1100100101 10000001010 10000111000 1011110000 1100101111 1110011100 1011101100 1101011011 1011011000 1011111111 10000100101 10000111011 1100000111 1011111100 1100001001 1100000011 20.250 55.306 795.83 1363 16 185 7 58 51 3 $GNGGA,082151.00,4333.68662,N,00128.73970,E,1,06,1.51,159.2,M,53.8,M,,*45
dc_1
2 08 21 52 4333.6863300128.74052160.0102p@ÄCê.¿21004.7 00128.74052 160.0 1101010101 1100010011 1100100111 10000001000 10000111001 1011101100 1100101111 1110011000 1011101001 1101011011 1011011011 1100000000 10000100011 10000111100 1100000001 1011111000 1100000010 1011111100 20.250 55.253 1004.7 2363 17 181 8 59 51 3 $GNGGA,082152.00,4333.68633,N,00128.74052,E,1,06,1.30,160.0,M,53.8,M,,*43
dc_1
3 08 21 53 4333.6860700128.74106160.71`2ê@êC`.†3 1004.7 00128.74106 160.7 1101010101 1100010110 1100101001 10000001001 10000110110 1011101010 1100110010 1110010101 1011100101 1101011011 1011010100 1011111111 10000101001 10000111101 1100000100 1011111101 1011111110 1011111010 20.250 55.275 1004.7 3363 16 181 9 58 51 3 $GNGGA,082153.00,4333.68607,N,00128.74106,E,1,06,1.30,160.7,M,53.8,M,,*42
dc_1
4 08 21 54 4333.6859300128.74101160.21@2Ä@C`.¿31004.7 00128.74101 160.2 1101010101 1100010100 1100101000 10000001111 10000110110 1011101100 1100110001 1110010111 1011101001 1101011011 1011011100 1100000010 10000101000 10000111110 1100000001 1011111101 1100000100 1100000000 20.250 55.298 1004.7 4363 16 181 8 58 52 3 $GNGGA,082154.00,4333.68593,N,00128.74101,E,1,06,1.30,160.2,M,53.8,M,,*49
dc_1
5 08 21 55 4333.6860200128.74082158.91@2p@êC`.∞21004.7 00128.74082 158.9 1101010101 1100010100 1100100111 10000001001 10000110110 1011101011 1100101111 1110011000 1011101000 1101011011 1011010110 1100000010 10000100010 10000111001 1100000100 1011111100 1100000011 1100000000 20.250 55.306 1004.7 5363 16 180 8 59 51 3 $GNGGA,082155.00,4333.68602,N,00128.74082,E,1,06,1.30,158.9,M,53.8,M,,*49
dc_1
6 08 21 56 4333.6860200128.74063158.31@2p@∞C`/ 00128.74063 158.3 1101010101 1100010100 1100100111 10000001011 10000110110 1011110000 1100110100 1110010101 1011101100 1101011011 1011010100 1011111111 10000100100 10000111010 1100000101 1011111000 1011111101 1011111100 20.250 55.611 1004.7 6363 17 179 7 58 51 4 $GNGGA,082156.00,4333.68602,N,00128.74063,E,1,06,1.30,158.3,M,53.8,M,,*4F
dc_1
7 08 21 57 4333.6858600128.74081159.11@2ê@`Cp.–301004.7 00128.74081 159.1 1101010101 1100010100 1100101001 10000000110 10000110111 1011101101 1100110011 1110010011 1011101001 1101011011 1011010101 1011111110 10000011111 10000111011 1100000101 1011111101 1011111101 1011111001 20.250 55.550 1004.7 7363 17 178 7 59 51 3 $GNGGA,082157.00,4333.68586,N,00128.74081,E,1,06,1.30,159.1,M,53.8,M,,*4E
dc_1
8 08 21 58 4333.6858400128.74096158.81P2ê@@CP.∞31004.7 00128.74096 158.8 1101010101 1100010101 1100101001 10000000100 10000110101 1011101011 1100110001 1110010101 1011101101 1101011011 1011010111 1100000000 10000100101 10000111001 1100000010 1011111011 1100000001 1100000000 20.250 55.535 1004.7 8363 16 179 7 58 51 3 $GNGGA,082158.00,4333.68584,N,00128.74096,E,1,06,1.30,158.8,M,53.8,M,,*4D
dc_1
9 08 21 59 4333.6858700128.74113158.71 2@@∞Cê.3P1004.7 00128.74113 158.7 1101010101 1100010010 1100100100 10000001011 10000111001 1011101111 1100110101 1110011000 1011101100 1101011011 1011011110 1100000010 10000100001 10000111010 1100000011 1011110111 1011111011 1011111010 20.250 55.481 1004.7 9363 17 177 7 59 51 3 $GNGGA,082159.00,4333.68587,N,00128.74113,E,1,06,1.30,158.7,M,53.8,M,,*4C
dc_1
10 08 22 00 4333.6859700128.74116158.31@2P@êC†.¿3P1004.7 00128.74116 158.3 1101010101 1100010100 1100100101 10000001001 10000111010 1011101100 1100110101 1110010100 1011100110 1101011011 1011010110 1011111101 10000011101 10000111010 1011111110 1011111001 1011111011 1011111110 20.250 55.443 1004.7 10363 16 176 8 58 51 3 $GNGGA,082200.00,4333.68597,N,00128.74116,E,1,06,1.30,158.3,M,53.8,M,,*43
dc_1
11 08 22 01 4333.6858600128.74128159.01 2`@†CP.†21004.7 00128.74128 159.0 1101010101 1100010010 1100100110 10000001010 10000110101 1011101010 1100101111 1110010101 1011101000 1101011011 1011010110 1100000000 10000011110 10000111100 1100000100 1011111101 1011111010 1011111110 20.250 55.413 1004.7 11363 16 177 8 58 52 3 $GNGGA,082201.00,4333.68586,N,00128.74128,E,1,06,1.30,159.0,M,53.8,M,,*4D
dc_1
12 08 22 02 4333.6857700128.74138159.2102`@†Cp.‡21004.7 00128.74138 159.2 1101010101 1100010011 1100100110 10000001010 10000110111 1011101110 1100101111 1110010010 1011100100 1101011011 1011011001 1100000000 10000101001 10000111011 1100000100 1011111011 1100000100 1100000011 20.250 55.344 1004.7 12363 17 174 7 58 51 3 $GNGGA,082202.00,4333.68577,N,00128.74138,E,1,06,1.30,159.2,M,53.8,M,,*43
dc_1
13 08 22 03 4333.6858500128.74123158.61 2pA 00128.74123 158.6 1101010101 1100010010 1100100111 10000010000 10000110111 1011110000 1100110010 1110010101 1011100010 1101011011 1011010110 1011111111 10000011110 10000111011 1100000011 1011110111 1011111111 1011111111 20.250 55.344 1004.7 13363 16 172 7 58 52 3 $GNGGA,082203.00,4333.68585,N,00128.74123,E,1,06,1.30,158.6,M,53.8,M,,*40
dc_1
14 08 22 04 4333.6854700128.74102160.41 2`@êCp.–3`1004.6 00128.74102 160.4 1101010101 1100010010 1100100110 10000001001 10000110111 1011101101 1100110110 1110010111 1011100100 1101011011 1011010100 1011111111 10000011100 10000111010 1100000101 1100000000 1011111010 1011110011 20.250 55.329 1004.6 14363 17 172 7 59 51 3 $GNGGA,082204.00,4333.68547,N,00128.74102,E,1,07,1.18,160.4,M,53.8,M,,*48
dc_1
15 08 22 05 4333.6851300128.74060162.11@2ê@‡Cp.¿31004.6 00128.74060 162.1 1101010101 1100010100 1100101001 10000001110 10000110111 1011101100 1100110001 1110010101 1011100101 1101011011 1011010110 1011111111 10000100101 10000111101 1100000110 1011111010 1011111110 1011111101 20.250 55.321 1004.6 15363 16 173 7 58 51 3 $GNGGA,082205.00,4333.68513,N,00128.74060,E,1,07,1.18,162.1,M,53.8,M,,*4A
dc_1
16 08 22 06 4333.6847400128.73998164.41@2p@†C`.3P1004.7 00128.73998 164.4 1101010101 1100010100 1100100111 10000001010 10000110110 1011101111 1100110101 1110011011 1011100000 1101011011 1011010100 1011111101 10000100010 10000111010 1100000100 1011111010 1100000010 1011110111 20.250 55.298 1004.7 16363 16 171 7 59 51 3 $GNGGA,082206.00,4333.68474,N,00128.73998,E,1,07,1.18,164.4,M,53.8,M,,*43
dc_1
17 08 22 07 4333.6847900128.74012164.512P@∞Cp/ 3`1004.6 00128.74012 164.5 1101010101 1100010001 1100100101 10000001011 10000110111 1011110010 1100110110 1110011000 1011100110 1101011011 1011011001 1100000000 10000100001 10000111010 1100000010 1011110111 1100000101 1011111010 20.250 55.260 1004.6 17363 16 169 8 58 51 3 $GNGGA,082207.00,4333.68479,N,00128.74012,E,1,06,1.30,164.5,M,53.8,M,,*49
dc_1
18 08 22 08 4333.6844900128.73971166.41 2Ä@†Cp.ê21004.6 00128.73971 166.4 1101010101 1100010010 1100101000 10000001010 10000110111 1011101001 1100101111 1110011110 1011110011 1101011011 1011010110 1100000000 10000100101 10000111011 1100000010 1011110100 1100000000 1011101010 20.250 55.283 1004.6 18363 16 168 7 59 51 3 $GNGGA,082208.00,4333.68449,N,00128.73971,E,1,07,1.18,166.4,M,53.8,M,,*46
dc_1
19 08 22 09 4333.6840600128.73945168.9102`@–Cp.†31004.6 00128.73945 168.9 1101010101 1100010011 1100100110 10000001101 10000110111 1011101010 1100110001 1110011010 1011110100 1101011011 1011010101 1011111111 10000011111 10000111100 1011111110 1011111000 1011111111 1011110111 20.250 55.291 1004.6 19363 18 167 7 58 51 3 $GNGGA,082209.00,4333.68406,N,00128.73945,E,1,06,1.75,168.9,M,53.8,M,,*42
dc_1
20 08 22 10 4333.6841300128.73956168.71 2p@pCP.ê21004.7 00128.73956 168.7 1101010101 1100010010 1100100111 10000000111 10000110101 1011101001 1100101111 1110010110 1011100111 1101011011 1011010110 1011111111 10000100111 10000111101 1011111111 1011111000 1011111101 1011110111 20.250 55.298 1004.7 20363 16 166 8 58 52 3 $GNGGA,082210.00,4333.68413,N,00128.73956,E,1,06,1.30,168.7,M,53.8,M,,*43
dc_1
21 08 22 11 4333.6841300128.73966168.512P@†Cê.–21004.6 00128.73966 168.5 1101010101 1100010001 1100100101 10000001010 10000111001 1011101101 1100101111 1110010011 1011100010 1101011011 1011010111 1011111101 10000100010 10000111011 1100000110 1011111101 1100000100 1100000010 20.250 55.321 1004.6 21363 17 165 7 59 51 3 $GNGGA,082211.00,4333.68413,N,00128.73966,E,1,06,1.30,168.5,M,53.8,M,,*43
dc_1
22 08 22 12 4333.6842600128.73952167.01@2`@‡CÄ.`2∞1004.6 00128.73952 167.0 1101010101 1100010100 1100100110 10000001110 10000111000 1011100110 1100101011 1110010101 1011011010 1101011011 1011010111 1011111101 10000100010 10000111011 1011111110 1011110111 1100000001 1011111000 20.250 55.337 1004.6 22363 16 164 8 58 51 4 $GNGGA,082212.00,4333.68426,N,00128.73952,E,1,06,1.30,167.0,M,53.8,M,,*4B
dc_1
23 08 22 13 4333.6841800128.73974167.01P2Ä@∞Cê.–3 00128.73974 167.0 1101010101 1100010101 1100101000 10000001011 10000111001 1011101101 1100110000 1110011110 1011100100 1101011011 1011010111 1011111101 10000100111 10000111110 1100000100 1011111101 1011111110 1011110011 20.250 55.337 1004.6 23363 16 163 7 59 51 3 $GNGGA,082213.00,4333.68418,N,00128.73974,E,1,06,1.30,167.0,M,53.8,M,,*43
dc_1
24 08 22 14 4333.6842900128.73951165.71@2ê@C@/ 00128.73951 165.7 1101010101 1100010100 1100101001 10000001111 10000110100 1011110000 1100110010 1110010100 1011101010 1101011011 1011010100 1011111110 10000100110 10000111011 1100000001 1011111010 1011111101 1011110101 20.250 55.352 1004.6 24363 17 161 7 58 51 3 $GNGGA,082214.00,4333.68429,N,00128.73951,E,1,06,1.30,165.7,M,53.8,M,,*44
dc_1
25 08 22 15 4333.6842500128.73935165.0102Ä@∞CP.∞2–1004.7 00128.73935 165.0 1101010101 1100010011 1100101000 10000001011 10000110101 1011101011 1100101101 1110011111 1011101110 1101011011 1011011000 1100000001 10000011100 10000111001 1100000100 1011111010 1011111010 1011101111 20.250 55.344 1004.7 25363 16 161 8 59 51 3 $GNGGA,082215.00,4333.68425,N,00128.73935,E,1,06,1.30,165.0,M,53.8,M,,*4C
dc_1
26 08 22 16 4333.6841000128.73983165.91Ä2ê@∞C0.¿3@1004.6 00128.73983 165.9 1101010101 1100011000 1100101001 10000001011 10000110011 1011101100 1100110100 1110011100 1011101101 1101011011 1011011010 1100000011 10000100100 10000111011 1100000100 1011111001 1011111110 1011110101 20.250 55.390 1004.6 26363 17 161 7 58 51 3 $GNGGA,082216.00,4333.68410,N,00128.73983,E,1,06,1.30,165.9,M,53.8,M,,*4D
dc_1
27 08 22 17 4333.6840600128.74010166.3102pA 00128.74010 166.3 1101010101 1100010011 1100100111 10000010000 10000110111 1011101101 1100110011 1110011101 1011101100 1101011011 1011011000 1011111110 10000100101 10000111100 1100000010 1011111001 1011111111 1011111000 20.250 55.405 1004.6 27363 16 158 8 58 52 3 $GNGGA,082217.00,4333.68406,N,00128.74010,E,1,05,1.51,166.3,M,53.8,M,,*42
dc_1
28 08 22 18 4333.6841300128.74004165.71@2p@†CP.∞3 00128.74004 165.7 1101010101 1100010100 1100100111 10000001010 10000110101 1011101011 1100110000 1110011110 1011101110 1101011011 1011011011 1100000001 10000100010 10000111011 1100000010 1011111000 1100000000 1011110101 20.250 55.390 1004.7 28363 16 159 7 58 51 3 $GNGGA,082218.00,4333.68413,N,00128.74004,E,1,05,1.50,165.7,M,53.8,M,,*4A
dc_1
29 08 22 19 4333.6841500128.74009165.412@@pC`.‡3p1004.7 00128.74009 165.4 1101010101 1100010001 1100100100 10000000111 10000110110 1011101110 1100110111 1110011111 1011101111 1101011011 1011010100 1011111110 10000101000 10000111101 1011111101 1011110110 1011111001 1011111001 20.250 55.382 1004.7 29363 18 157 7 58 52 3 $GNGGA,082219.00,4333.68415,N,00128.74009,E,1,06,1.30,165.4,M,53.8,M,,*46
dc_1
30 08 22 20 4333.6842400128.74001164.2102P@†C`.–31004.6 00128.74001 164.2 1101010101 1100010011 1100100101 10000001010 10000110110 1011101101 1100110001 1110011001 1011100110 1101011011 1011011001 1100000010 10000101000 10000111011 1100000000 1011111001 1100000010 1011111010 20.250 55.352 1004.6 30363 16 158 7 59 51 3 $GNGGA,082220.00,4333.68424,N,00128.74001,E,1,06,1.30,164.2,M,53.8,M,,*41
dc_1
31 08 22 21 4333.6844700128.73978162.71 2@@êC∞.–3 00128.73978 162.7 1101010110 1100010010 1100100100 10000001001 10000111011 1011101101 1100110000 1110010110 1011101100 1101011011 1011011001 1011111111 10000100101 10000111100 1100000100 1011111101 1011111010 1011110100 20.250 55.443 1004.7 31363 17 154 8 58 51 3 $GNGGA,082221.00,4333.68447,N,00128.73978,E,1,06,1.30,162.7,M,53.8,M,,*46
dc_1
32 08 22 22 4333.6844700128.73980162.21 00128.73980 162.2 1101010101 1100010000 1100100011 10000001010 10000110110 1011100111 1100101010 1110011000 1011101100 1101011011 1011011000 1100000010 10000100011 10000111010 1100000010 1011111010 1011111110 1011110100 20.250 55.451 1004.7 32363 16 155 8 59 51 3 $GNGGA,082222.00,4333.68447,N,00128.73980,E,1,06,1.30,162.2,M,53.8,M,,*47
dc_1
33 08 22 23 4333.6844900128.73986162.002`@êCP.ê3 1004.7 00128.73986 162.0 1101010101 1100001111 1100100110 10000001001 10000110101 1011101001 1100110010 1110011010 1011110001 1101011010 1011011011 1011111111 10000101011 10000111101 1011111111 1011111001 1100001000 1100000011 20.250 55.459 1004.7 33363 17 154 7 58 51 3 $GNGGA,082223.00,4333.68449,N,00128.73986,E,1,06,1.29,162.0,M,53.8,M,,*44
dc_1
34 08 22 24 4333.6847100128.73958160.8102`A Cê.3@1004.7 00128.73958 160.8 1101010101 1100010011 1100100110 10000010010 10000111001 1011101111 1100110100 1110011000 1011101101 1101011011 1011011000 1011111111 10000100010 10000111010 1100000010 1011111110 1011111110 1011110011 20.250 55.459 1004.7 34363 16 151 9 59 51 3 $GNGGA,082224.00,4333.68471,N,00128.73958,E,1,06,1.29,160.8,M,53.8,M,,*41
dc_1
35 08 22 25 4333.6847300128.73971160.71 00128.73971 160.7 1101010101 1100010000 1100100101 10000001011 10000110100 1011101011 1100110001 1110011100 1011111001 1101011011 1011010110 1011111111 10000100001 10000111001 1100000110 1011111010 1100000111 1011111110 20.250 55.466 1004.7 35363 16 152 7 58 51 3 $GNGGA,082225.00,4333.68473,N,00128.73971,E,1,06,1.29,160.7,M,53.8,M,,*46
dc_1
36 08 22 26 4333.6848100128.73961159.81@2ê@–C`.301004.7 00128.73961 159.8 1101010101 1100010100 1100101001 10000001101 10000110110 1011101111 1100110011 1110010010 1011110001 1101011011 1011010100 1011111111 10000101000 10000111011 1100000010 1011111000 1100000010 1011111100 20.188 55.481 1004.7 36363 17 151 8 58 52 3 $GNGGA,082226.00,4333.68481,N,00128.73961,E,1,06,1.29,159.8,M,53.8,M,,*4C
dc_1
37 08 22 27 4333.6849900128.73946158.81 00128.73946 158.8 1101010110 1100010000 1100100101 10000010000 10000110111 1011101101 1100110011 1110011011 1011101010 1101011011 1011011000 1100000000 10000100100 10000111001 1011111100 1011110110 1100000001 1011111110 20.250 55.481 1004.7 37363 16 151 7 59 51 3 $GNGGA,082227.00,4333.68499,N,00128.73946,E,1,06,1.29,158.8,M,53.8,M,,*40
dc_1
38 08 22 28 4333.6850800128.73945158.61 2`ACÄ.Ä31004.7 00128.73945 158.6 1101010101 1100010010 1100100110 10000010001 10000111000 1011101000 1100110001 1110011000 1011101011 1101011011 1011010111 1100000000 10000100101 10000111101 1100000001 1011111010 1011111110 1011110010 20.250 55.466 1004.7 38363 17 150 7 58 51 4 $GNGGA,082228.00,4333.68508,N,00128.73945,E,1,05,1.50,158.6,M,53.8,M,,*46
dc_1
39 08 22 29 4333.6853400128.73915157.4102p@C`/ 00128.73915 157.4 1101010101 1100010011 1100100111 10000001111 10000110110 1011110000 1100110011 1110010100 1011100110 1101011011 1011010110 1011111111 10000100110 10000111100 1100000110 1011111110 1100000001 1011111000 20.250 55.459 1004.7 39363 16 149 8 59 51 3 $GNGGA,082229.00,4333.68534,N,00128.73915,E,1,05,1.50,157.4,M,53.8,M,,*40
dc_1
40 08 22 30 4333.6854500128.73895156.61 2@A 00128.73895 156.6 1101010101 1100010010 1100100100 10000010000 10000110110 1011101111 1100110000 1110011001 1011101001 1101011011 1011010111 1100000000 10000101000 10000111101 1011111111 1011110101 1100000110 1011111100 20.250 55.436 1004.7 40363 16 149 7 58 51 3 $GNGGA,082230.00,4333.68545,N,00128.73895,E,1,05,1.50,156.6,M,53.8,M,,*44
dc_1
41 08 22 31 4333.6856000128.73880155.91 2Ä@–C`.ê3 00128.73880 155.9 1101010101 1100010010 1100101000 10000001101 10000110110 1011101001 1100110000 1110010010 1011011111 1101011011 1011010111 1100000001 10000100100 10000111011 1100001000 1100000001 1100000110 1011111100 20.188 55.420 1004.7 41363 17 148 8 59 51 3 $GNGGA,082231.00,4333.68560,N,00128.73880,E,1,05,1.50,155.9,M,53.8,M,,*4A
dc_1
42 08 22 32 4333.6858100128.73846154.71P2`@¿C†.ê2‡1004.7 00128.73846 154.7 1101010101 1100010101 1100100110 10000001100 10000111010 1011101001 1100101110 1110010111 1011100111 1101011011 1011011001 1011111111 10000100101 10000111100 1100000101 1100000001 1100000101 1011111111 20.250 55.420 1004.7 42363 16 143 7 58 51 3 $GNGGA,082232.00,4333.68581,N,00128.73846,E,1,05,1.50,154.7,M,53.8,M,,*43
dc_1
43 08 22 33 4333.6859200128.73820153.9102@@CÄ.–3@1004.7 00128.73820 153.9 1101010101 1100010011 1100100100 10000001111 10000111000 1011101101 1100110100 1110010110 1011101000 1101011011 1011010011 1100000000 10000100011 10000111000 1100000010 1011111000 1100000100 1011111001 20.188 55.413 1004.7 43363 17 144 7 58 52 3 $GNGGA,082233.00,4333.68592,N,00128.73820,E,1,05,1.50,153.9,M,53.8,M,,*49
dc_1
44 08 22 34 4333.6860000128.73812153.6102Ä@‡Cp.31004.7 00128.73812 153.6 1101010101 1100010011 1100101000 10000001110 10000110111 1011101111 1100110001 1110010011 1011101110 1101011011 1011011011 1100000001 10000100100 10000111100 1100000010 1011110111 1100000101 1011111000 20.250 55.451 1004.7 44363 16 143 7 58 51 3 $GNGGA,082234.00,4333.68600,N,00128.73812,E,1,05,1.50,153.6,M,53.8,M,,*48
dc_1
45 08 22 35 4333.6861500128.73785152.612@A0CÄ.`21004.7 00128.73785 152.6 1101010101 1100010001 1100100100 10000010011 10000111000 1011100110 1100101111 1110011001 1011101011 1101011011 1011011000 1011111111 10000100010 10000111011 1100000000 1011111000 1011111101 1011111101 20.250 55.474 1004.7 45363 17 143 7 58 52 3 $GNGGA,082235.00,4333.68615,N,00128.73785,E,1,05,1.50,152.6,M,53.8,M,,*4D
dc_1
46 08 22 36 4333.6862200128.73759152.102 @ÄCp.∞2‡1004.7 00128.73759 152.1 1101010101 1100001111 1100100010 10000001000 10000110111 1011101011 1100101110 1110010010 1011011110 1101011011 1011010111 1011111111 10000100010 10000111000 1100000101 1011111110 1011111111 1011111010 20.188 55.504 1004.7 46363 16 142 8 59 51 3 $GNGGA,082236.00,4333.68622,N,00128.73759,E,1,05,1.50,152.1,M,53.8,M,,*4C
dc_1
47 08 22 37 4333.6864300128.73734151.1102PA 00128.73734 151.1 1101010101 1100010011 1100100101 10000010000 10000111010 1011101010 1100110001 1110010100 1011011111 1101011011 1011011010 1100000010 10000101000 10000111011 1011111101 1011110111 1011111011 1011110010 20.250 55.520 1004.7 47363 16 142 7 58 51 3 $GNGGA,082237.00,4333.68643,N,00128.73734,E,1,05,1.50,151.1,M,53.8,M,,*42
dc_1
48 08 22 38 4333.6866400128.73720150.5102p@∞CP.3 00128.73720 150.5 1101010101 1100010011 1100100111 10000001011 10000110101 1011101111 1100110000 1110010110 1011100010 1101011011 1011011100 1100000001 10000100011 10000111011 1100000100 1011111010 1100000011 1011111100 20.188 55.543 1004.7 48363 17 139 8 59 51 3 $GNGGA,082238.00,4333.68664,N,00128.73720,E,1,05,1.50,150.5,M,53.8,M,,*48
dc_1
49 08 22 39 4333.6865500128.73717150.61P2`@pCP.∞31004.7 00128.73717 150.6 1101010101 1100010101 1100100110 10000000111 10000110101 1011101011 1100110001 1110010010 1011100000 1101011011 1011011010 1100000001 10000101100 10000111101 1100000100 1011111000 1011111011 1011111100 20.188 55.550 1004.7 49363 17 140 7 58 51 3 $GNGGA,082239.00,4333.68655,N,00128.73717,E,1,05,1.50,150.6,M,53.8,M,,*4C
dc_1
50 08 22 40 4333.6865600128.73700150.91`2ê@¿Cp.‡3 00128.73700 150.9 1101010101 1100010110 1100101001 10000001100 10000110111 1011101110 1100110000 1110010100 1011011110 1101011011 1011010110 1011111111 10000101001 10000111010 1100000001 1011111100 1011111100 1011111011 20.188 55.550 1004.7 50363 17 137 8 59 51 3 $GNGGA,082240.00,4333.68656,N,00128.73700,E,1,06,1.16,150.9,M,53.8,M,,*49
dc_1
51 08 22 41 4333.6865900128.73698151.31P2p@pCP.¿3 00128.73698 151.3 1101010101 1100010101 1100100111 10000000111 10000110101 1011101100 1100110000 1110010000 1011100111 1101011011 1011011000 1100000000 10000101000 10000111011 1100001101 1011111110 1011111111 1011111000 20.188 55.550 1004.7 51363 16 137 8 58 51 3 $GNGGA,082241.00,4333.68659,N,00128.73698,E,1,06,1.16,151.3,M,53.8,M,,*4C
dc_1
52 08 22 42 4333.6866100128.73680151.6102p@pCp.‡31004.7 00128.73680 151.6 1101010101 1100010011 1100100111 10000000111 10000110111 1011101110 1100110001 1110011000 1011101110 1101011011 1011011100 1100000011 10000100110 10000111011 1011111110 1011111000 1011111110 1011111100 20.188 55.565 1004.7 52363 16 139 7 58 52 3 $GNGGA,082242.00,4333.68661,N,00128.73680,E,1,06,1.16,151.6,M,53.8,M,,*48
dc_1
53 08 22 43 4333.6866300128.73648152.0102p@–C`.ê2–1004.7 00128.73648 152.0 1101010101 1100010011 1100100111 10000001101 10000110110 1011101001 1100101101 1110010101 1011100111 1101011011 1011011001 1011111111 10000100000 10000111001 1100000001 1011111011 1011111101 1011111001 20.250 55.604 1004.7 53363 17 133 8 59 51 3 $GNGGA,082243.00,4333.68663,N,00128.73648,E,1,06,1.16,152.0,M,53.8,M,,*4A
dc_1
54 08 22 44 4333.6866500128.73645151.7102`@Cê.–3p1004.7 00128.73645 151.7 1101010101 1100010011 1100100110 10000001111 10000111001 1011101101 1100110111 1110011001 1011101001 1101011011 1011011001 1011111111 10000100111 10000111100 1100000111 1011111100 1011111110 1011110110 20.188 55.619 1004.7 54363 16 135 7 58 51 4 $GNGGA,082244.00,4333.68665,N,00128.73645,E,1,05,1.50,151.7,M,53.8,M,,*43
dc_1
55 08 22 45 4333.6866400128.73642152.11@2`A CÄ.†2∞1004.7 00128.73642 152.1 1101010101 1100010100 1100100110 10000010010 10000111000 1011101010 1100101011 1110010111 1011100001 1101011011 1011010101 1100000000 10000100110 10000111011 1100000000 1011111010 1100000000 1011111010 20.188 55.619 1004.7 55363 17 134 7 59 51 3 $GNGGA,082245.00,4333.68664,N,00128.73642,E,1,06,1.16,152.1,M,53.8,M,,*40
dc_1
56 08 22 46 4333.6866900128.73614152.61@2@A`Cp.‡31004.7 00128.73614 152.6 1101010101 1100010100 1100100100 10000010110 10000110111 1011101110 1100110001 1110011001 1011100101 1101011011 1011011011 1100000000 10000101011 10000111101 1100000100 1011111100 1011111100 1011110010 20.188 55.611 1004.7 56363 16 135 7 58 51 3 $GNGGA,082246.00,4333.68669,N,00128.73614,E,1,06,1.16,152.6,M,53.8,M,,*4A
dc_1
57 08 22 47 4333.6866400128.73615153.11 2@@pC0.3@1004.7 00128.73615 153.1 1101010101 1100010010 1100100100 10000000111 10000110011 1011101111 1100110100 1110010010 1011100001 1101011011 1011011010 1100000000 10000100100 10000111010 1011111111 1011110110 1100000001 1011111101 20.188 55.604 1004.7 57363 17 132 7 59 51 3 $GNGGA,082247.00,4333.68664,N,00128.73615,E,1,06,1.16,153.1,M,53.8,M,,*41
dc_1
58 08 22 48 4333.6865500128.73641154.21@2ê@êC`.¿301004.7 00128.73641 154.2 1101010101 1100010100 1100101001 10000001001 10000110110 1011101100 1100110011 1110010000 1011011011 1101011011 1011010111 1100000001 10000100011 10000111010 1100000100 1011111001 1011110111 1011111001 20.250 55.619 1004.7 58363 16 132 9 58 51 3 $GNGGA,082248.00,4333.68655,N,00128.73641,E,1,06,1.16,154.2,M,53.8,M,,*49
dc_1
59 08 22 49 4333.6864200128.73635155.21`2P@¿C`.†2¿1004.7 00128.73635 155.2 1101010101 1100010110 1100100101 10000001100 10000110110 1011101010 1100101100 1110010110 1011100111 1101011011 1011010110 1011111111 10000100011 10000111101 1100000001 1011110111 1100000100 1011111100 20.188 55.649 1004.7 59363 16 130 7 58 52 3 $GNGGA,082249.00,4333.68642,N,00128.73635,E,1,06,1.16,155.2,M,53.8,M,,*4C
dc_1
60 08 22 50 4333.6862200128.73642156.01P2p@pC`/ 00128.73642 156.0 1101010101 1100010101 1100100111 10000000111 10000110110 1011110000 1100110100 1110011000 1011100001 1101011011 1011010110 1011111111 10000100011 10000111011 1100000111 1011111011 1011111101 1011110110 20.188 55.687 1004.7 60363 17 127 7 58 51 3 $GNGGA,082250.00,4333.68622,N,00128.73642,E,1,06,1.16,156.0,M,53.8,M,,*43
dc_1
61 08 22 51 4333.6860000128.73615156.61@2Ä@∞Cp.–31004.6 00128.73615 156.6 1101010101 1100010100 1100101000 10000001011 10000110111 1011101101 1100110001 1110011000 1011101000 1101011011 1011011000 1011111111 10000100110 10000111100 1100000011 1011111011 1100000001 1011111010 20.188 55.703 1004.6 61363 16 129 7 58 52 3 $GNGGA,082251.00,4333.68600,N,00128.73615,E,1,06,1.16,156.6,M,53.8,M,,*46
dc_1
62 08 22 52 4333.6858500128.73609157.21@2p@êCp.–2‡1004.7 00128.73609 157.2 1101010101 1100010100 1100100111 10000001001 10000110111 1011101101 1100101110 1110010010 1011101000 1101011011 1011011001 1100000001 10000100100 10000111010 1100000011 1011111000 1100000110 1100000111 20.188 55.687 1004.7 62363 17 127 7 59 51 3 $GNGGA,082252.00,4333.68585,N,00128.73609,E,1,06,1.16,157.2,M,53.8,M,,*43
dc_1
63 08 22 53 4333.6857400128.73630157.9102p@êCp.3P1004.7 00128.73630 157.9 1101010101 1100010011 1100100111 10000001001 10000110111 1011101111 1100110101 1110010110 1011101100 1101011010 1011011000 1100000000 10000100110 10000111101 1011111111 1011110111 1011111110 1011111011 20.188 55.771 1004.7 63363 16 126 8 58 51 3 $GNGGA,082253.00,4333.68574,N,00128.73630,E,1,06,1.16,157.9,M,53.8,M,,*4D
dc_1
64 08 22 54 4333.6856400128.73639158.8102`@Cp.¿301004.7 00128.73639 158.8 1101010110 1100010011 1100100110 10000001111 10000110111 1011101100 1100110011 1110010100 1011100111 1101011011 1011010011 1011111100 10000100101 10000111011 1011111101 1011111000 1100000110 1011111010 20.188 55.771 1004.7 64363 16 122 8 59 51 3 $GNGGA,082254.00,4333.68564,N,00128.73639,E,1,06,1.16,158.8,M,53.8,M,,*4C
dc_1
65 08 22 55 4333.6856400128.73626159.1102Ä@–CÄ.ê2–1004.7 00128.73626 159.1 1101010101 1100010011 1100101000 10000001101 10000111000 1011101001 1100101101 1110011011 1011101101 1101011011 1011010100 1011111111 10000100010 10000111001 1100000011 1011110011 1100000100 1011111110 20.188 55.779 1004.7 65363 17 124 7 58 51 3 $GNGGA,082255.00,4333.68564,N,00128.73626,E,1,06,1.16,159.1,M,53.8,M,,*4B
dc_1
66 08 22 56 4333.6856200128.73620159.5102p@∞C†.∞21004.7 00128.73620 159.5 1101010101 1100010011 1100100111 10000001011 10000111010 1011101011 1100101111 1110011000 1011100100 1101011011 1011010110 1011111110 10000100100 10000111010 1100000010 1011110101 1100000101 1011111000 20.188 55.680 1004.7 66363 16 124 7 59 51 3 $GNGGA,082256.00,4333.68562,N,00128.73620,E,1,06,1.16,159.5,M,53.8,M,,*4C
dc_1
67 08 22 57 4333.6856700128.73632160.11@2p@¿CÄ.∞3 00128.73632 160.1 1101010101 1100010100 1100100111 10000001100 10000111000 1011101011 1100110000 1110011011 1011100111 1101011011 1011010111 1011111111 10000100001 10000111001 1100000000 1011111011 1100001001 1011111001 20.188 55.619 1004.7 67363 17 122 7 58 51 3 $GNGGA,082257.00,4333.68567,N,00128.73632,E,1,06,1.16,160.1,M,53.8,M,,*45
dc_1
68 08 22 58 4333.6856500128.73648160.11@2p@†Cê.–2Ä1004.7 00128.73648 160.1 1101010101 1100010100 1100100111 10000001010 10000111001 1011101101 1100101000 1110100011 1011110001 1101011011 1011011010 1100000010 10000100100 10000111011 1100000111 1011111011 1100000010 1011111011 20.188 55.573 1004.7 68363 16 121 7 58 52 3 $GNGGA,082258.00,4333.68565,N,00128.73648,E,1,05,1.49,160.1,M,53.8,M,,*4C
dc_1
