id HH MM SS longitude latitude altitude adc_1_ch0 adc_1_ch1 adc_1_ch2 adc_1_ch3 adc_1_ch4 adc_1_ch5 adc_1_ch6 adc_1_ch7 adc_1_ch8 adc_2_ch0 adc_2_ch1 adc_2_ch2 adc_2_ch3 adc_2_ch4 adc_2_ch5 adc_2_ch6 adc_2_ch7 adc_2_ch8 temp hum pres t_prog t_gps t_split t_adc t_temp t_hum t_pres trame_gga
1 08 29 45 4333.6871200128.73639131.712`@ÄC`/ 00128.73639 131.7 1101010101 1100010001 1100100110 10000001000 10000110110 1011110000 1100110101 1110010111 1011100100 1101011011 1011011001 1011111101 10000011111 10000111011 1100000000 1011111011 1011111111 1011111001 19.875 55.237 795.83 1872 17 262 8 58 51 3 $GNGGA,082945.00,4333.68712,N,00128.73639,E,1,08,1.04,131.7,M,53.8,M,,*49

2 08 29 46 4333.6872500128.73678131.91@2ê@‡Cp/ 301004.7 00128.73678 131.9 1101010101 1100010100 1100101001 10000001110 10000110111 1011110010 1100110011 1110010011 1011100010 1101011011 1011010100 1011111111 10000100000 10000111011 1100000110 1100000000 1011111111 1100000010 19.813 55.222 1004.7 2872 16 262 7 58 52 3 $GNGGA,082946.00,4333.68725,N,00128.73678,E,1,07,1.22,131.9,M,53.8,M,,*4E

3 08 29 47 4333.6873700128.73702132.21P2Ä@êCÄ.¿31004.7 00128.73702 132.2 1101010101 1100010101 1100101000 10000001001 10000111000 1011101100 1100110001 1110010100 1011100110 1101011011 1011010110 1100000001 10000100110 10000111010 1100000111 1011111100 1100000001 1011111010 19.813 55.169 1004.7 3872 17 259 7 58 51 3 $GNGGA,082947.00,4333.68737,N,00128.73702,E,1,07,1.22,132.2,M,53.8,M,,*48

4 08 29 48 4333.6874000128.73695132.0102PA C¿.†2¿1004.7 00128.73695 132.0 1101010101 1100010011 1100100101 10000010010 10000111100 1011101010 1100101100 1110000111 1011100010 1101011011 1011011000 1100000000 10000100010 10000111011 1100000010 1011111010 1011111100 1011110011 19.813 55.092 1004.7 4872 16 256 7 58 52 3 $GNGGA,082948.00,4333.68740,N,00128.73695,E,1,07,1.22,132.0,M,53.8,M,,*4A

5 08 29 49 4333.6874800128.73718132.01 2p@‡C`.∞301004.6 00128.73718 132.0 1101010101 1100010010 1100100111 10000001110 10000110110 1011101011 1100110011 1110011000 1011101010 1101011011 1011010100 1011111110 10000100001 10000111010 1100000001 1011111010 1011111010 1011111010 19.875 55.031 1004.6 5872 17 259 7 59 51 3 $GNGGA,082949.00,4333.68748,N,00128.73718,E,1,07,1.22,132.0,M,53.8,M,,*47

6 08 29 50 4333.6874100128.73714132.2020AC¿.¿31004.7 00128.73714 132.2 1101010101 1100001111 1100100011 10000010001 10000111100 1011101100 1100110001 1110010101 1011100100 1101011011 1011010011 1011111110 10000100100 10000111010 1100000011 1011111101 1100001010 1100000101 19.875 55.031 1004.7 6872 16 260 7 58 51 3 $GNGGA,082950.00,4333.68741,N,00128.73714,E,1,07,1.22,132.2,M,53.8,M,,*48

7 08 29 51 4333.6873800128.73726132.11 2`@pC .`2ê1004.6 00128.73726 132.1 1101010101 1100010010 1100100110 10000000111 10000110010 1011100110 1100101001 1110001111 1011100111 1101011011 1011010100 1011111111 10000100001 10000111100 1100000001 1011111011 1011111110 1011111011 19.813 55.062 1004.6 7872 16 257 7 59 51 3 $GNGGA,082951.00,4333.68738,N,00128.73726,E,1,07,1.22,132.1,M,53.8,M,,*45

8 08 29 52 4333.6877700128.73808132.0102@A C∞.¿3 1004.6 00128.73808 132.0 1101010101 1100010011 1100100100 10000010010 10000111011 1011101100 1100110010 1110010010 1011100110 1101011011 1011010101 1011111111 10000011110 10000111001 1100000011 1011111000 1100000011 1011111111 19.813 55.062 1004.6 8872 17 255 8 58 51 3 $GNGGA,082952.00,4333.68777,N,00128.73808,E,1,07,1.22,132.0,M,53.8,M,,*4F

9 08 29 53 4333.6879300128.73823132.0102ÄA 00128.73823 132.0 1101010101 1100010011 1100101000 10000010000 10000111000 1011101101 1100110001 1110010010 1011100110 1101011011 1011010101 1011111100 10000100011 10000111010 1011111110 1011110110 1011111111 1011111000 19.875 54.970 1004.6 9872 16 255 7 59 51 3 $GNGGA,082953.00,4333.68793,N,00128.73823,E,1,07,1.22,132.0,M,53.8,M,,*4D

10 08 29 54 4333.6879800128.73831132.0102ê@†CP.‡3`1004.6 00128.73831 132.0 1101010101 1100010011 1100101001 10000001010 10000110101 1011101110 1100110110 1110010100 1011101000 1101011011 1011010011 1011111011 10000011010 10000110111 1100000001 1011110111 1100000011 1011111000 19.813 54.993 1004.6 10872 17 252 7 58 51 3 $GNGGA,082954.00,4333.68798,N,00128.73831,E,1,07,1.22,132.0,M,53.8,M,,*42

11 08 29 55 4333.6881000128.73865131.8102p@êC`.∞2ê1004.6 00128.73865 131.8 1101010101 1100010011 1100100111 10000001001 10000110110 1011101011 1100101001 1110001011 1011100001 1101011011 1011010111 1100000010 10000011001 10000111010 1100000101 1011111100 1100000001 1011111100 19.875 55.001 1004.6 11872 16 251 7 58 52 3 $GNGGA,082955.00,4333.68810,N,00128.73865,E,1,08,1.04,131.8,M,53.8,M,,*4D

12 08 29 56 4333.6882200128.73896132.01 2`@ Cp.‡3p1004.6 00128.73896 132.0 1101010101 1100010010 1100100110 10000000010 10000110111 1011101110 1100110111 1110001100 1011011111 1101011011 1011010110 1100000000 10000011110 10000111001 1100000011 1011110110 1100000110 1100000010 19.875 54.993 1004.6 12872 17 250 7 59 51 3 $GNGGA,082956.00,4333.68822,N,00128.73896,E,1,07,1.22,132.0,M,53.8,M,,*43

13 08 29 57 4333.6883300128.73912131.912P@ C@.∞2‡1004.6 00128.73912 131.9 1101010101 1100010001 1100100101 10000000010 10000110100 1011101011 1100101110 1110010010 1011011110 1101011011 1011011000 1100000000 10000011111 10000111001 1100000111 1011111011 1011111110 1011110110 19.875 55.001 1004.6 13872 16 249 8 58 51 4 $GNGGA,082957.00,4333.68833,N,00128.73912,E,1,07,1.22,131.9,M,53.8,M,,*45

14 08 29 58 4333.6884500128.73923132.102`@ 00128.73923 132.1 1101010110 1100001111 1100100110 10000000000 10000110110 1011100111 1100101111 1110011000 1011101000 1101011011 1011011000 1100000000 10000011111 10000111000 1100000001 1011111101 1011111111 1011110111 19.875 55.031 1004.6 14872 16 248 7 59 51 3 $GNGGA,082958.00,4333.68845,N,00128.73923,E,1,07,1.22,132.1,M,53.8,M,,*42

15 08 29 59 4333.6886400128.73951132.0102Ä@êC`/03@1004.6 00128.73951 132.0 1101010101 1100010011 1100101000 10000001001 10000110110 1011110011 1100110100 1110001110 1011100001 1101011011 1011010111 1100000000 10000100100 10000111011 1100000101 1011111001 1100000011 1011111011 19.875 55.069 1004.6 15872 17 248 7 58 51 3 $GNGGA,082959.00,4333.68864,N,00128.73951,E,1,07,1.22,132.0,M,53.8,M,,*44

16 08 30 00 4333.6886300128.73954132.11@2ê@pC0/3Ä1004.6 00128.73954 132.1 1101010110 1100010100 1100101001 10000000111 10000110011 1011110001 1100111000 1110001011 1011011111 1101011011 1011010110 1100000000 10000101010 10000111111 1100000000 1011110110 1011111011 1011111010 19.813 55.062 1004.6 16872 16 249 7 59 51 3 $GNGGA,083000.00,4333.68863,N,00128.73954,E,1,07,1.22,132.1,M,53.8,M,,*43

17 08 30 01 4333.6885700128.73948132.21@2Ä@∞Cê.∞3@1004.6 00128.73948 132.2 1101010101 1100010100 1100101000 10000001011 10000111001 1011101011 1100110100 1110001001 1011011110 1101011011 1011010101 1011111111 10000100100 10000111100 1100000010 1011111011 1011111100 1011110101 19.875 55.069 1004.6 17872 18 247 7 58 51 3 $GNGGA,083001.00,4333.68857,N,00128.73948,E,1,07,1.22,132.2,M,53.8,M,,*4B

18 08 30 02 4333.6885300128.73948132.3102ê@–C`.`2–1004.6 00128.73948 132.3 1101010101 1100010011 1100101001 10000001101 10000110110 1011100110 1100101101 1110001110 1011100000 1101011011 1011011001 1100000001 10000100010 10000111001 1100000001 1011111011 1100000010 1011110001 19.813 55.100 1004.6 18872 16 244 8 58 52 3 $GNGGA,083002.00,4333.68853,N,00128.73948,E,1,07,1.22,132.3,M,53.8,M,,*4D

19 08 30 03 4333.6886100128.73991132.31`2Ä?C0.∞3 00128.73991 132.3 1101010110 1100010110 1100101000 1111111111 10000110011 1011101011 1100110000 1110001010 1011011111 1101011011 1011011001 1011111101 10000011111 10000111010 1100000100 1011111000 1100000011 1011110100 19.875 55.138 1004.6 19872 16 244 7 58 51 3 $GNGGA,083003.00,4333.68861,N,00128.73991,E,1,07,1.22,132.3,M,53.8,M,,*49

20 08 30 04 4333.6886900128.74013132.41P2p@†CP.∞301004.6 00128.74013 132.4 1101010101 1100010101 1100100111 10000001010 10000110101 1011101011 1100110011 1110001101 1011011100 1101011011 1011010100 1011111111 10000100000 10000111010 1100000011 1011111111 1100000010 1011110111 19.875 55.115 1004.6 20872 17 242 8 58 52 3 $GNGGA,083004.00,4333.68869,N,00128.74013,E,1,07,1.22,132.4,M,53.8,M,,*45

21 08 30 05 4333.6886300128.74012132.61`2Ä@‡CÄ/ 00128.74012 132.6 1101010101 1100010110 1100101000 10000001110 10000111000 1011110000 1100110000 1110001111 1011100000 1101011011 1011010101 1100000000 10000100000 10000111101 1100000010 1011111001 1100000010 1011111100 19.875 55.123 1004.6 21872 16 244 8 59 51 3 $GNGGA,083005.00,4333.68863,N,00128.74012,E,1,07,1.22,132.6,M,53.8,M,,*4D

22 08 30 06 4333.6886400128.74021132.8102@@pC0.¿3P1004.6 00128.74021 132.8 1101010110 1100010011 1100100100 10000000111 10000110011 1011101100 1100110101 1110001011 1011100100 1101011011 1011010110 1100000001 10000101000 10000111010 1100000001 1011111010 1011110111 1011110010 19.875 55.146 1004.6 22872 17 242 7 58 51 3 $GNGGA,083006.00,4333.68864,N,00128.74021,E,1,07,1.22,132.8,M,53.8,M,,*47

23 08 30 07 4333.6886800128.73998133.71@2p@†C /03 00128.73998 133.7 1101010101 1100010100 1100100111 10000001010 10000110010 1011110011 1100110000 1110010000 1011100010 1101011011 1011010110 1011111110 10000100100 10000111010 1100000000 1011111011 1011111010 1011111000 19.875 55.108 1004.6 23872 16 240 8 59 51 3 $GNGGA,083007.00,4333.68868,N,00128.73998,E,1,08,1.04,133.7,M,53.8,M,,*43

24 08 30 08 4333.6886900128.73995133.91 00128.73995 133.9 1101010101 1100010000 1100100101 10000010010 10000111010 1011100111 1100110010 1110010001 1011100001 1101011011 1011010111 1011111111 10000100011 10000111010 1100000111 1011111011 1100000110 1100000010 19.813 55.077 1004.6 24872 16 238 7 58 51 3 $GNGGA,083008.00,4333.68869,N,00128.73995,E,1,07,1.22,133.9,M,53.8,M,,*45

25 08 30 09 4333.6887000128.74006134.21 2@A0CÄ/ 00128.74006 134.2 1101010110 1100010010 1100100100 10000010011 10000111000 1011110000 1100110100 1110010000 1011100011 1101011011 1011011010 1100000011 10000100011 10000111101 1100000110 1011111011 1100000100 1011111010 19.875 55.100 1004.6 25872 16 240 8 59 51 3 $GNGGA,083009.00,4333.68870,N,00128.74006,E,1,07,1.22,134.2,M,53.8,M,,*44

26 08 30 10 4333.6887800128.73975134.8102P@∞C@.‡3P1004.6 00128.73975 134.8 1101010101 1100010011 1100100101 10000001011 10000110100 1011101110 1100110101 1110001111 1011100010 1101011011 1011010110 1100000001 10000100001 10000111100 1100000011 1011111001 1100001001 1100000000 19.875 55.115 1004.6 26872 16 239 8 58 51 3 $GNGGA,083010.00,4333.68878,N,00128.73975,E,1,08,1.04,134.8,M,53.8,M,,*4F

27 08 30 11 4333.6887900128.73925135.71`2Ä@†C`.301004.6 00128.73925 135.7 1101010101 1100010110 1100101000 10000001010 10000110110 1011101111 1100110011 1110001111 1011100111 1101011011 1011010110 1100000101 10000100101 10000111101 1100000100 1011111001 1100000001 1011111100 19.875 55.085 1004.6 27872 18 238 7 58 52 3 $GNGGA,083011.00,4333.68879,N,00128.73925,E,1,08,1.04,135.7,M,53.8,M,,*44

28 08 30 12 4333.6888200128.73877137.0102p@`C0.–21004.6 00128.73877 137.0 1101010101 1100010011 1100100111 10000000110 10000110011 1011101101 1100101111 1110001001 1011100100 1101011011 1011010101 1100000011 10000100010 10000111010 1100000100 1011110111 1011111110 1011111100 19.875 55.100 1004.6 28872 16 237 8 59 51 3 $GNGGA,083012.00,4333.68882,N,00128.73877,E,1,08,1.04,137.0,M,53.8,M,,*40

29 08 30 13 4333.6888900128.73863137.91@2p@C†.‡3ê1004.6 00128.73863 137.9 1101010101 1100010100 1100100111 10000001111 10000111010 1011101110 1100111001 1110001111 1011101100 1101011011 1011010011 1011111110 10000011001 10000111001 1100000101 1011111011 1011111110 1011111010 19.875 55.123 1004.6 29872 17 236 7 58 51 4 $GNGGA,083013.00,4333.68889,N,00128.73863,E,1,08,1.04,137.9,M,53.8,M,,*46

30 08 30 14 4333.6887400128.73839138.81 2P@0CÄ.ê3 1004.6 00128.73839 138.8 1101010101 1100010010 1100100101 10000000011 10000111000 1011101001 1100110010 1110001111 1011101000 1101011011 1011011000 1011111111 10000100111 10000111011 1100000100 1011111110 1100000011 1011111101 19.875 55.115 1004.6 30872 16 236 7 59 51 3 $GNGGA,083014.00,4333.68874,N,00128.73839,E,1,08,1.04,138.8,M,53.8,M,,*42

31 08 30 15 4333.6886500128.73802139.51 2p@ÄCP.3 1004.6 00128.73802 139.5 1101010101 1100010010 1100100111 10000001000 10000110101 1011101111 1100110010 1110001010 1011101000 1101011011 1011010010 1011111011 10000100000 10000111011 1100000110 1011111011 1100001000 1011111110 19.875 55.207 1004.6 31872 16 236 7 58 51 3 $GNGGA,083015.00,4333.68865,N,00128.73802,E,1,08,1.04,139.5,M,53.8,M,,*47

32 08 30 16 4333.6884900128.73786139.51P2ê@‡C∞/3Ä1004.6 00128.73786 139.5 1101010101 1100010101 1100101001 10000001110 10000111011 1011110001 1100111000 1110001101 1011011101 1101011011 1011010100 1011111111 10000011110 10000111100 1100000010 1011111011 1011111100 1011111011 19.875 55.245 1004.6 32872 18 231 7 59 51 3 $GNGGA,083016.00,4333.68849,N,00128.73786,E,1,07,1.22,139.5,M,53.8,M,,*42

33 08 30 17 4333.6884500128.73791139.7102ÄACê.‡3 00128.73791 139.7 1101010101 1100010011 1100101000 10000010001 10000111001 1011101110 1100110000 1110001000 1011100100 1101011011 1011010100 1100000000 10000011111 10000111001 1100000100 1011111010 1100000000 1011111010 19.875 55.176 1004.6 33872 16 230 7 58 51 3 $GNGGA,083017.00,4333.68845,N,00128.73791,E,1,07,1.22,139.7,M,53.8,M,,*4B

34 08 30 18 4333.6884100128.73785140.1102`A CÄ.3P1004.6 00128.73785 140.1 1101010101 1100010011 1100100110 10000010010 10000111000 1011101111 1100110101 1110001110 1011100100 1101011011 1011011000 1011111111 10000011111 10000111010 1100000010 1011111011 1011111101 1011111011 19.875 55.092 1004.6 34872 18 229 7 58 52 3 $GNGGA,083018.00,4333.68841,N,00128.73785,E,1,08,1.04,140.1,M,53.8,M,,*46

35 08 30 19 4333.6884000128.73753140.51P2PACê/ 00128.73753 140.5 1101010101 1100010101 1100100101 10000010001 10000111001 1011110000 1100101110 1110010101 1011100110 1101011011 1011010110 1011111111 10000100100 10000111010 1100000010 1011111011 1100000001 1100000000 19.875 55.062 1004.6 35872 16 230 8 58 51 3 $GNGGA,083019.00,4333.68840,N,00128.73753,E,1,08,1.04,140.5,M,53.8,M,,*49

36 08 30 20 4333.6883300128.73738140.91 2P@ÄC@.∞2–1004.6 00128.73738 140.9 1101010101 1100010010 1100100101 10000001000 10000110100 1011101011 1100101101 1110010101 1011100101 1101011011 1011011011 1100000010 10000100111 10000111101 1100000000 1011111010 1100000001 1011111010 19.875 55.031 1004.6 36872 17 229 8 58 52 3 $GNGGA,083020.00,4333.68833,N,00128.73738,E,1,08,1.04,140.9,M,53.8,M,,*46

37 08 30 21 4333.6883200128.73719141.61@2ÄA0Cê.–3P1004.6 00128.73719 141.6 1101010101 1100010100 1100101000 10000010011 10000111001 1011101101 1100110101 1110010101 1011101110 1101011011 1011010111 1011111110 10000100101 10000111011 1100000000 1011110100 1100000110 1011111100 19.875 55.008 1004.6 37872 16 228 8 59 51 3 $GNGGA,083021.00,4333.68832,N,00128.73719,E,1,08,1.04,141.6,M,53.8,M,,*4B

38 08 30 22 4333.6882200128.73688142.01 2`@–CP/03`1004.6 00128.73688 142.0 1101010101 1100010010 1100100110 10000001101 10000110101 1011110011 1100110110 1110001100 1011100110 1101011011 1011011000 1100000000 10000100100 10000111011 1011111111 1011110111 1100000100 1011111100 19.875 55.108 1004.6 38872 17 228 7 58 51 3 $GNGGA,083022.00,4333.68822,N,00128.73688,E,1,08,1.04,142.0,M,53.8,M,,*45

39 08 30 23 4333.6880700128.73659142.4102P@êC@.‡3P1004.6 00128.73659 142.4 1101010110 1100010011 1100100101 10000001001 10000110100 1011101110 1100110101 1110010111 1011101100 1101011011 1011010010 1011111110 10000011011 10000111011 1100000100 1011111001 1011111110 1011110111 19.875 55.092 1004.6 39872 17 226 7 59 51 3 $GNGGA,083023.00,4333.68807,N,00128.73659,E,1,08,1.04,142.4,M,53.8,M,,*4B

40 08 30 24 4333.6880200128.73635142.812p@–C`.`2–1004.6 00128.73635 142.8 1101010101 1100010001 1100100111 10000001101 10000110110 1011100110 1100101101 1110001111 1011101010 1101011011 1011010010 1011111111 10000011011 10000111000 1100000101 1011111001 1011111111 1011111000 19.875 55.039 1004.6 40872 16 224 7 58 51 3 $GNGGA,083024.00,4333.68802,N,00128.73635,E,1,08,1.04,142.8,M,53.8,M,,*4F

41 08 30 25 4333.6881800128.73621143.512`@–C`.∞3 1004.6 00128.73621 143.5 1101010101 1100010001 1100100110 10000001101 10000110110 1011101011 1100110010 1110010000 1011101011 1101011011 1011011001 1100000001 10000011101 10000111010 1100000011 1011111000 1011111111 1011111111 19.875 54.986 1004.6 41872 18 225 7 59 51 3 $GNGGA,083025.00,4333.68818,N,00128.73621,E,1,08,1.04,143.5,M,53.8,M,,*4C

42 08 30 26 4333.6883100128.73638143.212`@†CÄ/ 00128.73638 143.2 1101010110 1100010001 1100100110 10000001010 10000111000 1011110000 1100110011 1110010100 1011101110 1101011011 1011010111 1100000001 10000011101 10000111010 1011111110 1011111000 1100001010 1100000011 19.875 54.978 1004.6 42872 16 222 8 58 51 3 $GNGGA,083026.00,4333.68831,N,00128.73638,E,1,07,1.22,143.2,M,53.8,M,,*40

43 08 30 27 4333.6882300128.73634143.312Ä@¿C`.Ä21004.6 00128.73634 143.3 1101010101 1100010001 1100101000 10000001100 10000110110 1011101000 1100101111 1110001110 1011100101 1101011011 1011010111 1100000001 10000100101 10000111011 1100000100 1011110111 1100000000 1011110110 19.875 54.993 1004.6 43872 16 221 7 58 52 3 $GNGGA,083027.00,4333.68823,N,00128.73634,E,1,07,1.22,143.3,M,53.8,M,,*4F

44 08 30 28 4333.6884100128.73675142.6102p@∞C`.Ä2†1004.6 00128.73675 142.6 1101010101 1100010011 1100100111 10000001011 10000110110 1011101000 1100101010 1110001101 1011100110 1101011011 1011010100 1100000000 10000100110 10000111100 1100001001 1100000001 1100000011 1011111000 19.875 55.069 1004.6 44872 17 221 7 59 51 3 $GNGGA,083028.00,4333.68841,N,00128.73675,E,1,08,1.09,142.6,M,53.8,M,,*43

45 08 30 29 4333.6886500128.73717142.2102`@ÄC0.‡3p1004.6 00128.73717 142.2 1101010101 1100010011 1100100110 10000001000 10000110011 1011101110 1100110111 1110001101 1011100100 1101011011 1011010110 1011111110 10000101010 10000111100 1100000001 1011110100 1011111110 1011110101 19.938 55.100 1004.6 45872 16 220 7 58 51 4 $GNGGA,083029.00,4333.68865,N,00128.73717,E,1,08,1.09,142.2,M,53.8,M,,*45

46 08 30 30 4333.6887200128.73742141.6102p@ CP.‡31004.6 00128.73742 141.6 1101010101 1100010011 1100100111 10000000010 10000110101 1011101110 1100110001 1110010011 1011100110 1101011011 1011010110 1011111111 10000100110 10000111010 1100000110 1011111011 1100000001 1011111111 19.938 55.153 1004.6 46872 18 219 7 59 51 3 $GNGGA,083030.00,4333.68872,N,00128.73742,E,1,08,1.09,141.6,M,53.8,M,,*4C

47 08 30 31 4333.6888600128.73775141.012P@êC`.‡301004.6 00128.73775 141.0 1101010101 1100010001 1100100101 10000001001 10000110110 1011101110 1100110011 1110001000 1011100011 1101011011 1011010100 1100000000 10000100101 10000111011 1100000110 1011111011 1011111101 1011111010 19.938 55.222 1004.6 47872 16 217 8 58 51 3 $GNGGA,083031.00,4333.68886,N,00128.73775,E,1,08,1.09,141.0,M,53.8,M,,*44

48 08 30 32 4333.6890800128.73811140.51 2Ä@∞CÄ.–31004.6 00128.73811 140.5 1101010101 1100010010 1100101000 10000001011 10000111000 1011101101 1100110001 1110001110 1011100101 1101011011 1011010111 1011111110 10000100001 10000111001 1100000011 1011110111 1011111010 1011111011 19.938 55.214 1004.6 48872 17 217 8 59 51 3 $GNGGA,083032.00,4333.68908,N,00128.73811,E,1,08,1.09,140.5,M,53.8,M,,*49

49 08 30 33 4333.6892300128.73832140.11@2Ä@ÄCP.3@1004.6 00128.73832 140.1 1101010110 1100010100 1100101000 10000001000 10000110101 1011101111 1100110100 1110001010 1011100101 1101011011 1011010110 1011111101 10000100100 10000111100 1011111111 1011110111 1011110111 1011110001 19.938 55.176 1004.6 49872 16 217 8 58 51 3 $GNGGA,083033.00,4333.68923,N,00128.73832,E,1,08,1.09,140.1,M,53.8,M,,*44

50 08 30 34 4333.6891100128.73826140.31 2Ä@ÄC@.301004.6 00128.73826 140.3 1101010101 1100010010 1100101000 10000001000 10000110100 1011101111 1100110011 1110001110 1011101000 1101011011 1011010100 1011111111 10000011110 10000111000 1100000101 1011110111 1011111100 1011111010 19.938 55.153 1004.6 50872 16 214 8 58 52 3 $GNGGA,083034.00,4333.68911,N,00128.73826,E,1,07,1.22,140.3,M,53.8,M,,*43

51 08 30 35 4333.6892400128.73855139.91 2Ä@¿C .ê3 00128.73855 139.9 1101010110 1100010010 1100101000 10000001100 10000110010 1011101001 1100110000 1110001101 1011100111 1101011011 1011011000 1011111111 10000100100 10000111100 1100001001 1011111111 1011111010 1011110111 19.938 55.161 1004.6 51872 17 211 8 58 51 3 $GNGGA,083035.00,4333.68924,N,00128.73855,E,1,08,1.09,139.9,M,53.8,M,,*42

52 08 30 36 4333.6893800128.73891139.31 00128.73891 139.3 1101010101 1100010000 1100100101 10000000110 10000111000 1011101100 1100110110 1110010011 1011011101 1101011011 1011010011 1011111101 10000011110 10000111011 1100000011 1011111010 1011111101 1011111110 19.938 55.108 1004.6 52872 16 213 7 58 52 3 $GNGGA,083036.00,4333.68938,N,00128.73891,E,1,08,1.09,139.3,M,53.8,M,,*4E

53 08 30 37 4333.6894500128.73914138.81 2p@¿C`/ 3Ä1004.6 00128.73914 138.8 1101010101 1100010010 1100100111 10000001100 10000110110 1011110010 1100111000 1110010000 1011100111 1101011011 1011010100 1100000001 10000100000 10000111100 1100000101 1011111010 1100000111 1011111110 19.938 55.062 1004.6 53872 18 213 7 59 51 3 $GNGGA,083037.00,4333.68945,N,00128.73914,E,1,08,1.09,138.8,M,53.8,M,,*43

54 08 30 38 4333.6894600128.73933138.5102P@êCÄ.–31004.6 00128.73933 138.5 1101010101 1100010011 1100100101 10000001001 10000111000 1011101101 1100110001 1110010000 1011100010 1101011011 1011010101 1011111011 10000100111 10000111100 1011111101 1011110100 1100001001 1100000100 19.938 55.047 1004.6 54872 17 213 8 58 51 3 $GNGGA,083038.00,4333.68946,N,00128.73933,E,1,08,1.09,138.5,M,53.8,M,,*47

55 08 30 39 4333.6895200128.73945138.11 00128.73945 138.1 1101010110 1100010000 1100100111 10000001101 10000110111 1011101101 1100110010 1110010100 1011100010 1101011011 1011011000 1100000000 10000100000 10000111010 1100000101 1100000000 1100000001 1011111000 19.938 55.092 1004.6 55872 16 211 7 59 51 3 $GNGGA,083039.00,4333.68952,N,00128.73945,E,1,08,1.09,138.1,M,53.8,M,,*46

56 08 30 40 4333.6895100128.73958137.91 2Ä@–C`.3@1004.6 00128.73958 137.9 1101010101 1100010010 1100101000 10000001101 10000110110 1011101111 1100110100 1110001101 1011100111 1101011011 1011011000 1100000001 10000011101 10000111010 1100000011 1011111100 1011111111 1011111101 19.938 55.100 1004.6 56872 17 209 7 58 51 3 $GNGGA,083040.00,4333.68951,N,00128.73958,E,1,08,1.09,137.9,M,53.8,M,,*40

57 08 30 41 4333.6894000128.73960137.41@2†@∞Cê/3 1004.6 00128.73960 137.4 1101010101 1100010100 1100101010 10000001011 10000111001 1011110001 1100110010 1110001111 1011011111 1101011011 1011010110 1100000000 10000100001 10000111011 1100000000 1011110110 1100000010 1011110100 19.938 55.115 1004.6 57872 17 209 7 59 51 3 $GNGGA,083041.00,4333.68940,N,00128.73960,E,1,08,1.09,137.4,M,53.8,M,,*47

58 08 30 42 4333.6893900128.73969137.0102†@@C@.∞3 1004.6 00128.73969 137.0 1101010101 1100010011 1100101010 10000000100 10000110100 1011101011 1100110010 1110010001 1011101000 1101011011 1011010100 1100000000 10000100001 10000111011 1100000110 1011111011 1011111101 1011111010 19.938 55.039 1004.6 58872 17 207 7 58 51 3 $GNGGA,083042.00,4333.68939,N,00128.73969,E,1,08,1.09,137.0,M,53.8,M,,*47

59 08 30 43 4333.6893900128.73974136.8102`@¿C`.∞2∞1004.6 00128.73974 136.8 1101010101 1100010011 1100100110 10000001100 10000110110 1011101011 1100101011 1110010000 1011100000 1101011011 1011010111 1011111111 10000100001 10000111001 1100000010 1011110111 1011111111 1011110100 20.000 55.008 1004.6 59872 16 208 7 58 52 3 $GNGGA,083043.00,4333.68939,N,00128.73974,E,1,08,1.09,136.8,M,53.8,M,,*43

60 08 30 44 4333.6894200128.73988136.41P2ÄA 00128.73988 136.4 1101010101 1100010101 1100101000 10000010000 10000110111 1011101100 1100110011 1110001010 1011100010 1101011011 1011010100 1011111101 10000100010 10000111010 1100000110 1011111011 1011111011 1011110110 19.938 55.016 1004.6 60872 17 207 8 59 51 3 $GNGGA,083044.00,4333.68942,N,00128.73988,E,1,08,1.09,136.4,M,53.8,M,,*47

61 08 30 45 4333.6894500128.74001136.01P2Ä@CÄ.Ä2¿1004.6 00128.74001 136.0 1101010101 1100010101 1100101000 10000001111 10000111000 1011101000 1100101100 1110001011 1011011011 1101011011 1011010010 1100000000 10000100111 10000111101 1100000110 1100000100 1011111111 1011110110 19.938 55.062 1004.6 61872 16 205 8 58 51 4 $GNGGA,083045.00,4333.68945,N,00128.74001,E,1,08,1.09,136.0,M,53.8,M,,*4A

62 08 30 46 4333.6893900128.74011135.6102P@êC`/03`1004.6 00128.74011 135.6 1101010101 1100010011 1100100101 10000001001 10000110110 1011110011 1100110110 1110010010 1011100111 1101011011 1011011001 1100000000 10000100010 10000111100 1100000011 1011111000 1100000001 1011111010 20.000 55.062 1004.6 62872 16 203 7 59 51 3 $GNGGA,083046.00,4333.68939,N,00128.74011,E,1,08,1.09,135.6,M,53.8,M,,*46

63 08 30 47 4333.6893400128.74022135.1102`@`C@.ê2¿1004.6 00128.74022 135.1 1101010110 1100010011 1100100110 10000000110 10000110100 1011101001 1100101100 1110010010 1011101101 1101011011 1011010101 1100000001 10000100010 10000111100 1100000011 1011110111 1011111100 1011111010 20.000 55.016 1004.6 63872 17 204 8 58 51 3 $GNGGA,083047.00,4333.68934,N,00128.74022,E,1,08,1.09,135.1,M,53.8,M,,*4D

64 08 30 48 4333.6893800128.74038134.71 2@@‡Cê/ 3–1004.6 00128.74038 134.7 1101010101 1100010010 1100100100 10000001110 10000111001 1011110010 1100111101 1110010010 1011101000 1101011011 1011010010 1011111100 10000101110 10000111100 1100000011 1011111010 1011111100 1011110110 20.000 54.947 1004.6 64872 16 203 7 59 51 3 $GNGGA,083048.00,4333.68938,N,00128.74038,E,1,08,1.09,134.7,M,53.8,M,,*42

65 08 30 49 4333.6893400128.74045134.31P2`@‡C†.`2‡1004.6 00128.74045 134.3 1101010101 1100010101 1100100110 10000001110 10000111010 1011100110 1100101110 1110001011 1011011000 1101011011 1011010100 1011111101 10000100111 10000111011 1100000011 1011111000 1100000011 1011110011 19.938 54.917 1004.6 65872 17 202 8 58 51 3 $GNGGA,083049.00,4333.68934,N,00128.74045,E,1,08,1.09,134.3,M,53.8,M,,*41

66 08 30 50 4333.6892400128.74049134.01P2p@–C†.301004.6 00128.74049 134.0 1101010101 1100010101 1100100111 10000001101 10000111010 1011101111 1100110011 1110010010 1011100000 1101011011 1011011000 1100000010 10000100011 10000111011 1100000101 1011111011 1100001001 1011111011 20.000 54.879 1004.6 66872 17 199 8 58 52 3 $GNGGA,083050.00,4333.68924,N,00128.74049,E,1,08,1.09,134.0,M,53.8,M,,*47

67 08 30 51 4333.6890900128.74036134.1120@†CÄ.∞3 00128.74036 134.1 1101010101 1100010001 1100100011 10000001010 10000111000 1011101011 1100110000 1110010110 1011100101 1101011011 1011010110 1011111110 10000011110 10000111001 1100000100 1011110111 1100000000 1011110110 20.000 54.856 1004.6 67872 16 200 7 58 51 3 $GNGGA,083051.00,4333.68909,N,00128.74036,E,1,08,1.09,134.1,M,53.8,M,,*40

68 08 30 52 4333.6890400128.74049133.8102p@–CP.P2∞1004.6 00128.74049 133.8 1101010101 1100010011 1100100111 10000001101 10000110101 1011100101 1100101011 1110010011 1011100011 1101011011 1011011100 1100000011 10000011110 10000111011 1100000001 1011110111 1100000010 1011111010 20.000 54.871 1004.6 68872 17 199 7 58 52 3 $GNGGA,083052.00,4333.68904,N,00128.74049,E,1,08,1.09,133.8,M,53.8,M,,*48

69 08 30 53 4333.6890200128.74054133.7102`AÄC†.ê3 00128.74054 133.7 1101010101 1100010011 1100100110 10000011000 10000111010 1011101001 1100110000 1110001110 1011100010 1101011011 1011010111 1011111111 10000100111 10000111011 1100000000 1011110111 1100000000 1011110111 20.000 54.871 1004.6 69872 17 196 7 59 51 3 $GNGGA,083053.00,4333.68902,N,00128.74054,E,1,08,1.09,133.7,M,53.8,M,,*4C

70 08 30 54 4333.6889600128.74057133.612`@Cp.–3@1004.6 00128.74057 133.6 1101010101 1100010001 1100100110 10000001111 10000110111 1011101101 1100110100 1110001101 1011100011 1101011011 1011010111 1011111110 10000101010 10000111011 1100000010 1011111010 1011111101 1011110110 20.000 54.886 1004.6 70872 17 198 7 58 51 3 $GNGGA,083054.00,4333.68896,N,00128.74057,E,1,08,1.09,133.6,M,53.8,M,,*45

71 08 30 55 4333.6889500128.74062133.51 2p@∞C`/ 00128.74062 133.5 1101010110 1100010010 1100100111 10000001011 10000110110 1011110000 1100110001 1110010000 1011100111 1101011011 1011010111 1011111110 10000100110 10000111100 1011111111 1011111000 1100000011 1011110101 20.000 54.894 1004.6 71872 17 197 7 59 51 3 $GNGGA,083055.00,4333.68895,N,00128.74062,E,1,08,1.09,133.5,M,53.8,M,,*42

72 08 30 56 4333.6889200128.74055133.3102ê@–Cê.†21004.6 00128.74055 133.3 1101010101 1100010011 1100101001 10000001101 10000111001 1011101010 1100101111 1110010010 1011101001 1101011011 1011011000 1100000000 10000100001 10000111001 1100000011 1011111011 1011111110 1011110010 20.000 54.902 1004.6 72872 16 194 7 58 51 3 $GNGGA,083056.00,4333.68892,N,00128.74055,E,1,08,1.09,133.3,M,53.8,M,,*44

73 08 30 57 4333.6889900128.74060133.012p@¿C`/3@1004.6 00128.74060 133.0 1101010101 1100010001 1100100111 10000001100 10000110110 1011110001 1100110100 1110001001 1011011000 1101011011 1011011001 1100000000 10000100001 10000111001 1100000100 1011110110 1100000000 1011110111 20.000 54.902 1004.6 73872 17 191 8 59 51 3 $GNGGA,083057.00,4333.68899,N,00128.74060,E,1,08,1.09,133.0,M,53.8,M,,*4B

74 08 30 58 4333.6888400128.74050133.41 00128.74050 133.4 1101010110 1100010000 1100100110 10000001101 10000110111 1011110010 1100111010 1110011100 1011100111 1101011011 1011010111 1100000010 10000101011 10000111100 1100000001 1011111001 1011111101 1011111100 20.000 54.856 1004.6 74872 16 192 7 58 51 3 $GNGGA,083058.00,4333.68884,N,00128.74050,E,1,07,1.22,133.4,M,53.8,M,,*49

75 08 30 59 4333.6886600128.74048133.21@2p@∞CÄ/ 00128.74048 133.2 1101010101 1100010100 1100100111 10000001011 10000111000 1011110000 1100111010 1110010110 1011100100 1101011010 1011011000 1100000001 10000100000 10000111010 1011111111 1011111000 1011111110 1011111010 20.000 54.818 1004.6 75872 17 192 7 58 52 3 $GNGGA,083059.00,4333.68866,N,00128.74048,E,1,08,1.09,133.2,M,53.8,M,,*4D

76 08 31 00 4333.6887000128.74071132.81 2`@C`/ 301004.6 00128.74071 132.8 1101010101 1100010010 1100100110 10000001111 10000110110 1011110010 1100110011 1110010101 1011110001 1101011011 1011011001 1100000010 10000100100 10000111011 1100000100 1100000000 1100000011 1100000011 20.000 54.787 1004.6 76872 16 192 8 59 51 3 $GNGGA,083100.00,4333.68870,N,00128.74071,E,1,08,1.09,132.8,M,53.8,M,,*46

77 08 31 01 4333.6887500128.74077132.71P2p@‡CÄ.–31004.6 00128.74077 132.7 1101010101 1100010101 1100100111 10000001110 10000111000 1011101101 1100110001 1110010011 1011101001 1101011011 1011010110 1100000001 10000100000 10000111011 1100001000 1011111100 1011110101 1011111011 20.000 54.772 1004.6 77872 17 191 8 58 51 4 $GNGGA,083101.00,4333.68875,N,00128.74077,E,1,08,1.09,132.7,M,53.8,M,,*4B

78 08 31 02 4333.6887000128.74087132.412p@–Cp.∞31004.6 00128.74087 132.4 1101010101 1100010001 1100100111 10000001101 10000110111 1011101011 1100110001 1110011001 1011101010 1101011011 1011010100 1100000001 10000011101 10000111010 1100000000 1011111000 1100000000 1011111111 20.000 54.772 1004.6 78872 16 189 8 59 51 3 $GNGGA,083102.00,4333.68870,N,00128.74087,E,1,08,1.09,132.4,M,53.8,M,,*41

79 08 31 03 4333.6887700128.74111132.1102Ä@∞Cp.¿21004.6 00128.74111 132.1 1101010101 1100010011 1100101000 10000001011 10000110111 1011101100 1100101111 1110000110 1011101000 1101011011 1011010101 1011111110 10000100001 10000111011 1100000100 1011111000 1100000111 1100000110 20.000 54.780 1004.6 79872 16 189 8 58 51 3 $GNGGA,083103.00,4333.68877,N,00128.74111,E,1,08,1.09,132.1,M,53.8,M,,*4C

80 08 31 04 4333.6887100128.74115131.7102p@‡CÄ.∞2¿1004.6 00128.74115 131.7 1101010101 1100010011 1100100111 10000001110 10000111000 1011101011 1100101100 1110010101 1011101110 1101011011 1011010110 1011111111 10000101001 10000111100 1100000100 1011111011 1100001000 1011111111 20.000 54.795 1004.6 80872 17 185 7 59 51 3 $GNGGA,083104.00,4333.68871,N,00128.74115,E,1,08,1.09,131.7,M,53.8,M,,*4C

81 08 31 05 4333.6886700128.74135131.51 00128.74135 131.5 1101010110 1100010000 1100100100 10000001100 10000110111 1011101101 1100110000 1110010111 1011110010 1101011011 1011010110 1100000001 10000100000 10000111100 1100000000 1011111001 1100000110 1011111001 20.000 54.818 1004.6 81872 16 187 8 58 51 3 $GNGGA,083105.00,4333.68867,N,00128.74135,E,1,08,1.09,131.5,M,53.8,M,,*4A

82 08 31 06 4333.6885900128.74155131.61 2`@–CÄ.¿31004.6 00128.74155 131.6 1101010101 1100010010 1100100110 10000001101 10000111000 1011101100 1100110001 1110010001 1011100100 1101011011 1011010110 1011111100 10000101001 10000111100 1100000100 1011111010 1100000010 1011111100 20.000 54.856 1004.6 82872 18 184 7 58 52 3 $GNGGA,083106.00,4333.68859,N,00128.74155,E,1,08,1.09,131.6,M,53.8,M,,*41

83 08 31 07 4333.6887300128.74191131.41@2p@–Cp.‡3 1004.6 00128.74191 131.4 1101010101 1100010100 1100100111 10000001101 10000110111 1011101110 1100110010 1110001001 1011100101 1101011011 1011010111 1011111110 10000100111 10000111100 1011111111 1011110100 1011111111 1011111000 20.000 54.856 1004.6 83872 16 183 8 58 51 3 $GNGGA,083107.00,4333.68873,N,00128.74191,E,1,08,1.09,131.4,M,53.8,M,,*42

84 08 31 08 4333.6888000128.74203131.1102p@ÄC0.–301004.6 00128.74203 131.1 1101010101 1100010011 1100100111 10000001000 10000110011 1011101101 1100110011 1110010010 1011101010 1101011011 1011011000 1100000010 10000100110 10000111011 1100000000 1011110111 1100000100 1011111111 20.000 54.863 1004.6 84872 16 183 7 58 52 3 $GNGGA,083108.00,4333.68880,N,00128.74203,E,1,08,1.09,131.1,M,53.8,M,,*4C

85 08 31 09 4333.6888300128.74213131.11@2†@`C@/ 00128.74213 131.1 1101010101 1100010100 1100101010 10000000110 10000110100 1011110000 1100110000 1110001010 1011101010 1101011011 1011010011 1011111110 10000100111 10000111100 1100000100 1011111011 1011111111 1011110001 20.000 54.871 1004.6 85872 18 181 7 59 51 3 $GNGGA,083109.00,4333.68883,N,00128.74213,E,1,08,1.09,131.1,M,53.8,M,,*4F

86 08 31 10 4333.6888800128.74232130.81 00128.74232 130.8 1101010101 1100010000 1100100111 10000001001 10000110100 1011101111 1100110101 1110011000 1011110111 1101011011 1011011001 1100000001 10000100010 10000111010 1100000000 1011110100 1011111010 1011110000 20.000 54.886 1004.6 86872 16 182 7 58 51 3 $GNGGA,083110.00,4333.68888,N,00128.74232,E,1,07,1.14,130.8,M,53.8,M,,*44

87 08 31 11 4333.6890800128.74227130.01 2`@ÄC / 3 00128.74227 130.0 1101010101 1100010010 1100100110 10000001000 10000110010 1011110010 1100110000 1110001101 1011100101 1101011011 1011010110 1100000001 10000100101 10000111011 1100000111 1011111011 1100000101 1011111110 20.000 54.879 1004.6 87872 17 179 8 59 51 3 $GNGGA,083111.00,4333.68908,N,00128.74227,E,1,07,1.14,130.0,M,53.8,M,,*40

88 08 31 12 4333.6892900128.74226129.41 2Ä@êCp.‡3p1004.6 00128.74226 129.4 1101010101 1100010010 1100101000 10000001001 10000110111 1011101110 1100110111 1110010101 1011101011 1101011011 1011010110 1011111110 10000011110 10000111001 1100000011 1011111111 1100000000 1011110010 20.000 54.848 1004.6 88872 17 179 7 58 51 3 $GNGGA,083112.00,4333.68929,N,00128.74226,E,1,07,1.14,129.4,M,53.8,M,,*4D

89 08 31 13 4333.6895600128.74281129.41 2†@¿C`.‡3 00128.74281 129.4 1101010101 1100010010 1100101010 10000001100 10000110110 1011101110 1100110000 1110011000 1011101101 1101011011 1011010011 1011111111 10000100000 10000111100 1100000011 1011110101 1100000100 1011111011 20.000 54.833 1004.6 89872 17 180 7 59 51 3 $GNGGA,083113.00,4333.68956,N,00128.74281,E,1,07,1.14,129.4,M,53.8,M,,*49

90 08 31 14 4333.6898000128.74363129.11P2Ä@@C .Ä2¿1004.6 00128.74363 129.1 1101010101 1100010101 1100101000 10000000100 10000110010 1011101000 1100101100 1110001100 1011100001 1101011011 1011010011 1100000000 10000100100 10000111011 1100000000 1011111000 1011111110 1011111000 20.000 54.818 1004.6 90872 17 176 8 58 51 3 $GNGGA,083114.00,4333.68980,N,00128.74363,E,1,07,1.14,129.1,M,53.8,M,,*4D

91 08 31 15 4333.6901900128.74460128.5102Ä@PCP.ê3p1004.6 00128.74460 128.5 1101010101 1100010011 1100101000 10000000101 10000110101 1011101001 1100110111 1110001110 1011100011 1101011011 1011010110 1100000000 10000100010 10000111010 1100000010 1011110101 1011111001 1011111010 20.000 54.772 1004.6 91872 16 174 8 58 52 3 $GNGGA,083115.00,4333.69019,N,00128.74460,E,1,07,1.14,128.5,M,53.8,M,,*45

92 08 31 16 4333.6904500128.74541128.6102`@ÄCp.∞3 00128.74541 128.6 1101010101 1100010011 1100100110 10000001000 10000110111 1011101011 1100110000 1110010010 1011100011 1101011011 1011010010 1011111110 10000100011 10000111100 1100000011 1011111001 1011111100 1011110101 20.000 54.726 1004.6 92872 17 176 7 59 51 3 $GNGGA,083116.00,4333.69045,N,00128.74541,E,1,08,1.09,128.6,M,53.8,M,,*4D

93 08 31 17 4333.6904900128.74571128.51@2P@¿CÄ.¿3p1004.6 00128.74571 128.5 1101010101 1100010100 1100100101 10000001100 10000111000 1011101100 1100110111 1110010111 1011101001 1101011011 1011010110 1100000000 10000101010 10000111011 1011111111 1011110111 1100000110 1011111011 20.000 54.711 1004.6 93872 16 177 7 58 51 4 $GNGGA,083117.00,4333.69049,N,00128.74571,E,1,08,1.09,128.5,M,53.8,M,,*40

94 08 31 18 4333.6905400128.74602128.3102`@êCÄ.‡3p1004.6 00128.74602 128.3 1101010110 1100010011 1100100110 10000001001 10000111000 1011101110 1100110111 1110010100 1011100101 1101011011 1011010100 1011111111 10000100101 10000111100 1100001010 1100000001 1011111110 1011110111 20.000 54.658 1004.6 94872 17 175 7 59 51 3 $GNGGA,083118.00,4333.69054,N,00128.74602,E,1,08,1.09,128.3,M,53.8,M,,*42

95 08 31 19 4333.6905000128.74607128.01 2p@êCp.¿301004.6 00128.74607 128.0 1101010101 1100010010 1100100111 10000001001 10000110111 1011101100 1100110011 1110001101 1011100110 1101011011 1011010100 1011111111 10000100010 10000111100 1100000001 1011111011 1100000001 1011111001 20.000 54.619 1004.6 95872 16 176 7 58 51 3 $GNGGA,083119.00,4333.69050,N,00128.74607,E,1,08,1.09,128.0,M,53.8,M,,*41

96 08 31 20 4333.6905900128.74644127.8102P@pCp.‡3@1004.6 00128.74644 127.8 1101010101 1100010011 1100100101 10000000111 10000110111 1011101110 1100110100 1110010000 1011100101 1101011011 1011010101 1011111111 10000011001 10000111001 1100000010 1011111011 1100000001 1011111101 20.000 54.612 1004.6 96872 16 174 7 59 51 3 $GNGGA,083120.00,4333.69059,N,00128.74644,E,1,08,1.09,127.8,M,53.8,M,,*42

97 08 31 21 4333.6906800128.74705128.0102`APCÄ.¿3 1004.6 00128.74705 128.0 1101010110 1100010011 1100100110 10000010101 10000111000 1011101100 1100110010 1110010001 1011100010 1101011011 1011011010 1100000010 10000011110 10000111011 1100000111 1011111010 1011111011 1011111001 20.000 54.635 1004.6 97872 16 172 9 58 51 3 $GNGGA,083121.00,4333.69068,N,00128.74705,E,1,08,1.09,128.0,M,53.8,M,,*42

98 08 31 22 4333.6907200128.74698127.3102pA`Cê/3p1004.6 00128.74698 127.3 1101010101 1100010011 1100100111 10000010110 10000111001 1011110001 1100110111 1110001011 1011100001 1101011011 1011011001 1100000000 10000100010 10000111011 1100000001 1011111001 1100000011 1011110110 20.000 54.658 1004.6 98872 16 172 7 58 52 3 $GNGGA,083122.00,4333.69072,N,00128.74698,E,1,08,1.09,127.3,M,53.8,M,,*43

99 08 31 23 4333.6908700128.74767126.81 2Ä@∞Cp.`2∞1004.6 00128.74767 126.8 1101010101 1100010010 1100101000 10000001011 10000110111 1011100110 1100101011 1110001010 1011011110 1101011011 1011010101 1011111110 10000011111 10000111001 1011111110 1011111000 1100000111 1011111101 20.000 54.665 1004.6 99872 17 170 8 58 51 3 $GNGGA,083123.00,4333.69087,N,00128.74767,E,1,08,1.09,126.8,M,53.8,M,,*43

100 08 31 24 4333.6907400128.74704126.2102`@êCP.‡3`1004.6 00128.74704 126.2 1101010101 1100010011 1100100110 10000001001 10000110101 1011101110 1100110110 1110001000 1011010100 1101011011 1011011000 1100000000 10000100111 10000111011 1100000101 1011111100 1100000010 1011111100 20.000 54.688 1004.6 100872 16 171 7 58 52 3 $GNGGA,083124.00,4333.69074,N,00128.74704,E,1,09,0.88,126.2,M,53.8,M,,*4E

101 08 31 25 4333.6909100128.74709125.51 2p@ÄC .∞301004.6 00128.74709 125.5 1101010101 1100010010 1100100111 10000001000 10000110010 1011101011 1100110011 1110001110 1011011110 1101011011 1011010110 1100000000 10000100001 10000111010 1100000110 1011111011 1011111110 1011111011 20.000 54.703 1004.6 101872 17 169 7 59 51 3 $GNGGA,083125.00,4333.69091,N,00128.74709,E,1,09,0.88,125.5,M,53.8,M,,*4D

102 08 31 26 4333.6908900128.74719125.11@2†A 00128.74719 125.1 1101010101 1100010100 1100101010 10000010000 10000110101 1011101001 1100101011 1110010110 1011101110 1101011011 1011011000 1011111111 10000100110 10000111101 1100000011 1011111001 1011111111 1011110111 20.000 54.703 1004.6 102872 16 166 8 58 51 3 $GNGGA,083126.00,4333.69089,N,00128.74719,E,1,09,0.88,125.1,M,53.8,M,,*42

103 08 31 27 4333.6907900128.74725125.0102P@@CP.‡301004.6 00128.74725 125.0 1101010101 1100010011 1100100101 10000000100 10000110101 1011101110 1100110011 1110000100 1011100000 1101011011 1011010101 1100000000 10000100011 10000111100 1100000000 1011110111 1100001001 1100000010 20.000 54.726 1004.6 103872 16 167 8 59 51 3 $GNGGA,083127.00,4333.69079,N,00128.74725,E,1,09,0.88,125.0,M,53.8,M,,*42

104 08 31 28 4333.6908800128.74687124.612p@†C`/301004.6 00128.74687 124.6 1101010101 1100010001 1100100111 10000001010 10000110110 1011110001 1100110011 1110001010 1011100100 1101011011 1011011011 1100000001 10000100001 10000111100 1100000001 1011110111 1100000011 1011110101 20.000 54.757 1004.6 104872 18 165 7 58 51 3 $GNGGA,083128.00,4333.69088,N,00128.74687,E,1,08,1.04,124.6,M,53.8,M,,*49

105 08 31 29 4333.6909200128.74649124.3102P@†Cp.∞3 00128.74649 124.3 1101010110 1100010011 1100100101 10000001010 10000110111 1011101011 1100110000 1110001011 1011100110 1101011011 1011011001 1100000001 10000100011 10000111010 1100000010 1011111001 1100000001 1011111101 20.000 54.894 1004.6 105872 16 167 7 59 51 3 $GNGGA,083129.00,4333.69092,N,00128.74649,E,1,08,1.04,124.3,M,53.8,M,,*44

106 08 31 30 4333.6907900128.74646124.61@2Ä@ÄC†.∞21004.6 00128.74646 124.6 1101010110 1100010100 1100101000 10000001000 10000111010 1011101011 1100101111 1110010100 1011101000 1101011011 1011011001 1100000001 10000100100 10000111010 1011111111 1011110101 1100000001 1011111010 20.000 55.008 1004.6 106872 17 165 7 58 51 3 $GNGGA,083130.00,4333.69079,N,00128.74646,E,1,09,0.88,124.6,M,53.8,M,,*47

107 08 31 31 4333.6909900128.74652124.31p2ê@`CP.ê2–1004.6 00128.74652 124.3 1101010101 1100010111 1100101001 10000000110 10000110101 1011101001 1100101101 1110010100 1011101010 1101011011 1011011001 1100000000 10000100100 10000111011 1100000100 1011111000 1100000011 1011111010 20.000 55.100 1004.6 107872 16 164 8 58 52 3 $GNGGA,083131.00,4333.69099,N,00128.74652,E,1,09,0.88,124.3,M,53.8,M,,*48

108 08 31 32 4333.6909500128.74593123.7102ê@∞CÄ.`2¿1004.6 00128.74593 123.7 1101010101 1100010011 1100101001 10000001011 10000111000 1011100110 1100101100 1110010110 1011101100 1101011011 1011010111 1011111110 10000101111 10000111111 1011111110 1011110101 1011111010 1011110111 20.000 55.146 1004.6 108872 16 163 7 59 51 3 $GNGGA,083132.00,4333.69095,N,00128.74593,E,1,09,0.88,123.7,M,53.8,M,,*4A

109 08 31 33 4333.6908200128.74557124.20‡2 @êC@.∞2ê1004.6 00128.74557 124.2 1101010101 1100001110 1100100010 10000001001 10000110100 1011101011 1100101001 1110010000 1011101011 1101011011 1011010111 1011111110 10000100011 10000111001 1100001001 1011111011 1100000011 1011111110 20.000 55.192 1004.6 109872 17 158 7 58 51 4 $GNGGA,083133.00,4333.69082,N,00128.74557,E,1,08,1.04,124.2,M,53.8,M,,*43

110 08 31 34 4333.6915300128.74606123.31@2†@CÄ.†3 00128.74606 123.3 1101010101 1100010100 1100101010 10000001111 10000111000 1011101010 1100110000 1110010101 1011101101 1101011011 1011010100 1011111100 10000100001 10000111100 1100000011 1011111001 1100000100 1100000000 20.000 55.199 1004.6 110872 16 161 7 59 51 3 $GNGGA,083134.00,4333.69153,N,00128.74606,E,1,09,0.88,123.3,M,53.8,M,,*4C

111 08 31 35 4333.6914000128.74582123.512ÄA 00128.74582 123.5 1101010101 1100010001 1100101000 10000010000 10000110101 1011101100 1100101110 1110001110 1011100010 1101011011 1011010111 1100000000 10000100111 10000111011 1100000010 1011111000 1100000000 1011111011 20.000 55.199 1004.6 111872 17 160 7 58 51 3 $GNGGA,083135.00,4333.69140,N,00128.74582,E,1,07,1.21,123.5,M,53.8,M,,*4A

112 08 31 36 4333.6913000128.74578124.5102`@‡Cê.–3P1004.6 00128.74578 124.5 1101010101 1100010011 1100100110 10000001110 10000111001 1011101101 1100110101 1110010011 1011100010 1101011011 1011010110 1100000011 10000100010 10000111011 1100000111 1011111110 1100000101 1011111111 20.000 55.230 1004.6 112872 16 159 7 59 51 3 $GNGGA,083136.00,4333.69130,N,00128.74578,E,1,08,1.04,124.5,M,53.8,M,,*44

113 08 31 37 4333.6913300128.74508123.91 2p@¿Cp.†3 00128.74508 123.9 1101010101 1100010010 1100100111 10000001100 10000110111 1011101010 1100110000 1110001110 1011100111 1101011011 1011010100 1011111110 10000101011 10000111100 1100001010 1100000000 1011111011 1011110110 20.000 55.275 1004.6 113872 17 156 8 58 51 3 $GNGGA,083137.00,4333.69133,N,00128.74508,E,1,08,1.04,123.9,M,53.8,M,,*4A

114 08 31 38 4333.6912200128.74469124.41@2ÄACÄ.ê2†1004.6 00128.74469 124.4 1101010101 1100010100 1100101000 10000010001 10000111000 1011101001 1100101010 1110010011 1011100110 1101011011 1011010001 1011111110 10000100101 10000111011 1100000001 1011110111 1011111101 1011110111 20.000 55.291 1004.6 114872 16 156 8 58 52 3 $GNGGA,083138.00,4333.69122,N,00128.74469,E,1,08,1.04,124.4,M,53.8,M,,*49

115 08 31 39 4333.6911000128.74418124.502`@C`.Ä2‡1004.6 00128.74418 124.5 1101010101 1100001111 1100100110 10000001111 10000110110 1011101000 1100101110 1110001100 1011011001 1101011011 1011010100 1011111110 10000101001 10000111101 1100000111 1011111010 1100000000 1011111010 20.000 55.291 1004.6 115872 17 156 7 58 51 3 $GNGGA,083139.00,4333.69110,N,00128.74418,E,1,08,1.04,124.5,M,53.8,M,,*4E

116 08 31 40 4333.6912200128.74379124.01@2Ä@∞Cê.∞31004.6 00128.74379 124.0 1101010101 1100010100 1100101000 10000001011 10000111001 1011101011 1100110001 1110010000 1011101000 1101011011 1011010111 1100000000 10000100010 10000111101 1100000000 1011111001 1011111111 1011111101 20.000 55.245 1004.6 116872 17 155 8 58 52 3 $GNGGA,083140.00,4333.69122,N,00128.74379,E,1,09,0.88,124.0,M,53.8,M,,*40

117 08 31 41 4333.6914600128.74349123.51 2Ä@ÄCp/ 3`1004.6 00128.74349 123.5 1101010110 1100010010 1100101000 10000001000 10000110111 1011110010 1100110110 1110010000 1011100110 1101011011 1011010111 1100000001 10000011011 10000111000 1100000001 1011111010 1100000010 1011110101 20.000 55.245 1004.6 117872 17 154 7 59 51 3 $GNGGA,083141.00,4333.69146,N,00128.74349,E,1,08,1.04,123.5,M,53.8,M,,*46

118 08 31 42 4333.6910800128.74316124.51 2P@`C .∞301004.6 00128.74316 124.5 1101010101 1100010010 1100100101 10000000110 10000110010 1011101011 1100110011 1110001110 1011100110 1101011011 1011010101 1011111110 10000011101 10000111001 1011111111 1011111100 1011111110 1011111000 20.000 55.222 1004.6 118872 17 154 8 58 51 3 $GNGGA,083142.00,4333.69108,N,00128.74316,E,1,08,1.04,124.5,M,53.8,M,,*42

119 08 31 43 4333.6911400128.74329124.41P2†@–C`.†21004.6 00128.74329 124.4 1101010110 1100010101 1100101010 10000001101 10000110110 1011101010 1100101111 1110001101 1011100010 1101011011 1011010100 1011111110 10000100101 10000111011 1100000001 1011111001 1011111111 1011111000 20.000 55.192 1004.6 119872 16 152 8 59 51 3 $GNGGA,083143.00,4333.69114,N,00128.74329,E,1,09,0.88,124.4,M,53.8,M,,*47

120 08 31 44 4333.6912600128.74366124.5102Ä@¿Cp.‡31004.6 00128.74366 124.5 1101010110 1100010011 1100101000 10000001100 10000110111 1011101110 1100110001 1110001111 1011100000 1101011011 1011010111 1100000001 10000100110 10000111011 1011111111 1011111000 1100000001 1011111001 20.000 55.176 1004.6 120872 16 150 7 58 51 3 $GNGGA,083144.00,4333.69126,N,00128.74366,E,1,09,0.88,124.5,M,53.8,M,,*4B

121 08 31 45 4333.6911100128.74357125.01 2P@êCÄ.¿301004.6 00128.74357 125.0 1101010101 1100010010 1100100101 10000001001 10000111000 1011101100 1100110011 1110010010 1011101000 1101011011 1011010010 1011111101 10000100010 10000111001 1100000100 1011111101 1011111011 1011111010 20.000 55.237 1004.6 121872 16 151 8 59 51 3 $GNGGA,083145.00,4333.69111,N,00128.74357,E,1,09,0.88,125.0,M,53.8,M,,*48

122 08 31 46 4333.6912500128.74397124.8120@¿Cp.‡3 00128.74397 124.8 1101010101 1100010001 1100100011 10000001100 10000110111 1011101110 1100110000 1110011000 1011100010 1101011011 1011010011 1011111110 10000101011 10000111110 1100000111 1011111110 1100001011 1100000000 20.000 55.275 1004.6 122872 16 150 7 58 51 3 $GNGGA,083146.00,4333.69125,N,00128.74397,E,1,08,1.08,124.8,M,53.8,M,,*41

123 08 31 47 4333.6912600128.74424125.51 2@@‡CP.@2¿1004.6 00128.74424 125.5 1101010101 1100010010 1100100100 10000001110 10000110101 1011100100 1100101100 1110010011 1011101001 1101011011 1011010111 1011111111 10000011101 10000111011 1100000000 1011111010 1011111011 1011111000 20.000 55.275 1004.6 123872 17 147 8 58 52 3 $GNGGA,083147.00,4333.69126,N,00128.74424,E,1,07,1.21,125.5,M,53.8,M,,*44

124 08 31 48 4333.6914500128.74445124.91P2`@∞C`.∞3 1004.6 00128.74445 124.9 1101010101 1100010101 1100100110 10000001011 10000110110 1011101011 1100110010 1110010000 1011100100 1101011011 1011010101 1011111111 10000011101 10000111000 1100000100 1011110111 1100000010 1011111100 19.938 55.275 1004.6 124872 17 147 7 59 51 3 $GNGGA,083148.00,4333.69145,N,00128.74445,E,1,08,1.08,124.9,M,53.8,M,,*40

125 08 31 49 4333.6915700128.74491125.21 2p@–CÄ.–3P1004.6 00128.74491 125.2 1101010101 1100010010 1100100111 10000001101 10000111000 1011101101 1100110101 1110001110 1011100100 1101011011 1011011001 1100000000 10000100000 10000111010 1100000101 1011111011 1011111010 1011110000 20.000 55.306 1004.6 125872 17 147 7 58 51 4 $GNGGA,083149.00,4333.69157,N,00128.74491,E,1,09,0.88,125.2,M,53.8,M,,*49

126 08 31 50 4333.6915300128.74482125.01 2p@†Cp.‡3 00128.74482 125.0 1101010101 1100010010 1100100111 10000001010 10000110111 1011101110 1100110000 1110001100 1011100101 1101011011 1011011000 1100000010 10000100010 10000111011 1100000001 1011111000 1100000100 1011111100 20.000 55.314 1004.6 126872 16 145 9 59 51 3 $GNGGA,083150.00,4333.69153,N,00128.74482,E,1,09,0.88,125.0,M,53.8,M,,*45

127 08 31 51 4333.6915100128.74447125.31 00128.74447 125.3 1101010101 1100010000 1100100011 10000000110 10000110110 1011101110 1100110011 1110010001 1011101011 1101011011 1011010101 1011111111 10000011111 10000111001 1100000001 1011111110 1011111011 1011110011 20.000 55.298 1004.6 127872 16 147 7 58 51 3 $GNGGA,083151.00,4333.69151,N,00128.74447,E,1,09,0.88,125.3,M,53.8,M,,*4C

128 08 31 52 4333.6915900128.74421124.81P2Ä@`CÄ.Ä3 1004.6 00128.74421 124.8 1101010101 1100010101 1100101000 10000000110 10000111000 1011101000 1100110010 1110001110 1011101001 1101011011 1011011000 1100000000 10000101000 10000111100 1100000111 1011111110 1011111111 1011110111 20.000 55.291 1004.6 128872 17 144 7 59 51 3 $GNGGA,083152.00,4333.69159,N,00128.74421,E,1,09,0.88,124.8,M,53.8,M,,*4D

129 08 31 53 4333.6915600128.74416124.81@2p@†C`.p21004.6 00128.74416 124.8 1101010101 1100010100 1100100111 10000001010 10000110110 1011100111 1100101111 1110010010 1011101000 1101011011 1011010110 1100000000 10000101001 10000111101 1100000001 1011111000 1100000101 1011111011 20.000 55.283 1004.6 129872 16 143 7 58 51 3 $GNGGA,083153.00,4333.69156,N,00128.74416,E,1,09,0.88,124.8,M,53.8,M,,*47

130 08 31 54 4333.6915300128.74423125.012`@¿Cê.@2Ä1004.6 00128.74423 125.0 1101010110 1100010001 1100100110 10000001100 10000111001 1011100100 1100101000 1110001111 1011101011 1101011011 1011010101 1011111111 10000100000 10000111001 1100001000 1011110111 1100000100 1011110111 20.000 55.275 1004.6 130872 17 142 7 58 52 3 $GNGGA,083154.00,4333.69153,N,00128.74423,E,1,09,0.88,125.0,M,53.8,M,,*4A

131 08 31 55 4333.6916800128.74421125.012`@†C`.3p1004.6 00128.74421 125.0 1101010101 1100010001 1100100110 10000001010 10000110110 1011101111 1100110111 1110001011 1011101011 1101011011 1011010110 1011111100 10000100101 10000111101 1100000100 1011111001 1011111100 1011110010 20.000 55.283 1004.6 131872 16 138 8 58 51 3 $GNGGA,083155.00,4333.69168,N,00128.74421,E,1,09,0.88,125.0,M,53.8,M,,*41

132 08 31 56 4333.6918800128.74423125.11@2`@Cp.–301004.6 00128.74423 125.1 1101010101 1100010100 1100100110 10000001111 10000110111 1011101101 1100110011 1110000011 1011011011 1101011011 1011010111 1011111111 10000100101 10000111011 1011111101 1011110110 1100001000 1011111010 20.000 55.237 1004.6 132872 16 139 8 58 52 3 $GNGGA,083156.00,4333.69188,N,00128.74423,E,1,09,0.88,125.1,M,53.8,M,,*4F

133 08 31 57 4333.6915800128.74364126.01 2`@‡CÄ.†2–1004.6 00128.74364 126.0 1101010101 1100010010 1100100110 10000001110 10000111000 1011101010 1100101101 1110001100 1011101000 1101011011 1011010101 1011111111 10000011101 10000111000 1011111110 1011111000 1100000111 1100000111 20.000 55.222 1004.6 133872 17 139 7 59 51 3 $GNGGA,083157.00,4333.69158,N,00128.74364,E,1,09,0.88,126.0,M,53.8,M,,*45

134 08 31 58 4333.6915500128.74342126.21@2`@∞CÄ.¿31004.6 00128.74342 126.2 1101010110 1100010100 1100100110 10000001011 10000111000 1011101100 1100110001 1110001011 1011100110 1101011011 1011010110 1100000000 10000100100 10000111110 1100000000 1011110110 1100001001 1011111111 20.000 55.260 1004.6 134872 16 139 7 58 51 3 $GNGGA,083158.00,4333.69155,N,00128.74342,E,1,08,1.08,126.2,M,53.8,M,,*49

135 08 31 59 4333.6917700128.74358126.01@2Ä@∞CÄ.‡3@1004.6 00128.74358 126.0 1101010101 1100010100 1100101000 10000001011 10000111000 1011101110 1100110100 1110001001 1011100011 1101011011 1011010101 1100000001 10000100100 10000111010 1100000100 1011111011 1011111111 1011111000 20.000 55.237 1004.6 135872 17 136 8 59 51 3 $GNGGA,083159.00,4333.69177,N,00128.74358,E,1,09,0.88,126.0,M,53.8,M,,*49

136 08 32 00 4333.6915000128.74343126.612@@†C`.‡301004.6 00128.74343 126.6 1101010101 1100010001 1100100100 10000001010 10000110110 1011101110 1100110011 1110010010 1011100110 1101011011 1011010111 1011111111 10000100011 10000111010 1100000000 1011111000 1100000100 1011111111 20.000 55.192 1004.6 136872 16 136 7 58 51 3 $GNGGA,083200.00,4333.69150,N,00128.74343,E,1,08,1.04,126.6,M,53.8,M,,*4B

137 08 32 01 4333.6913700128.74331127.11P2∞@–Cê.3Ä1004.6 00128.74331 127.1 1101010101 1100010101 1100101011 10000001101 10000111001 1011101111 1100111000 1110010011 1011100111 1101011011 1011011010 1100000001 10000100010 10000111011 1100000100 1011111010 1011111111 1011111100 20.000 55.146 1004.6 137872 18 135 7 59 51 3 $GNGGA,083201.00,4333.69137,N,00128.74331,E,1,08,1.04,127.1,M,53.8,M,,*48

138 08 32 02 4333.6911800128.74305127.912`@PCê.31004.6 00128.74305 127.9 1101010101 1100010001 1100100110 10000000101 10000111001 1011101111 1100110001 1110001101 1011101001 1101011011 1011010010 1011111111 10000100111 10000111100 1100000100 1011111010 1011111001 1011110100 20.000 55.176 1004.6 138872 17 129 8 58 51 3 $GNGGA,083202.00,4333.69118,N,00128.74305,E,1,08,1.04,127.9,M,53.8,M,,*49

139 08 32 03 4333.6912400128.74291128.41 2P@0C@/3`1004.6 00128.74291 128.4 1101010101 1100010010 1100100101 10000000011 10000110100 1011110001 1100110110 1110000101 1011100010 1101011011 1011010110 1011111111 10000100010 10000111010 1100000001 1011110100 1011111101 1011111011 20.000 55.436 1004.6 139872 16 133 7 58 52 3 $GNGGA,083203.00,4333.69124,N,00128.74291,E,1,08,1.04,128.4,M,53.8,M,,*49

140 08 32 04 4333.6911200128.74289128.9102P@¿CP.‡31004.6 00128.74289 128.9 1101010101 1100010011 1100100101 10000001100 10000110101 1011101110 1100110001 1110001100 1011010110 1101011011 1011011010 1100000001 10000100110 10000111011 1100000110 1011111011 1100000010 1011111100 20.000 55.741 1004.6 140872 17 131 8 59 51 3 $GNGGA,083204.00,4333.69112,N,00128.74289,E,1,07,1.21,128.9,M,53.8,M,,*47

141 08 32 05 4333.6912900128.74329128.31@2Ä@∞Cp.¿3 1004.6 00128.74329 128.3 1101010110 1100010100 1100101000 10000001011 10000110111 1011101100 1100110010 1110001111 1011100011 1101011011 1011010100 1100000000 10000100100 10000111011 1100000001 1011110110 1011111110 1011111101 20.000 55.932 1004.6 141872 16 132 7 58 51 4 $GNGGA,083205.00,4333.69129,N,00128.74329,E,1,08,1.08,128.3,M,53.8,M,,*4B

142 08 32 06 4333.6915200128.74355128.41 2Ä@∞C†/@3@1004.6 00128.74355 128.4 1101010101 1100010010 1100101000 10000001011 10000111010 1011110100 1100110100 1110001101 1011011110 1101011011 1011010101 1100000001 10000100011 10000111010 1100001000 1011111101 1011111011 1011111010 20.000 56.069 1004.6 142872 16 126 7 59 51 3 $GNGGA,083206.00,4333.69152,N,00128.74355,E,1,07,1.21,128.4,M,53.8,M,,*4C

143 08 32 07 4333.6915300128.74355128.41`2†ACp.∞21004.6 00128.74355 128.4 1101010110 1100010110 1100101010 10000010001 10000110111 1011101011 1100101111 1110001001 1011100010 1101011011 1011011001 1100000001 10000011101 10000111011 1100001000 1011111100 1100000001 1011110100 20.000 55.924 1004.6 143872 17 130 8 58 51 3 $GNGGA,083207.00,4333.69153,N,00128.74355,E,1,08,1.08,128.4,M,53.8,M,,*48

144 08 32 08 4333.6912800128.74325128.61Ä2¿@∞CP.¿3 00128.74325 128.6 1101010101 1100011000 1100101100 10000001011 10000110101 1011101100 1100110000 1110001001 1011100101 1101011011 1011010001 1011111101 10000011010 10000111010 1100000110 1011110111 1100000100 1011111001 20.063 55.710 1004.6 144872 16 128 8 59 51 3 $GNGGA,083208.00,4333.69128,N,00128.74325,E,1,07,1.21,128.6,M,53.8,M,,*4A

145 08 32 09 4333.6913700128.74321128.51@2Ä@¿CP/3`1004.6 00128.74321 128.5 1101010101 1100010100 1100101000 10000001100 10000110101 1011110001 1100110110 1110001110 1011100100 1101011011 1011010100 1011111101 10000101010 10000111110 1100000101 1011111101 1011111101 1011110111 20.000 55.535 1004.6 145872 18 127 7 58 51 3 $GNGGA,083209.00,4333.69137,N,00128.74321,E,1,08,1.04,128.5,M,53.8,M,,*4A

146 08 32 10 4333.6914200128.74319129.11@2p@†C`/3P1004.6 00128.74319 129.1 1101010101 1100010100 1100100111 10000001010 10000110110 1011110001 1100110101 1110001101 1011100100 1101011011 1011011000 1011111101 10000100110 10000111101 1100000010 1011111101 1011111111 1011111011 20.063 55.733 1004.6 146872 16 126 8 58 52 3 $GNGGA,083210.00,4333.69142,N,00128.74319,E,1,08,1.04,129.1,M,53.8,M,,*4E

147 08 32 11 4333.6915900128.74332129.11@2Ä@∞C@.‡3@1004.6 00128.74332 129.1 1101010110 1100010100 1100101000 10000001011 10000110100 1011101110 1100110100 1110001011 1011100001 1101011011 1011011000 1011111111 10000100000 10000111001 1100000010 1011111010 1100000101 1100000000 20.063 56.138 1004.6 147872 17 126 7 58 51 3 $GNGGA,083211.00,4333.69159,N,00128.74332,E,1,09,0.88,129.1,M,53.8,M,,*48

148 08 32 12 4333.6913400128.74280130.21`2Ä@†CP/ 00128.74280 130.2 1101010101 1100010110 1100101000 10000001010 10000110101 1011110000 1100110010 1110010000 1011100111 1101011011 1011010100 1011111110 10000011100 10000111010 1100000011 1011111101 1011111110 1011111011 20.000 56.321 1004.6 148872 17 125 7 58 52 3 $GNGGA,083212.00,4333.69134,N,00128.74280,E,1,09,0.88,130.2,M,53.8,M,,*43

149 08 32 13 4333.6910800128.74228130.91@2p@pCp.∞2–1004.6 00128.74228 130.9 1101010101 1100010100 1100100111 10000000111 10000110111 1011101011 1100101101 1110001000 1011100110 1101011011 1011011000 1100000000 10000011101 10000111001 1100000100 1011111011 1100000011 1011111100 20.063 56.405 1004.6 149872 16 121 8 59 51 3 $GNGGA,083213.00,4333.69108,N,00128.74228,E,1,09,0.88,130.9,M,53.8,M,,*44

