id HH MM SS longitude latitude altitude adc_1_ch0 adc_1_ch1 adc_1_ch2 adc_1_ch3 adc_1_ch4 adc_1_ch5 adc_1_ch6 adc_1_ch7 adc_1_ch8 adc_2_ch0 adc_2_ch1 adc_2_ch2 adc_2_ch3 adc_2_ch4 adc_2_ch5 adc_2_ch6 adc_2_ch7 adc_2_ch8 temp hum pres t_prog t_gps t_split t_adc t_temp t_hum t_pres trame_gga
1 10 38 34 Nan Nan Nan 1101100001 1010111111 1011101100 101 1101111 111111111111 111111111111 111111111111 111111111111 1101100110 1110110 111010111 101 1110000 111111111111 111111111111 111111111111 111111111111 24.688 48.523 795.83 2347 16 7 12 59 50 4 $GNGGA,103834.00,,,,,0,00,2.62,,,,,,*43
2 10 38 35 Nan Nan Nan 1101100001 1011000100 1011110000 101 1101111 111111111111 111111111111 111111111111 111111111111 1101100110 11000101 111111101 101 1110000 111111111111 111111111111 111111111111 111111111111 24.750 48.455 1000.1 3346 17 6 11 60 50 4 $GNGGA,103835.00,,,,,0,00,2.62,,,,,,*42
3 10 38 36 Nan Nan Nan 1101100001 1011010011 1011110010 101 1101111 111111111111 111111111111 111111111111 111111111111 1101100110 100001010 1000010100 101 1110000 111111111111 111111111111 111111111111 111111111111 24.688 48.424 1000.1 4345 16 7 12 59 51 3 $GNGGA,103836.00,,,,,0,00,2.62,,,,,,*41
4 10 38 37 Nan Nan Nan 1101100001 1011010101 1011110011 101 1101111 111111111111 111111111111 111111111111 111111111111 1101100110 101000110 1000110001 101 1110000 111111111111 111111111111 111111111111 111111111111 24.750 48.394 1000.0 5357 17 7 11 60 51 3 $GNGGA,103837.00,,,,,0,00,2.88,,,,,,*44
5 10 38 38 Nan Nan Nan 1101100001 1011011001 1011110100 101 1101111 111111111111 111111111111 111111111111 111111111111 1101100110 101110100 1001000010 101 1110000 111111111111 111111111111 111111111111 111111111111 24.688 48.394 1000.0 6345 17 7 11 60 51 3 $GNGGA,103838.00,,,,,0,00,2.49,,,,,,*46
6 10 38 39 Nan Nan Nan 1101100001 1011100010 1011110110 101 1101110 111111111111 111111111111 111111111111 111111111111 1101100110 110011010 1001010010 101 1110000 111111111111 111111111111 111111111111 111111111111 24.750 48.394 1000.0 7340 17 8 11 59 50 4 $GNGGA,103839.00,,,,,0,00,2.49,,,,,,*47
7 10 38 40 Nan Nan Nan 1101100001 1011100100 1011110111 101 1101110 111111111111 111111111111 111111111111 111111111111 1101100110 111000001 1001100011 101 1110000 111111111111 111111111111 111111111111 111111111111 24.688 48.394 1000.0 8340 17 7 11 60 50 4 $GNGGA,103840.00,,,,,0,00,2.49,,,,,,*49
8 10 38 41 Nan Nan Nan 1101100001 1011101010 1011111000 101 1101110 111111111111 111111111111 111111111111 111111111111 1101100110 111100000 1001101111 101 1110000 111111111111 111111111111 111111111111 111111111111 24.688 48.424 1000.0 9338 17 7 11 58 51 4 $GNGGA,103841.00,,,,,0,00,2.49,,,,,,*48
9 10 38 42 Nan Nan Nan 1101100001 1011101111 1011111011 101 1101101 111111111111 111111111111 111111111111 111111111111 1101100110 111110100 1001110110 101 1110000 111111111111 111111111111 111111111111 111111111111 24.688 48.424 1000.0 10340 16 7 10 59 51 4 $GNGGA,103842.00,,,,,0,00,2.49,,,,,,*4B
10 10 38 43 4333.6910400128.73595138.1ó 00128.73595 138.1 1101100001 1011110000 1011111011 101 1101011 111111111111 111111111111 111111111111 111111111111 1101100110 1000010000 1010000100 101 1110000 111111111111 111111111111 111111111111 111111111111 24.688 48.417 1000.0 11350 17 16 14 59 50 4 $GNGGA,103843.00,4333.69104,N,00128.73595,E,1,05,2.49,138.1,M,53.8,M,,*4B
11 10 38 44 4333.6906100128.73603140.4ó 00128.73603 140.4 1101100001 1011110001 1011111010 101 1101011 111111111111 111111111111 111111111111 111111111111 1101100110 1000100001 1010001001 101 1101111 111111111111 111111111111 111111111111 111111111111 24.688 48.417 1000.0 12347 18 15 13 60 50 4 $GNGGA,103844.00,4333.69061,N,00128.73603,E,1,05,2.49,140.4,M,53.8,M,,*48
12 10 38 45 4333.6897800128.73549144.7ó 00128.73549 144.7 1101100001 1011110011 1011111111 101 1101011 111111111111 111111111111 111111111111 111111111111 1101100110 1000110111 1010010100 101 1101111 111111111111 111111111111 111111111111 111111111111 24.688 48.424 1000.0 13342 18 14 13 59 50 4 $GNGGA,103845.00,4333.68978,N,00128.73549,E,1,05,2.49,144.7,M,53.8,M,,*43
13 10 38 46 4333.6893200128.73469148.2ó 00128.73469 148.2 1101100001 1011110110 1011111011 101 1101011 111111111111 111111111111 111111111111 111111111111 1101100110 1001000011 1010011010 101 1101111 111111111111 111111111111 111111111111 111111111111 24.688 48.455 1000.1 14343 16 15 13 58 52 4 $GNGGA,103846.00,4333.68932,N,00128.73469,E,1,05,2.49,148.2,M,53.8,M,,*44
14 10 38 47 4333.6899700128.73617150.3ó 00128.73617 150.3 1101100001 1011111010 1011111101 101 1101011 111111111111 111111111111 111111111111 111111111111 1101100110 1001010000 1010100000 101 1101111 111111111111 111111111111 111111111111 111111111111 24.688 48.478 1000.1 15342 17 15 14 60 51 3 $GNGGA,103847.00,4333.68997,N,00128.73617,E,1,05,2.49,150.3,M,53.8,M,,*49
15 10 38 48 4333.6892800128.73509151.7ó 00128.73509 151.7 1101100001 1011111011 1011111101 101 1101011 111111111111 111111111111 111111111111 111111111111 1101100110 1001011111 1010101000 101 1101111 111111111111 111111111111 111111111111 111111111111 24.688 48.562 1000.1 16342 17 15 14 59 50 4 $GNGGA,103848.00,4333.68928,N,00128.73509,E,1,05,2.49,151.7,M,53.8,M,,*4B
16 10 38 49 4333.6883100128.73437154.0ó 00128.73437 154.0 1101100001 1011111101 1011111101 101 1101011 111111111111 111111111111 111111111111 111111111111 1101100110 1001100110 1010101001 101 1101100 111111111111 111111111111 111111111111 111111111111 24.688 48.630 1000.0 17341 17 15 14 60 51 3 $GNGGA,103849.00,4333.68831,N,00128.73437,E,1,05,2.49,154.0,M,53.8,M,,*4D
17 10 38 50 4333.6884900128.73563154.2ó 00128.73563 154.2 1101100001 1011111111 1011111101 101 1101011 111111111111 111111111111 111111111111 111111111111 1101100110 1001110101 1010110000 101 1101011 111111111111 111111111111 111111111111 111111111111 24.688 48.676 1000.0 18340 16 15 15 59 51 3 $GNGGA,103850.00,4333.68849,N,00128.73563,E,1,05,2.49,154.2,M,53.8,M,,*48
18 10 38 51 4333.6893100128.73667153.7ó 00128.73667 153.7 1101100001 1100000001 1011111111 101 1101011 111111111111 111111111111 111111111111 111111111111 1101100110 1001111011 1010110011 100 1101100 111111111111 111111111111 111111111111 111111111111 24.688 48.722 1000.0 19339 16 16 14 59 52 3 $GNGGA,103851.00,4333.68931,N,00128.73667,E,1,05,2.49,153.7,M,53.8,M,,*42
19 10 38 52 4333.6892600128.73630153.5ó 00128.73630 153.5 1101100001 1100000100 1011111110 101 1101011 111111111111 111111111111 111111111111 111111111111 1101100110 1010000100 1010110111 101 1101011 111111111111 111111111111 111111111111 111111111111 24.688 48.737 1000.0 20335 17 15 14 60 51 3 $GNGGA,103852.00,4333.68926,N,00128.73630,E,1,05,2.49,153.5,M,53.8,M,,*47
20 10 38 53 4333.6889900128.73558153.4ó 00128.73558 153.4 1101100001 1100000110 1100000011 101 1101010 111111111111 111111111111 111111111111 111111111111 1101100110 1010001101 1010111011 100 1101011 111111111111 111111111111 111111111111 111111111111 24.688 48.707 1000.0 21336 16 16 15 59 51 3 $GNGGA,103853.00,4333.68899,N,00128.73558,E,1,04,2.88,153.4,M,53.8,M,,*43
21 10 38 54 4333.6891000128.73663153.8ó 00128.73663 153.8 1101100001 1100000010 1100000010 101 1101010 111111111111 111111111111 111111111111 111111111111 1101100110 1010010001 1011000000 101 1101011 111111111111 111111111111 111111111111 111111111111 24.688 48.684 1000.0 22336 18 14 13 60 50 4 $GNGGA,103854.00,4333.68910,N,00128.73663,E,1,05,2.49,153.8,M,53.8,M,,*4F
22 10 38 55 4333.6887600128.73684153.9ó 00128.73684 153.9 1101100001 1100000110 1011111111 101 1101011 111111111111 111111111111 111111111111 111111111111 1101100110 1010010111 1011000011 101 1101011 111111111111 111111111111 111111111111 111111111111 24.688 48.707 1000.0 23334 16 15 15 59 51 3 $GNGGA,103855.00,4333.68876,N,00128.73684,E,1,05,2.49,153.9,M,53.8,M,,*47
23 10 38 56 4333.6885900128.73664153.7ó 00128.73664 153.7 1101100001 1100001001 1011111111 101 1101010 111111111111 111111111111 111111111111 111111111111 1101100110 1010100000 1011000101 101 1101011 111111111111 111111111111 111111111111 111111111111 24.688 48.790 1000.1 24336 17 14 13 59 51 4 $GNGGA,103856.00,4333.68859,N,00128.73664,E,1,04,2.87,153.7,M,53.8,M,,*4A
24 10 38 57 4333.6891000128.73627153.2ó 00128.73627 153.2 1101100001 1100000111 1100000010 101 1101010 111111111111 111111111111 111111111111 111111111111 1101100110 1010100110 1011001000 101 1101011 111111111111 111111111111 111111111111 111111111111 24.625 48.745 1000.1 25333 16 15 15 59 51 3 $GNGGA,103857.00,4333.68910,N,00128.73627,E,1,04,2.87,153.2,M,53.8,M,,*45
25 10 38 58 4333.6889500128.73539152.9ó 00128.73539 152.9 1101100001 1100000111 1100000010 101 1101011 111111111111 111111111111 111111111111 111111111111 1101100110 1010101010 1011001010 101 1101011 111111111111 111111111111 111111111111 111111111111 24.688 48.745 1000.1 26333 16 16 14 59 52 3 $GNGGA,103858.00,4333.68895,N,00128.73539,E,1,04,2.87,152.9,M,53.8,M,,*40
26 10 38 59 4333.6892300128.73565152.2ó 00128.73565 152.2 1101100001 1100001011 1100000001 101 1101010 111111111111 111111111111 111111111111 111111111111 1101100111 1010110000 1011001101 101 1101011 111111111111 111111111111 111111111111 111111111111 24.688 48.790 1000.1 27331 17 14 13 60 51 4 $GNGGA,103859.00,4333.68923,N,00128.73565,E,1,04,2.87,152.2,M,53.8,M,,*4F
27 10 39 00 4333.6897900128.73622150.9ó 00128.73622 150.9 1101100001 1100000111 1011111111 101 1101010 111111111111 111111111111 111111111111 111111111111 1101100110 1010110101 1011010011 101 1101011 111111111111 111111111111 111111111111 111111111111 24.688 48.829 1000.1 28329 16 15 15 59 51 3 $GNGGA,103900.00,4333.68979,N,00128.73622,E,1,04,2.87,150.9,M,53.8,M,,*44
28 10 39 01 4333.6897700128.73605150.4ó 00128.73605 150.4 1101100001 1100001100 1100000011 101 1101010 111111111111 111111111111 111111111111 111111111111 1101100110 1010111000 1011010101 101 1101011 111111111111 111111111111 111111111111 111111111111 24.688 48.775 1000.1 29329 17 15 14 60 51 3 $GNGGA,103901.00,4333.68977,N,00128.73605,E,1,04,2.87,150.4,M,53.8,M,,*43
29 10 39 02 4333.6896600128.73570150.0ó 00128.73570 150.0 1101100001 1100001100 1100000001 101 1101010 111111111111 111111111111 111111111111 111111111111 1101100111 1010111101 1011010101 101 1101011 111111111111 111111111111 111111111111 111111111111 24.625 48.707 1000.1 30327 17 14 14 59 50 4 $GNGGA,103902.00,4333.68966,N,00128.73570,E,1,04,2.87,150.0,M,53.8,M,,*45
30 10 39 03 4333.6900500128.73584150.0ó 00128.73584 150.0 1101100001 1100010000 1100000011 101 1101010 111111111111 111111111111 111111111111 111111111111 1101100110 1010111010 1011010101 101 1101011 111111111111 111111111111 111111111111 111111111111 24.688 48.653 1000.0 31325 16 16 14 59 52 3 $GNGGA,103903.00,4333.69005,N,00128.73584,E,1,04,2.87,150.0,M,53.8,M,,*42
31 10 39 04 4333.6898700128.73596148.1ó 00128.73596 148.1 1101100001 1100001100 1100000010 101 1101010 111111111111 111111111111 111111111111 111111111111 1101100110 1010111110 1011010110 101 1101011 111111111111 111111111111 111111111111 111111111111 24.625 48.630 1000.0 32326 17 15 14 60 50 4 $GNGGA,103904.00,4333.68987,N,00128.73596,E,1,04,2.87,148.1,M,53.8,M,,*4C
32 10 39 05 4333.6897400128.73542148.4ó 00128.73542 148.4 1101100001 1100010001 1100000110 101 1101001 111111111111 111111111111 111111111111 111111111111 1101100110 1011000100 1011011001 101 1101011 111111111111 111111111111 111111111111 111111111111 24.688 48.623 1000.1 33325 17 15 13 59 50 5 $GNGGA,103905.00,4333.68974,N,00128.73542,E,1,04,2.87,148.4,M,53.8,M,,*4D
33 10 39 06 4333.6897300128.73525148.5ó 00128.73525 148.5 1101100001 1100010001 1100000011 101 1101001 111111111111 111111111111 111111111111 111111111111 1101100110 1011001011 1011011101 100 1101011 111111111111 111111111111 111111111111 111111111111 24.625 48.630 1000.1 34323 18 14 13 60 50 4 $GNGGA,103906.00,4333.68973,N,00128.73525,E,1,04,2.87,148.5,M,53.8,M,,*49
34 10 39 07 4333.6897700128.73533148.5ó 00128.73533 148.5 1101100001 1100001111 1100000000 101 1101001 111111111111 111111111111 111111111111 111111111111 1101100110 1011001100 1011011100 101 1101011 111111111111 111111111111 111111111111 111111111111 24.688 48.661 1000.0 35323 16 15 15 59 51 3 $GNGGA,103907.00,4333.68977,N,00128.73533,E,1,04,2.87,148.5,M,53.8,M,,*4B
35 10 39 08 4333.6899200128.73544148.8ó 00128.73544 148.8 1101100001 1100001111 1100000010 101 1101001 111111111111 111111111111 111111111111 111111111111 1101100110 1011001110 1011100010 101 1101011 111111111111 111111111111 111111111111 111111111111 24.625 48.653 1000.0 36322 16 15 13 58 52 4 $GNGGA,103908.00,4333.68992,N,00128.73544,E,1,04,2.87,148.8,M,53.8,M,,*42
36 10 39 09 4333.6899900128.73510149.3ó 00128.73510 149.3 1101100001 1100010001 1100000110 101 1101001 111111111111 111111111111 111111111111 111111111111 1101100110 1011001101 1011011111 100 1101011 111111111111 111111111111 111111111111 111111111111 24.688 48.661 1000.0 37321 17 15 14 60 51 3 $GNGGA,103909.00,4333.68999,N,00128.73510,E,1,04,2.87,149.3,M,53.8,M,,*43
37 10 39 10 4333.6899000128.73578148.5ó 00128.73578 148.5 1101100001 1100010000 1100000010 101 1101000 111111111111 111111111111 111111111111 111111111111 1101100110 1011010100 1011100011 100 1101011 111111111111 111111111111 111111111111 111111111111 24.688 48.653 1000.0 38321 16 16 14 59 52 3 $GNGGA,103910.00,4333.68990,N,00128.73578,E,1,04,2.87,148.5,M,53.8,M,,*4B
38 10 39 11 4333.6902800128.73643147.3ó 00128.73643 147.3 1101100001 1100001111 1100000010 101 1101000 111111111111 111111111111 111111111111 111111111111 1101100110 1011010111 1011100100 101 1101011 111111111111 111111111111 111111111111 111111111111 24.688 48.630 1000.1 39318 18 14 13 60 50 4 $GNGGA,103911.00,4333.69028,N,00128.73643,E,1,04,2.87,147.3,M,53.8,M,,*43
39 10 39 12 4333.6903000128.73693145.9ó 00128.73693 145.9 1101100001 1100001101 1100000011 101 1101000 111111111111 111111111111 111111111111 111111111111 1101100110 1011011001 1011100101 101 1101010 111111111111 111111111111 111111111111 111111111111 24.625 48.630 1000.0 40318 17 15 14 59 50 4 $GNGGA,103912.00,4333.69030,N,00128.73693,E,1,04,2.87,145.9,M,53.8,M,,*4C
40 10 39 13 4333.6903200128.73701145.3ó 00128.73701 145.3 1101100001 1100010101 1100000100 101 1101000 111111111111 111111111111 111111111111 111111111111 1101100110 1011011010 1011101000 100 1101010 111111111111 111111111111 111111111111 111111111111 24.625 48.623 1000.0 41317 18 14 13 60 50 4 $GNGGA,103913.00,4333.69032,N,00128.73701,E,1,04,2.87,145.3,M,53.8,M,,*4F
41 10 39 14 4333.6904600128.73700145.5ó 00128.73700 145.5 1101100001 1100010110 1100000101 101 1100111 111111111111 111111111111 111111111111 111111111111 1101100110 1011011010 1011100110 100 1101010 111111111111 111111111111 111111111111 111111111111 24.625 48.623 1000.0 42315 16 15 15 59 51 3 $GNGGA,103914.00,4333.69046,N,00128.73700,E,1,04,2.87,145.5,M,53.8,M,,*4C
42 10 39 15 4333.6897200128.73686145.9ó 00128.73686 145.9 1101100001 1100010100 1100000100 101 1100111 111111111111 111111111111 111111111111 111111111111 1101100111 1011011110 1011100100 100 1101010 111111111111 111111111111 111111111111 111111111111 24.625 48.630 1000.0 43316 17 16 13 59 51 4 $GNGGA,103915.00,4333.68972,N,00128.73686,E,1,04,2.87,145.9,M,53.8,M,,*41
43 10 39 16 4333.6893700128.73675145.4ó 00128.73675 145.4 1101100001 1100011000 1100000110 101 1100111 111111111111 111111111111 111111111111 111111111111 1101100110 1011100011 1011101010 100 1101010 111111111111 111111111111 111111111111 111111111111 24.625 48.691 1000.0 44314 17 14 13 60 50 4 $GNGGA,103916.00,4333.68937,N,00128.73675,E,1,04,2.87,145.4,M,53.8,M,,*42
44 10 39 17 4333.6894300128.73688145.5ó 00128.73688 145.5 1101100001 1100010101 1100000101 101 1100111 111111111111 111111111111 111111111111 111111111111 1101100110 1011100011 1011101010 100 1101010 111111111111 111111111111 111111111111 111111111111 24.625 48.783 1000.0 45315 16 15 13 58 51 5 $GNGGA,103917.00,4333.68943,N,00128.73688,E,1,05,2.49,145.5,M,53.8,M,,*40
45 10 39 18 4333.6891300128.73686147.8ó 00128.73686 147.8 1101100001 1100010100 1100000011 101 1100110 111111111111 111111111111 111111111111 111111111111 1101100110 1011100101 1011101000 100 1101010 111111111111 111111111111 111111111111 111111111111 24.625 48.798 1000.0 46318 17 15 14 60 51 3 $GNGGA,103918.00,4333.68913,N,00128.73686,E,1,05,2.49,147.8,M,53.8,M,,*4B
46 10 39 19 4333.6897000128.73753146.5ó 00128.73753 146.5 1101100001 1100010110 1100000101 101 1100110 111111111111 111111111111 111111111111 111111111111 1101100110 1011100101 1011101001 100 1101010 111111111111 111111111111 111111111111 111111111111 24.688 48.813 1000.0 47313 16 14 14 58 51 4 $GNGGA,103919.00,4333.68970,N,00128.73753,E,1,05,2.49,146.5,M,53.8,M,,*4A
47 10 39 20 4333.6901800128.73754146.7ó 00128.73754 146.7 1101100001 1100011001 1100000110 101 1100110 111111111111 111111111111 111111111111 111111111111 1101100110 1011100101 1011101010 100 1101010 111111111111 111111111111 111111111111 111101100101 24.625 48.821 1000.0 48312 17 16 13 59 51 4 $GNGGA,103920.00,4333.69018,N,00128.73754,E,1,05,2.49,146.7,M,53.8,M,,*43
48 10 39 21 4333.6907600128.73784146.0ó 00128.73784 146.0 1101100001 1100010111 1100000110 101 1100110 111111111111 111111111111 111111111111 111111111111 1101100110 1011101111 1011101111 101 1101001 111111111111 111111111111 111111111111 111001100000 24.625 48.890 1000.0 49308 17 14 13 59 51 4 $GNGGA,103921.00,4333.69076,N,00128.73784,E,1,05,2.49,146.0,M,53.8,M,,*40
49 10 39 22 4333.6910600128.73833145.5ó 00128.73833 145.5 1101100001 1100011001 1100000110 101 1100110 111111111111 111111111111 111111111111 111111111111 1101100110 1011101100 1011101110 100 1101001 111111111111 111111111111 111111111111 110101111011 24.688 48.920 1000.0 50310 16 16 14 59 52 3 $GNGGA,103922.00,4333.69106,N,00128.73833,E,1,05,2.49,145.5,M,53.8,M,,*40
50 10 39 23 4333.6912100128.73838145.7ó 00128.73838 145.7 1101100001 1100011000 1100000101 101 1100101 111111111111 111111111111 111111111111 111111111111 1101100110 1011110000 1011101111 100 1101001 111111111111 111111111111 111111111111 110010110100 24.625 48.958 1000.0 51308 18 14 13 60 50 4 $GNGGA,103923.00,4333.69121,N,00128.73838,E,1,05,2.49,145.7,M,53.8,M,,*4D
51 10 39 24 4333.6909500128.73823147.7ó 00128.73823 147.7 1101100001 1100011010 1100000101 101 1100101 111111111111 111111111111 111111111111 111111111111 1101100110 1011110100 1011110010 101 1101001 111111111111 111111111111 111111111111 110000010100 24.625 48.958 1000.0 52308 16 15 15 59 51 3 $GNGGA,103924.00,4333.69095,N,00128.73823,E,1,05,2.49,147.7,M,53.8,M,,*4C
52 10 39 25 4333.6900400128.73710148.7ó 00128.73710 148.7 1101100001 1100011010 1100000110 101 1100101 111111111111 111111111111 111111111111 111100101010 1101100110 1011110011 1011110001 100 1101001 111111111111 111111111111 111111111111 101101110100 24.625 48.951 1000.0 53305 16 16 14 60 51 3 $GNGGA,103925.00,4333.69004,N,00128.73710,E,1,05,2.49,148.7,M,53.8,M,,*45
53 10 39 26 4333.6894900128.73688149.9ó 00128.73688 149.9 1101100001 1100011011 1100000111 101 1100101 111111111111 111111111111 111111111111 111001001001 1101100110 1011110000 1011101111 100 1101000 111111111111 111111111111 111111111111 101011111001 24.625 48.943 1000.0 54306 16 14 15 58 51 3 $GNGGA,103926.00,4333.68949,N,00128.73688,E,1,05,2.49,149.9,M,53.8,M,,*48
54 10 39 27 4333.6901500128.73758150.0ó 00128.73758 150.0 1101100001 1100011100 1100001000 100 1100100 111111111111 111111111111 111111111111 110101110110 1101100110 1011110001 1011110000 100 1101000 111111111111 111111111111 111111111111 101001111100 24.625 48.890 1000.0 55305 16 15 13 58 52 4 $GNGGA,103927.00,4333.69015,N,00128.73758,E,1,05,2.49,150.0,M,53.8,M,,*45
55 10 39 28 4333.6905300128.73778150.0ó 00128.73778 150.0 1101100001 1100011010 1100000101 101 1100100 111111111111 111111111111 111111111111 110010111000 1101100110 1011110100 1011110010 100 1101000 111111111111 111111111111 111111111111 101000000110 24.625 48.859 1000.0 56304 17 15 14 60 51 3 $GNGGA,103928.00,4333.69053,N,00128.73778,E,1,05,2.49,150.0,M,53.8,M,,*4A
56 10 39 29 4333.6905900128.73775150.9ó 00128.73775 150.9 1101100001 1100011011 1100001000 101 1100100 111111111111 111111111111 111111111111 110000010111 1101100110 1011110011 1011110010 100 1101000 111111111111 111111111111 111111111111 100110101101 24.625 48.836 1000.0 57303 16 16 15 59 51 3 $GNGGA,103929.00,4333.69059,N,00128.73775,E,1,05,2.49,150.9,M,53.8,M,,*45
57 10 39 30 4333.6910600128.73778150.4ó 00128.73778 150.4 1101100001 1100011110 1100000110 101 1100100 111111111111 111111111111 111111111111 101110000111 1101100110 1011111010 1011110111 100 1101000 111111111111 111111111111 111111111111 100101010101 24.625 48.844 1000.0 58302 18 15 13 60 50 4 $GNGGA,103930.00,4333.69106,N,00128.73778,E,1,05,2.48,150.4,M,53.8,M,,*47
58 10 39 31 4333.6914500128.73857151.1ó 00128.73857 151.1 1101100001 1100011100 1100000110 100 1100100 111111111111 111111111111 111111111111 101100001010 1101100110 1011110010 1011110101 101 1100111 111111111111 111111111111 111111111111 100100010001 24.625 48.859 1000.1 59300 16 15 15 59 51 3 $GNGGA,103931.00,4333.69145,N,00128.73857,E,1,05,2.48,151.1,M,53.8,M,,*47
59 10 39 32 4333.6911500128.73799152.1ó 00128.73799 152.1 1101100001 1100011010 1100000101 100 1100100 111111111111 111111111111 111111111111 101010010011 1101100110 1011111010 1011111000 100 1100111 111111111111 111111111111 111111111111 100011000011 24.625 48.844 1000.1 60298 16 15 13 58 52 4 $GNGGA,103932.00,4333.69115,N,00128.73799,E,1,05,2.48,152.1,M,53.8,M,,*4F
60 10 39 33 4333.6907700128.73775152.7ó 00128.73775 152.7 1101100001 1100011100 1100000110 101 1100011 111111111111 111111111111 111111111111 101000101001 1101100110 1011111011 1011111000 100 1100111 111111111111 111111111111 111111111111 100010010101 24.625 48.829 1000.1 61299 18 15 13 60 50 4 $GNGGA,103933.00,4333.69077,N,00128.73775,E,1,05,2.48,152.7,M,53.8,M,,*4F
61 10 39 34 4333.6905400128.73742153.3ó 00128.73742 153.3 1101100001 1100011101 1100000101 101 1100011 111111111111 111111111111 111111111111 100111001100 1101100110 1011111011 1011111000 100 1100111 111111111111 111111111111 111111111111 100001010010 24.625 48.821 1000.1 62298 16 15 13 59 50 5 $GNGGA,103934.00,4333.69054,N,00128.73742,E,1,05,2.48,153.3,M,53.8,M,,*48
62 10 39 35 4333.6907500128.73703154.1ó 00128.73703 154.1 1101100001 1100011010 1100000101 100 1100011 111111111111 111111111111 111111111111 100101110101 1101100110 1100000000 1011111001 100 1100111 111111111111 111111111111 111111111111 100000011011 24.625 48.844 1000.1 63297 18 15 13 60 50 4 $GNGGA,103935.00,4333.69075,N,00128.73703,E,1,05,2.48,154.1,M,53.8,M,,*4A
63 10 39 36 4333.6909000128.73745155.1ó 00128.73745 155.1 1101100001 1100011001 1100000101 100 1100011 111111111111 111111111111 111111111111 100100101000 1101100111 1011111100 1011110100 100 1100110 111111111111 111111111111 111111111111 11111110010 24.625 48.890 1000.1 64295 16 14 14 59 50 4 $GNGGA,103936.00,4333.69090,N,00128.73745,E,1,05,2.48,155.1,M,53.8,M,,*41
64 10 39 37 4333.6909600128.73765154.6ó 00128.73765 154.6 1101100001 1100011011 1100000110 101 1100011 111111111111 111111111111 111111111111 100011100111 1101100110 1011111101 1011111001 100 1100110 111111111111 111111111111 111111111111 11111000001 24.563 48.882 1000.1 65294 16 14 13 60 50 4 $GNGGA,103937.00,4333.69096,N,00128.73765,E,1,05,2.48,154.6,M,53.8,M,,*42
65 10 39 38 4333.6909700128.73756154.8ó 00128.73756 154.8 1101100001 1100011010 1100000101 100 1100011 111111111111 111111111111 111111111111 100010100110 1101100110 1100000000 1011111011 100 1100110 111111111111 111111111111 111111111111 11110011001 24.563 48.920 1000.0 66294 17 15 14 59 50 4 $GNGGA,103938.00,4333.69097,N,00128.73756,E,1,05,2.48,154.8,M,53.8,M,,*42
66 10 39 39 4333.6910800128.73817155.0ó 00128.73817 155.0 1101100001 1100011101 1100001010 101 1100011 111111111111 111111111111 111111111111 100001101000 1101100110 1100000001 1011111011 100 1100110 111111111111 111111111111 111111111111 11101110101 24.625 48.928 1000.1 67293 16 16 14 59 52 3 $GNGGA,103939.00,4333.69108,N,00128.73817,E,1,05,2.48,155.0,M,53.8,M,,*47
67 10 39 40 4333.6909600128.73787156.6ó 00128.73787 156.6 1101100001 1100011111 1100001000 100 1100011 111111111111 111111111111 111111111111 100000110110 1101100110 1011111011 1011111000 100 1100110 111111111111 111111111111 111111111111 11101010101 24.563 48.943 1000.0 68292 17 15 14 60 51 3 $GNGGA,103940.00,4333.69096,N,00128.73787,E,1,05,2.48,156.6,M,53.8,M,,*4C
68 10 39 41 4333.6901600128.73677157.7ó 00128.73677 157.7 1101100001 1100011101 1100000111 101 1100011 111111111111 111111111111 111111111111 100000000000 1101100110 1011111100 1011110111 100 1100101 111111111111 111111111111 111111111111 11100110010 24.563 48.943 1000.0 69292 17 16 14 59 50 4 $GNGGA,103941.00,4333.69016,N,00128.73677,E,1,05,2.48,157.7,M,53.8,M,,*4B
69 10 39 42 4333.6906700128.73686158.4ó 00128.73686 158.4 1101100001 1100011111 1100000111 101 1100011 111111111111 111111111111 111111111111 11111011010 1101100110 1011111110 1011111011 100 1100101 111111111111 111111111111 111111111111 11100010111 24.563 48.958 1000.0 70290 17 15 14 60 51 3 $GNGGA,103942.00,4333.69067,N,00128.73686,E,1,05,2.48,158.4,M,53.8,M,,*4C
70 10 39 43 4333.6906800128.73684160.5ó 00128.73684 160.5 1101100001 1100011110 1100000111 100 1100011 111111111111 111111111111 111111111111 11110110111 1101100110 1100000101 1011111011 100 1100101 111111111111 111111111111 111111111111 11011111001 24.563 48.974 1000.0 71287 16 14 14 58 51 4 $GNGGA,103943.00,4333.69068,N,00128.73684,E,1,05,2.48,160.5,M,53.8,M,,*4A
71 10 39 44 4333.6912900128.73740160.9ó 00128.73740 160.9 1101100001 1100011110 1100001000 100 1100100 111111111111 111111111111 111111111111 11110010001 1101100110 1011111111 1011111011 100 1100101 111111111111 111111111111 111111111111 11011011111 24.625 48.996 1000.0 72288 16 16 14 59 52 3 $GNGGA,103944.00,4333.69129,N,00128.73740,E,1,05,2.48,160.9,M,53.8,M,,*4C
72 10 39 45 4333.6916400128.73764160.2ó 00128.73764 160.2 1101100001 1100011101 1100000110 101 1100101 111111111111 111111111111 111111111111 11101110011 1101100110 1100000000 1011111011 100 1100101 111111111111 111111111111 111111111111 11011001101 24.563 49.004 1000.0 73286 17 14 13 60 50 4 $GNGGA,103945.00,4333.69164,N,00128.73764,E,1,05,2.48,160.2,M,53.8,M,,*49
73 10 39 46 4333.6917500128.73745161.0ó 00128.73745 161.0 1101100001 1100100000 1100000111 100 1100110 111111111111 111111111111 111111111111 11101001000 1101100110 1100000101 1011111101 100 1100100 111111111111 111111111111 111111111111 11010110110 24.563 49.012 1000.0 74287 16 16 14 59 51 4 $GNGGA,103946.00,4333.69175,N,00128.73745,E,1,05,2.48,161.0,M,53.8,M,,*4A
74 10 39 47 4333.6921200128.73780161.2ó 00128.73780 161.2 1101100001 1100011110 1100000111 100 1100111 111111111111 111111111111 111111111111 11100101011 1101100110 1100000101 1011111101 100 1100100 111111111111 111111111111 111111111111 11010101001 24.563 49.027 1000.0 75284 18 14 13 60 50 4 $GNGGA,103947.00,4333.69212,N,00128.73780,E,1,05,2.48,161.2,M,53.8,M,,*42
75 10 39 48 4333.6919700128.73793161.6ó 00128.73793 161.6 1101100001 1100011011 1100000111 100 1101001 111111111111 111111111111 111111111111 11100011001 1101100110 1100000101 1011111110 100 1100100 111111111111 111111111111 111111111111 11010011001 24.563 49.042 1000.0 76284 16 15 15 59 51 3 $GNGGA,103948.00,4333.69197,N,00128.73793,E,1,05,2.48,161.6,M,53.8,M,,*45
76 10 39 49 4333.6913100128.73751161.8ó 00128.73751 161.8 1101100001 1100011110 1100000101 100 1101100 111111111111 111111111111 111111111111 11011110001 1101100110 1100000000 1011111010 100 1100100 111111111111 111111111111 111111111111 11001101111 24.563 49.058 1000.0 77282 16 15 13 59 51 4 $GNGGA,103949.00,4333.69131,N,00128.73751,E,1,05,2.48,161.8,M,53.8,M,,*48
77 10 39 50 4333.6910100128.73738162.2ó 00128.73738 162.2 1101100001 1100011011 1100000110 101 1101111 111111111111 111111111111 111111111111 11011100000 1101100110 1100000101 1011111011 100 1100100 111111111111 111111111111 111111111111 11001101011 24.563 49.073 1000.1 78281 17 14 13 58 51 4 $GNGGA,103950.00,4333.69101,N,00128.73738,E,1,05,2.48,162.2,M,53.8,M,,*45
78 10 39 51 4333.6905900128.73709162.1ó 00128.73709 162.1 1101100001 1100011011 1100000101 101 1110100 111111111111 111111111111 111111111111 11011001010 1101100110 1011111110 1011111100 100 1100100 111111111111 111111111111 111111111111 11001010000 24.563 49.080 1000.1 79281 17 15 13 59 51 4 $GNGGA,103951.00,4333.69059,N,00128.73709,E,1,05,2.48,162.1,M,53.8,M,,*49
79 10 39 52 4333.6902600128.73644162.6ó 00128.73644 162.6 1101100001 1100100000 1100000110 100 1111001 111111111111 111111111111 111111111111 11010101111 1101100110 1100000111 1100000000 100 1100011 111111111111 111111111111 111111111111 11001001011 24.563 49.080 1000.0 80280 17 15 14 60 51 3 $GNGGA,103952.00,4333.69026,N,00128.73644,E,1,05,2.48,162.6,M,53.8,M,,*4D
80 10 39 53 4333.6905800128.73664162.8ó 00128.73664 162.8 1101100001 1100011111 1100000110 100 1111101 111111111111 111111111111 111111111111 11010100011 1101100110 1100000101 1011111111 101 1100011 111111111111 111111111111 111111111111 11000111101 24.563 49.080 1000.0 81278 16 14 14 58 51 4 $GNGGA,103953.00,4333.69058,N,00128.73664,E,1,05,2.48,162.8,M,53.8,M,,*49
81 10 39 54 4333.6906200128.73590163.5ó 00128.73590 163.5 1101100001 1100100001 1100000111 101 10000100 111111111111 111111011001 111111111111 11010010001 1101100110 1100000101 1011111110 100 1100011 111111111111 111111111111 111111111111 11000110101 24.563 49.088 1000.0 82277 17 15 14 60 51 3 $GNGGA,103954.00,4333.69062,N,00128.73590,E,1,05,2.48,163.5,M,53.8,M,,*43
82 10 39 55 4333.6903800128.73559164.3ó 00128.73559 164.3 1101100001 1100100000 1100000111 100 10001010 111111111111 111110101000 111111111111 11001111010 1101100110 1100000011 1011111010 100 1100011 111111111111 111111111111 111111111111 11000011110 24.563 49.111 1000.0 83276 16 14 14 59 50 4 $GNGGA,103955.00,4333.69038,N,00128.73559,E,1,05,2.48,164.3,M,53.8,M,,*49
83 10 39 56 4333.6894900128.73521165.1ó 00128.73521 165.1 1101100001 1100011111 1100000110 100 10010001 111111111111 111101110100 111111111111 11001101100 1101100110 1100000111 1100000000 100 1100100 111111111111 111111111111 111111111111 11000001111 24.563 49.119 1000.0 84276 16 15 13 58 52 4 $GNGGA,103956.00,4333.68949,N,00128.73521,E,1,05,2.48,165.1,M,53.8,M,,*48
84 10 39 57 4333.6893800128.73469165.7ó 00128.73469 165.7 1101100001 1100011100 1100000101 100 10010110 111111111111 111100111101 111111111111 11001011011 1101100110 1100000101 1011111111 100 1100100 111111111111 111111111111 111111111111 11000000111 24.563 49.111 1000.0 85275 17 15 14 60 51 3 $GNGGA,103957.00,4333.68938,N,00128.73469,E,1,05,2.48,165.7,M,53.8,M,,*44
85 10 39 58 4333.6897900128.73505166.0ó 00128.73505 166.0 1101100001 1100011111 1100000101 101 10011101 111111111111 111100001000 111111111111 11001001010 1101100110 1100000111 1100000000 100 1100101 111111111111 111111111111 111111111111 11000000000 24.563 49.126 1000.0 86275 16 15 13 58 51 5 $GNGGA,103958.00,4333.68979,N,00128.73505,E,1,05,2.48,166.0,M,53.8,M,,*41
86 10 39 59 4333.6884500128.73448167.2ó 00128.73448 167.2 1101100001 1100011101 1100001000 100 10100101 111111001100 111011010001 111111111111 11000111011 1101100110 1100001000 1011111101 100 1100110 111111111111 111111111111 111111111111 10111101111 24.563 49.141 1000.0 87273 17 15 14 60 51 3 $GNGGA,103959.00,4333.68845,N,00128.73448,E,1,04,2.87,167.2,M,53.8,M,,*47
87 10 40 00 4333.6874900128.73375168.7ó 00128.73375 168.7 1101100001 1100011101 1100000110 100 10101010 111110101100 111010110100 111111111111 11000101100 1101100110 1100001000 1100000010 100 1101001 111111111111 111111111111 111111111111 10111101001 24.625 49.149 1000.0 88272 16 15 15 59 51 3 $GNGGA,104000.00,4333.68749,N,00128.73375,E,1,04,2.87,168.7,M,53.8,M,,*45
88 10 40 01 4333.6874200128.73391169.0ó 00128.73391 169.0 1101100001 1100011111 1100000101 100 10110101 111101111010 111010000100 111111111111 11000101000 1101100110 1100000110 1011111101 100 1101011 111111111111 111111111111 111111111111 10111011001 24.563 49.149 1000.0 89270 17 16 13 59 51 4 $GNGGA,104001.00,4333.68742,N,00128.73391,E,1,04,2.89,169.0,M,53.8,M,,*4D
89 10 40 02 4333.6884500128.73423168.7ó 00128.73423 168.7 1101100001 1100100010 1100001000 101 10111010 111101001001 111001010100 111111111111 11000011011 1101100110 1100001000 1100000000 100 1101110 111111111111 111111111111 111111111111 10111001011 24.500 49.187 1000.0 90270 18 15 13 60 50 4 $GNGGA,104002.00,4333.68845,N,00128.73423,E,1,04,2.89,168.7,M,53.8,M,,*4E
90 10 40 03 4333.6875000128.73417169.6ó 00128.73417 169.6 1101100001 1100011100 1100000100 100 10111110 111100100100 111000101110 111111111111 11000000101 1101100110 1100001001 1100000000 100 1110100 111111111111 111111111111 111111111111 10111000001 24.500 49.195 1000.0 91270 16 15 13 58 52 4 $GNGGA,104003.00,4333.68750,N,00128.73417,E,1,05,2.48,169.6,M,53.8,M,,*4F
91 10 40 04 4333.6875200128.73447170.0ó 00128.73447 170.0 1101100001 1100011100 1100000110 101 11001001 111011110101 111000000001 111111111111 10111111100 1101100110 1100001010 1100000001 100 1111000 111111111111 111111111111 111111111111 10110110100 24.563 49.202 1000.0 92269 17 15 14 60 51 3 $GNGGA,104004.00,4333.68752,N,00128.73447,E,1,05,2.48,170.0,M,53.8,M,,*41
92 10 40 05 4333.6882700128.73465170.5ó 00128.73465 170.5 1101100001 1100011010 1100000101 100 11001100 111011010101 110111011011 111111111111 10111101101 1101100110 1100000111 1100000000 100 10000000 111111111111 111111111111 111111111111 10110110101 24.500 49.218 1000.0 93268 17 15 14 59 50 4 $GNGGA,104005.00,4333.68827,N,00128.73465,E,1,05,2.48,170.5,M,53.8,M,,*48
93 10 40 06 4333.6882500128.73434171.1ó 00128.73434 171.1 1101100001 1100011101 1100000110 100 11010110 111010101111 110110111011 111111111111 10111100101 1101100110 1100001001 1011111111 100 10001001 111111101010 111111111111 111111111111 10110110001 24.563 49.233 1000.0 94267 18 15 13 60 50 4 $GNGGA,104006.00,4333.68825,N,00128.73434,E,1,04,2.87,171.1,M,53.8,M,,*4A
94 10 40 07 4333.6884700128.73440171.6ó 00128.73440 171.6 1101100001 1100100000 1100000110 100 11011110 111010000110 110110010101 111111111111 10111011001 1101100110 1100000111 1011111110 100 10001111 111111000100 111111111111 111111111111 10110100000 24.563 49.241 1000.0 95265 17 15 14 59 50 4 $GNGGA,104007.00,4333.68847,N,00128.73440,E,1,04,2.87,171.6,M,53.8,M,,*4B
95 10 40 08 4333.6882400128.73397172.6ó 00128.73397 172.6 1101100001 1100011101 1100000110 100 11100101 111001100010 110101110010 111111111111 10111001010 1101100110 1100001011 1100000001 100 10010111 111110011101 111111111111 111111111111 10110100001 24.563 49.248 1000.0 96264 16 15 13 58 52 4 $GNGGA,104008.00,4333.68824,N,00128.73397,E,1,04,2.87,172.6,M,53.8,M,,*4F
96 10 40 09 4333.6878300128.73414173.2ó 00128.73414 173.2 1101100001 1100011110 1100000101 100 11101101 111001000000 110101010100 111111111111 10111000111 1101100110 1100001100 1100000011 100 10011101 111101111100 111111111111 111111111111 10110011111 24.500 49.256 1000.0 97264 18 15 13 60 50 4 $GNGGA,104009.00,4333.68783,N,00128.73414,E,1,05,2.48,173.2,M,53.8,M,,*47
97 10 40 10 4333.6877700128.73401174.6ó 00128.73401 174.6 1101100001 1100011001 1100000011 100 11110101 111000011111 110100110000 111111111111 10110111011 1101100110 1100010000 1100000100 100 10101000 111101011001 111111001110 111111111111 10110010001 24.500 49.256 1000.0 98264 16 15 13 59 50 5 $GNGGA,104010.00,4333.68777,N,00128.73401,E,1,05,2.48,174.6,M,53.8,M,,*43
98 10 40 11 4333.6870700128.73363175.2ó 00128.73363 175.2 1101100001 1100011011 1100000011 100 11111000 111000000011 110100010111 111111111111 10110110111 1101100110 1100001100 1100000010 100 10101101 111100110001 111110100010 111111111111 10110000010 24.563 49.241 1000.0 99263 17 15 14 60 51 3 $GNGGA,104011.00,4333.68707,N,00128.73363,E,1,05,2.48,175.2,M,53.8,M,,*43
99 10 40 12 4333.6882300128.73486175.6ó 00128.73486 175.6 1101100001 1100011110 1100000101 100 100000001 110111100011 110011111110 111111111111 10110110010 1101100110 1100001011 1100000000 100 10110110 111100010110 111101111100 111111111111 10101111001 24.563 49.241 1000.1 100260 16 15 15 59 51 3 $GNGGA,104012.00,4333.68823,N,00128.73486,E,1,05,2.48,175.6,M,53.8,M,,*41
100 10 40 13 4333.6875200128.73411177.5ó 00128.73411 177.5 1101100001 1100011101 1100000101 100 100000110 110111000000 110011011001 111111111111 10110011111 1101100110 1100001100 1100000001 100 11000010 111011110100 111101010110 111111111111 10101110110 24.500 49.248 1000.1 101261 16 15 13 58 52 4 $GNGGA,104013.00,4333.68752,N,00128.73411,E,1,05,2.48,177.5,M,53.8,M,,*46
101 10 40 14 4333.6866900128.73330178.6ó 00128.73330 178.6 1101100001 1100011010 1100000100 100 100010000 110110100100 110011000000 111111111111 10110011100 1101100110 1100001001 1100000010 100 11001010 111011010000 111100101111 111111111111 10101101101 24.500 49.256 1000.1 102259 17 15 14 60 51 3 $GNGGA,104014.00,4333.68669,N,00128.73330,E,1,05,2.48,178.6,M,53.8,M,,*40
102 10 40 15 4333.6863300128.73275179.1ó 00128.73275 179.1 1101100001 1100011010 1100000101 100 100010101 110110001001 110010100011 111111111111 10110010000 1101100110 1100001001 1011111111 100 11010010 111010101101 111100000111 111111111111 10101011111 24.500 49.264 1000.0 103258 16 15 13 58 51 5 $GNGGA,104015.00,4333.68633,N,00128.73275,E,1,05,2.48,179.1,M,53.8,M,,*48
103 10 40 16 4333.6869200128.73296178.7ó 00128.73296 178.7 1101100001 1100011101 1100000101 100 100011000 110101110001 110010001010 111111111111 10110000000 1101100110 1100001011 1100000011 100 11011010 111010010000 111011100011 111111111111 10101100011 24.563 49.271 1000.0 104257 17 14 13 59 51 4 $GNGGA,104016.00,4333.68692,N,00128.73296,E,1,05,2.48,178.7,M,53.8,M,,*4A
104 10 40 17 4333.6868800128.73287178.7ó 00128.73287 178.7 1101100001 1100011110 1100000110 100 100011111 110101001111 110001101011 111111111111 10110001001 1101100110 1100010001 1100000100 100 11101000 111001110110 111011000110 111111111111 10101011101 24.563 49.462 1000.0 105256 16 15 15 59 51 3 $GNGGA,104017.00,4333.68688,N,00128.73287,E,1,05,2.48,178.7,M,53.8,M,,*40
105 10 40 18 Nan Nan Nan 1101100001 1100011101 1100000101 100 100101000 110100110100 110001010000 111111111111 10101111001 1101100110 1100011000 1100000100 100 11101011 111001011101 111010100000 111111111111 10101010111 24.563 49.614 1000.0 106249 16 7 11 59 52 3 $GNGGA,104018.00,,,,,0,00,15.5,,,,,,*45
106 10 40 19 Nan Nan Nan 1101100001 1100100001 1100000111 100 100101010 110100011101 110000111001 111111111111 10101110010 1101100110 1101001010 1100000110 100 11110101 111000111001 111001111110 111111111111 10101001110 24.563 49.630 1000.0 107243 17 6 11 60 50 4 $GNGGA,104019.00,,,,,0,00,15.5,,,,,,*44
107 10 40 20 Nan Nan Nan 1101100001 1100011111 1100000110 100 100110001 110100000100 110000100110 111111111111 10101100100 1101100110 1110000000 1100000110 100 100000001 111000010000 111001010101 111111111111 10100111110 24.625 49.630 1000.0 108242 16 7 12 59 51 3 $GNGGA,104020.00,,,,,0,00,15.5,,,,,,*4E
108 10 40 21 Nan Nan Nan 1101100001 1100011101 1100000101 100 100111010 110011101011 110000001011 111111111111 10101101011 1101100110 1110100010 1100000110 100 100000011 110111101100 111001000100 111111111111 10100111110 24.625 49.576 1000.0 109241 16 7 11 60 51 3 $GNGGA,104021.00,,,,,0,00,15.5,,,,,,*4F
109 10 40 22 Nan Nan Nan 1101100001 1100011110 1100000101 100 100111100 110011001100 101111110010 111111111111 10101010011 1101100110 1110101111 1100000100 100 100001110 110111001010 111000100101 111111111111 10101000010 24.563 49.576 1000.0 110241 17 7 11 59 51 3 $GNGGA,104022.00,,,,,0,00,15.5,,,,,,*4C
110 10 40 23 Nan Nan Nan 1101100001 1100011111 1100000110 100 101000101 110010110010 101111011010 111111111111 10101011110 1101100110 1110100011 1100000100 100 100011010 110110101001 111000000110 111111111111 10100101100 24.500 49.584 1000.0 111237 16 8 10 58 51 5 $GNGGA,104023.00,,,,,0,00,15.5,,,,,,*4D
111 10 40 24 Nan Nan Nan 1101100001 1100100100 1100001000 100 101001010 110010010100 101111000101 111111111111 10101001110 1101100110 1101111110 1100000100 100 100100011 110110010101 110111101100 111111111111 10100011000 24.500 49.843 1000.0 112238 18 7 10 59 51 4 $GNGGA,104024.00,,,,,0,00,15.5,,,,,,*4A
112 10 40 25 4333.6877900128.73582169.4ó 00128.73582 169.4 1101100001 1100101000 1100001000 100 101001111 110001110110 101110110000 111111111111 10101010010 1101100110 1101010001 1100000100 100 100101001 110110000001 110111010010 111111111111 10011101001 24.563 50.347 1000.0 113249 16 16 14 59 52 3 $GNGGA,104025.00,4333.68779,N,00128.73582,E,1,05,2.48,169.4,M,53.8,M,,*4F
113 10 40 26 4333.6868800128.73481169.4ó 00128.73481 169.4 1101100001 1100101010 1100000101 100 101010101 110001010100 101110010010 111111111111 10101001010 1101100110 1100110001 1100000110 100 100101101 110101111100 110111000010 111111111111 10010111001 24.500 50.477 1000.0 114248 17 14 13 59 51 4 $GNGGA,104026.00,4333.68688,N,00128.73481,E,1,05,2.48,169.4,M,53.8,M,,*41
114 10 40 27 4333.6872100128.73522169.2ó 00128.73522 169.2 1101100001 1100101101 1100000011 100 101011001 110001000100 101110001011 111111111111 10101000010 1101100110 1100011001 1100000100 100 100110110 110101110011 110110101000 111111111111 10010110011 24.500 50.461 1000.0 115247 16 16 14 59 50 5 $GNGGA,104027.00,4333.68721,N,00128.73522,E,1,05,2.48,169.2,M,53.8,M,,*4C
115 10 40 28 4333.6868500128.73468169.2ó 00128.73468 169.2 1101100001 1100111000 1100000110 101 101100000 110000101011 101101110101 111111111111 10100111010 1101100110 1100001011 1100000111 100 100111111 110101100100 110110001111 111111111111 10010011111 24.500 50.385 1000.0 116246 18 15 13 60 50 4 $GNGGA,104028.00,4333.68685,N,00128.73468,E,1,05,2.48,169.2,M,53.8,M,,*43
116 10 40 29 4333.6867500128.73448169.2ó 00128.73448 169.2 1101100001 1100111101 1100000110 100 101101000 110000010110 101101100010 111111111111 10100110101 1101100110 1100000011 1100000100 100 101000011 110101011101 110101111001 111111111111 10010010101 24.563 50.362 1000.0 117243 16 15 15 59 51 3 $GNGGA,104029.00,4333.68675,N,00128.73448,E,1,05,2.48,169.2,M,53.8,M,,*4F
117 10 40 30 4333.6865800128.73456169.2ó 00128.73456 169.2 1101100001 1100111110 1100000110 100 101101011 110000000100 101101001110 111111111111 10100101110 1101100110 1011111001 1100000101 100 101001010 110101010000 110101100011 111111111111 10010001001 24.500 50.362 1000.0 118241 17 15 13 59 51 4 $GNGGA,104030.00,4333.68658,N,00128.73456,E,1,05,2.48,169.2,M,53.8,M,,*47
118 10 40 31 4333.6857400128.73411169.2ó 00128.73411 169.2 1101100001 1100111101 1100000101 100 101110011 101111110001 101100111000 111111111111 10100101000 1101100110 1011110101 1100000010 100 101010001 110100111011 110101001111 111111111111 10010001010 24.500 50.156 1000.0 119241 17 15 14 60 51 3 $GNGGA,104031.00,4333.68574,N,00128.73411,E,1,05,2.48,169.2,M,53.8,M,,*48
119 10 40 32 4333.6855800128.73364169.2ó 00128.73364 169.2 1101100001 1101000001 1100000111 101 101110110 101111101010 101100101100 111111111111 10100101001 1101100110 1011110100 1100000010 100 101011001 110100110010 110100111100 111111111111 10010000010 24.500 50.019 1000.0 120242 16 16 14 59 52 3 $GNGGA,104032.00,4333.68558,N,00128.73364,E,1,05,2.48,169.2,M,53.8,M,,*40
120 10 40 33 4333.6850600128.73324169.2ó 00128.73324 169.2 1101100001 1100111110 1100001000 100 101111011 101111011111 101100011100 111111111111 10100100100 1101100110 1011110111 1100000011 100 101011101 110100011111 110100100100 111111111111 10010000001 24.500 50.049 1000.0 121239 18 14 13 60 50 4 $GNGGA,104033.00,4333.68506,N,00128.73324,E,1,05,2.48,169.2,M,53.8,M,,*4E
121 10 40 34 4333.6847500128.73272169.3ó 00128.73272 169.3 1101100001 1100111011 1100000111 101 110000000 101111010000 101100001011 111111111111 10100011010 1101100110 1011110101 1100000110 100 101100000 110100000011 110100001100 111111111111 10010000110 24.563 49.859 1000.0 122237 16 15 15 59 51 3 $GNGGA,104034.00,4333.68475,N,00128.73272,E,1,05,2.48,169.3,M,53.8,M,,*4F
122 10 40 35 4333.6841500128.73296169.2ó 00128.73296 169.2 1101100001 1100110101 1100000110 101 110000011 101111000010 101011111010 111111111111 10100011000 1101100110 1011111001 1100000110 100 101101011 110011110110 110011110101 111111111111 10010001100 24.500 49.721 1000.0 123238 17 15 14 60 51 3 $GNGGA,104035.00,4333.68415,N,00128.73296,E,1,05,2.48,169.2,M,53.8,M,,*43
123 10 40 36 4333.6839800128.73259169.1ó 00128.73259 169.1 1101100001 1100110010 1100000110 100 110001010 101110110110 101011101000 111111111111 10100011010 1101100110 1011111010 1100000101 100 101110010 110011100110 110011100011 111111111111 10010010000 24.500 49.614 1000.0 124236 16 15 15 59 51 3 $GNGGA,104036.00,4333.68398,N,00128.73259,E,1,05,2.48,169.1,M,53.8,M,,*42
124 10 40 37 4333.6846000128.73239169.0ó 00128.73239 169.0 1101100001 1100110001 1100001000 100 110001101 101110100101 101011011010 111111111111 10100010001 1101100110 1011111101 1100000110 100 101110100 110011010000 110011010000 111111111111 10010000111 24.500 49.523 1000.0 125236 16 16 14 59 52 3 $GNGGA,104037.00,4333.68460,N,00128.73239,E,1,05,2.48,169.0,M,53.8,M,,*44
125 10 40 38 4333.6842900128.73207168.9ó 00128.73207 168.9 1101100001 1100101100 1100000111 100 110010001 101110010110 101011000000 111111111111 10100000011 1101100110 1011111110 1100000110 100 101111011 110010111011 110010111001 111111111111 10010001111 24.500 49.492 1000.0 126235 18 15 13 60 50 4 $GNGGA,104038.00,4333.68429,N,00128.73207,E,1,05,2.48,168.9,M,53.8,M,,*43
126 10 40 39 4333.6838100128.73166168.9ó 00128.73166 168.9 1101100001 1100101001 1100000111 100 110010110 101110001111 101010111000 111111111111 10100000011 1101100110 1011111111 1100000101 100 110000011 110010101011 110010100110 111111111111 10010011010 24.500 49.462 1000.0 127234 17 16 14 59 50 4 $GNGGA,104039.00,4333.68381,N,00128.73166,E,1,05,2.48,168.9,M,53.8,M,,*43
127 10 40 40 4333.6834800128.73194168.9ó 00128.73194 168.9 1101100001 1100100100 1100000110 100 110100000 101110000001 101010101000 111111111111 10100001000 1101100110 1100000011 1100000101 100 110001001 110010010011 110010001111 111111111111 10010010000 24.500 49.431 1000.0 128232 18 14 13 60 50 4 $GNGGA,104040.00,4333.68348,N,00128.73194,E,1,05,2.48,168.9,M,53.8,M,,*45
128 10 40 41 4333.6831000128.73069168.9ó 00128.73069 168.9 1101100001 1100100010 1100000110 100 110100001 101101111010 101010011111 111111111111 10011111101 1101100110 1011111111 1100000001 100 110001110 110010001001 110010000100 111111111111 10010010010 24.500 49.408 1000.0 129230 16 15 15 59 51 3 $GNGGA,104041.00,4333.68310,N,00128.73069,E,1,05,2.48,168.9,M,53.8,M,,*4A
129 10 40 42 4333.6822300128.72990168.9ó 00128.72990 168.9 1101100001 1100100010 1100000101 101 110100101 101101100000 101010001101 111111111111 10011111110 1101100110 1100000110 1100001000 100 110010001 110001110110 110001101110 111111111111 10010011001 24.500 49.401 1000.0 130231 16 16 14 59 52 3 $GNGGA,104042.00,4333.68223,N,00128.72990,E,1,05,2.48,168.9,M,53.8,M,,*46
130 10 40 43 4333.6822400128.72937169.0ó 00128.72937 169.0 1101100001 1100100011 1100001000 100 110101001 101101010110 101001111110 111111111111 10011111001 1101100111 1100001000 1100000110 100 110011101 110001101111 110001011101 111111111111 10010010011 24.500 49.378 1000.0 131230 18 15 13 60 50 4 $GNGGA,104043.00,4333.68224,N,00128.72937,E,1,05,2.48,169.0,M,53.8,M,,*45
131 10 40 44 4333.6813400128.72856169.0ó 00128.72856 169.0 1101100001 1100011111 1100000111 100 110101101 101101000001 101001101100 111111111111 10011110010 1101100110 1100001010 1100000111 100 110100010 110001011010 110001010010 111111111111 10010011000 24.500 49.363 1000.0 132229 16 15 13 59 50 5 $GNGGA,104044.00,4333.68134,N,00128.72856,E,1,05,2.48,169.0,M,53.8,M,,*46
132 10 40 45 4333.6810400128.72836169.0ó 00128.72836 169.0 1101100001 1100011000 1100000011 100 110110011 101100110000 101001011111 111111111111 10011110101 1101100110 1100011011 1100000011 100 110100100 110001000011 110000110101 111111111111 10010010010 24.500 49.355 1000.0 133227 18 14 13 60 50 4 $GNGGA,104045.00,4333.68104,N,00128.72836,E,1,05,2.48,169.0,M,53.8,M,,*42
133 10 40 46 4333.6802600128.72798169.0ó 00128.72798 169.0 1101100001 1100011101 1100000101 100 110111000 101100100100 101001010001 111111111111 10011100111 1101100110 1101010001 1100000111 100 110101001 110000110111 110000101101 111111111111 10010011011 24.500 49.340 1000.0 134226 17 14 14 59 50 4 $GNGGA,104046.00,4333.68026,N,00128.72798,E,1,05,2.48,169.0,M,53.8,M,,*4B
134 10 40 47 4333.6796900128.72679168.9ó 00128.72679 168.9 1101100001 1100011101 1100000110 100 110111011 101100001110 101000111010 111111111111 10011011110 1101100111 1110000010 1100000011 100 110110011 110000011001 110000010101 111111111111 10010010111 24.500 49.332 1000.0 135226 17 15 14 60 51 3 $GNGGA,104047.00,4333.67969,N,00128.72679,E,1,05,2.47,168.9,M,53.8,M,,*4E
135 10 40 48 4333.6801700128.72731168.9ó 00128.72731 168.9 1101100001 1100011000 1100000101 100 110111100 101100000100 101000110111 111111111111 10011100001 1101100110 1110100100 1100000110 100 110111000 101111111101 110000001101 111111111111 10010011000 24.500 49.416 1000.0 136224 16 14 14 58 51 4 $GNGGA,104048.00,4333.68017,N,00128.72731,E,1,05,2.47,168.9,M,53.8,M,,*43
136 10 40 49 4333.6799500128.72687169.0ó 00128.72687 169.0 1101100001 1100011111 1100001010 100 111000100 101011110100 101000100110 111111111111 10011011001 1101100110 1110111000 1100001010 100 110111100 101111100110 101111111000 111111111111 10010010001 24.500 49.439 1000.0 137224 16 16 14 59 52 3 $GNGGA,104049.00,4333.67995,N,00128.72687,E,1,05,2.47,169.0,M,53.8,M,,*4A
137 10 40 50 4333.6799000128.72609169.0ó 00128.72609 169.0 1101100001 1100011011 1100000110 100 111000110 101011100000 101000011011 111111111111 10011010001 1101100111 1111000010 1100001000 100 111000011 101111000110 101111101010 111111111111 10010010000 24.500 49.431 1000.0 138223 17 15 14 60 51 3 $GNGGA,104050.00,4333.67990,N,00128.72609,E,1,05,2.47,169.0,M,53.8,M,,*41
138 10 40 51 4333.6804900128.72520169.1ó 00128.72520 169.1 1101100001 1100100100 1100000111 100 111001010 101011001100 101000001110 111111111111 10011001011 1101100110 1110110100 1100001001 100 111001001 101111000100 101111100001 111111111111 10010011000 24.500 49.401 1000.0 139223 16 16 15 59 51 3 $GNGGA,104051.00,4333.68049,N,00128.72520,E,1,05,2.47,169.1,M,53.8,M,,*4B
139 10 40 52 4333.6800900128.72550169.2ó 00128.72550 169.2 1101100001 1100100000 1100000110 101 111001101 101010111000 100111111110 111111111111 10011001101 1101100110 1110101101 1100001001 100 111001110 101110101111 101111001110 111111111111 10010011110 24.500 49.401 1000.0 140219 17 14 13 59 51 4 $GNGGA,104052.00,4333.68009,N,00128.72550,E,1,05,2.47,169.2,M,53.8,M,,*48
140 10 40 53 4333.6805900128.72576169.3ó 00128.72576 169.3 1101100001 1100101000 1100000110 101 111010100 101010100100 100111111000 111111111111 10011010001 1101100110 1110010001 1100001010 100 111010000 101110100100 101110111111 111111111111 10010011101 24.500 49.767 1000.0 141219 16 15 15 59 51 3 $GNGGA,104053.00,4333.68059,N,00128.72576,E,1,04,2.86,169.3,M,53.8,M,,*45
141 10 40 54 4333.6808200128.72562169.4ó 00128.72562 169.4 1101100001 1100101110 1100000101 101 111010110 101010010000 100111101010 111111111111 10011000100 1101100110 1101101011 1100001100 100 111010101 101110100001 101110110001 111111111111 10010011011 24.500 49.691 1000.0 142220 16 15 13 58 52 4 $GNGGA,104054.00,4333.68082,N,00128.72562,E,1,05,2.47,169.4,M,53.8,M,,*4A
142 10 40 55 4333.6810900128.72553169.4ó 00128.72553 169.4 1101100001 1100110111 1100000101 100 111011100 101010000010 100111100101 111111111111 10010111101 1101100110 1101000100 1100001011 100 111011100 101110011001 101110100101 111111111111 10010100010 24.500 49.592 1000.0 143219 17 15 14 60 50 4 $GNGGA,104055.00,4333.68109,N,00128.72553,E,1,05,2.47,169.4,M,53.8,M,,*4B
143 10 40 56 4333.6812900128.72650169.4ó 00128.72650 169.4 1101100001 1100111001 1100000101 100 111011111 101001110010 100111011001 111111111111 10011000110 1101100111 1100100010 1100000111 100 111100001 101110010010 101110010101 111111111111 10010101010 24.500 49.592 1000.0 144218 16 16 14 59 51 4 $GNGGA,104056.00,4333.68129,N,00128.72650,E,1,05,2.47,169.4,M,53.8,M,,*4A
144 10 40 57 4333.6824300128.72627169.4ó 00128.72627 169.4 1101100001 1101000000 1100000111 101 111100100 101001100000 100111001000 111111111111 10011000011 1101100110 1100001001 1100001001 100 111100000 101110011000 101110001100 111110100100 10010100101 24.500 49.729 1000.0 145216 17 14 13 59 51 4 $GNGGA,104057.00,4333.68243,N,00128.72627,E,1,05,2.47,169.4,M,53.8,M,,*44
145 10 40 58 4333.6829500128.72688169.4ó 00128.72688 169.4 1101100001 1101000101 1100000110 100 111100110 101001011011 100111000101 111111111111 10010111110 1101100110 1011110111 1100000101 100 111100110 101110010001 101101111101 111100110011 10010011110 24.500 49.790 1000.0 146214 16 14 14 58 51 4 $GNGGA,104058.00,4333.68295,N,00128.72688,E,1,05,2.47,169.4,M,53.8,M,,*45
146 10 40 59 4333.6832700128.72734169.2ó 00128.72734 169.2 1101100001 1101000101 1100000100 100 111101001 101001010010 100110110100 111111111111 10010110010 1101100110 1011110000 1100001001 100 111101001 101110001100 101101110001 111011001010 10010011001 24.500 49.767 1000.0 147214 16 14 14 59 52 3 $GNGGA,104059.00,4333.68327,N,00128.72734,E,1,05,2.47,169.2,M,53.8,M,,*4C
147 10 41 00 4333.6816800128.72623169.1ó 00128.72623 169.1 1101100001 1101001000 1100000111 100 111101110 101001001010 100110101111 111111111111 10010110100 1101100110 1011101100 1100001010 100 111101101 101110001000 101101101100 111001110111 10010011101 24.500 49.836 1000.0 148213 16 14 14 58 51 4 $GNGGA,104100.00,4333.68168,N,00128.72623,E,1,05,2.47,169.1,M,53.8,M,,*4C
148 10 41 01 4333.6822900128.72652169.0ó 00128.72652 169.0 1101100001 1101001010 1100000111 100 111110100 101001001100 100110100011 111111111111 10010101011 1101100110 1011101000 1100001001 100 111110000 101101111110 101101011000 111000010011 10010011100 24.500 49.943 1000.0 149212 16 15 13 58 52 4 $GNGGA,104101.00,4333.68229,N,00128.72652,E,1,05,2.47,169.0,M,53.8,M,,*4C
149 10 41 02 4333.6825500128.72678168.9ó 00128.72678 168.9 1101100001 1101000101 1100000110 100 111110011 101001000110 100110011011 111111111111 10010100010 1101100110 1011101100 1100001010 100 111111001 101101110111 101101001100 110110111100 10010011010 24.500 49.874 1000.0 150211 17 14 14 60 51 3 $GNGGA,104102.00,4333.68255,N,00128.72678,E,1,05,2.47,168.9,M,53.8,M,,*44
150 10 41 03 4333.6834500128.72718168.8ó 00128.72718 168.8 1101100001 1101000000 1100000100 100 111111000 101001000001 100110010001 111111111111 10010000101 1101100110 1011101011 1100000111 100 111111001 101101101100 101100111011 110101101101 10010011011 24.500 49.859 1000.0 151208 16 14 14 58 51 4 $GNGGA,104103.00,4333.68345,N,00128.72718,E,1,05,2.47,168.8,M,53.8,M,,*43
151 10 41 04 4333.6832100128.72656168.7ó 00128.72656 168.7 1101100001 1100111011 1100001000 100 111111010 101001000000 100110001000 111111111111 10001101010 1101100110 1011101100 1100000110 100 1000000000 101101011100 101100110100 110100011101 10010010001 24.500 49.759 1000.1 152209 17 15 14 60 51 3 $GNGGA,104104.00,4333.68321,N,00128.72656,E,1,05,2.47,168.7,M,53.8,M,,*42
152 10 41 05 4333.6827700128.72654168.7ó 00128.72654 168.7 1101100001 1100111001 1100000110 100 1000000001 101000111101 100101111110 111111111111 10001010110 1101100110 1011101101 1100000110 100 1000000010 101101010101 101100100111 110011010001 10010010011 24.500 49.759 1000.1 153208 16 15 15 59 51 3 $GNGGA,104105.00,4333.68277,N,00128.72654,E,1,05,2.47,168.7,M,53.8,M,,*43
153 10 41 06 4333.6834900128.72707168.6ó 00128.72707 168.6 1101100001 1100110010 1100000110 100 1000000000 101000111010 100101111000 111111111111 10000111000 1101100110 1011101111 1100000110 100 1000000111 101101001110 101100011000 110010010001 10010011100 24.438 49.752 1000.1 154207 17 15 13 59 51 4 $GNGGA,104106.00,4333.68349,N,00128.72707,E,1,05,2.47,168.6,M,53.8,M,,*4A
154 10 41 07 4333.6834300128.72760168.5ó 00128.72760 168.5 1101100001 1100101110 1100000110 101 1000000101 101000110110 100101101111 111111111111 10000101101 1101100110 1011110010 1100001001 100 1000001011 101101000010 101100001110 110001010010 10010001111 24.500 49.714 1000.1 155206 17 15 14 60 51 3 $GNGGA,104107.00,4333.68343,N,00128.72760,E,1,05,2.47,168.5,M,53.8,M,,*43
155 10 41 08 4333.6834400128.72748168.4ó 00128.72748 168.4 1101100001 1100101001 1100000101 100 1000001011 101000101100 100101101000 111111111111 10000101100 1101100110 1011110110 1100000110 100 1000001100 101100110101 101100000001 110000010111 10010010101 24.500 49.653 1000.0 156205 17 15 13 59 50 5 $GNGGA,104108.00,4333.68344,N,00128.72748,E,1,05,2.47,168.4,M,53.8,M,,*40
156 10 41 09 4333.6830400128.72768168.3ó 00128.72768 168.3 1101100001 1100100011 1100000011 100 1000001101 101000100000 100101010110 111111111111 10000100001 1101100110 1011110011 1100000101 100 1000010001 101100101100 101011111001 101111100110 10010001111 24.500 49.592 1000.0 157204 17 14 13 59 51 4 $GNGGA,104109.00,4333.68304,N,00128.72768,E,1,04,2.86,168.3,M,53.8,M,,*4C
157 10 41 10 4333.6829300128.72820168.2ó 00128.72820 168.2 1101100001 1100100001 1100000011 101 1000010010 101000011101 100101001101 111111111111 10000100010 1101100110 1011111010 1100000101 100 1000010011 101100011111 101011101100 101110101110 10010001001 24.500 49.538 1000.0 158201 16 15 15 59 51 3 $GNGGA,104110.00,4333.68293,N,00128.72820,E,1,04,2.86,168.2,M,53.8,M,,*49
158 10 41 11 4333.6833100128.72817168.2ó 00128.72817 168.2 1101100001 1100011101 1100000110 100 1000010011 101000010000 100101001011 111111111111 10000011010 1101100110 1011111011 1100001000 100 1000011101 101100010111 101011100101 101101111010 10010001001 24.500 49.492 1000.0 159202 16 15 14 59 52 3 $GNGGA,104111.00,4333.68331,N,00128.72817,E,1,04,2.86,168.2,M,53.8,M,,*45
159 10 41 12 4333.6833900128.72825168.0ó 00128.72825 168.0 1101100001 1100011100 1100000110 100 1000010101 101000001101 100100111110 111111111111 10000010100 1101100110 1011111100 1100000111 100 1000011010 101100001111 101011011011 101101001011 10010001101 24.500 49.477 1000.0 160200 17 14 13 59 51 4 $GNGGA,104112.00,4333.68339,N,00128.72825,E,1,04,2.86,168.0,M,53.8,M,,*4D
160 10 41 13 4333.6837300128.72829167.9ó 00128.72829 167.9 1101100001 1100011010 1100000011 100 1000010111 101000001000 100101000000 111111111111 10000010010 1101100110 1100000001 1100001001 100 1000100010 101100000011 101011001110 101100100000 10010001011 24.438 49.500 1000.0 161200 17 15 13 59 50 5 $GNGGA,104113.00,4333.68373,N,00128.72829,E,1,04,2.86,167.9,M,53.8,M,,*48
161 10 41 14 4333.6838800128.72863167.7ó 00128.72863 167.7 1101100001 1100011011 1100000110 100 1000011010 100111111000 100100101111 111111111111 10000010110 1101100110 1011111111 1100000101 100 1000100101 101011111000 101010111111 101011110101 10010000010 24.500 49.477 1000.0 162199 17 14 13 59 51 4 $GNGGA,104114.00,4333.68388,N,00128.72863,E,1,04,2.86,167.7,M,53.8,M,,*4B
162 10 41 15 4333.6837300128.72894167.5ó 00128.72894 167.5 1101100001 1100010110 1100000100 100 1000011100 100111101101 100100011111 111111111111 10000010010 1101100110 1100000000 1100000111 100 1000100110 101011101011 101010111000 101011010100 10010000100 24.500 49.477 1000.0 163197 16 14 14 58 51 4 $GNGGA,104115.00,4333.68373,N,00128.72894,E,1,04,2.86,167.5,M,53.8,M,,*44
