id HH MM SS longitude latitude altitude adc_1_ch0 adc_1_ch1 adc_1_ch2 adc_1_ch3 adc_1_ch4 adc_1_ch5 adc_1_ch6 adc_1_ch7 adc_1_ch8 adc_2_ch0 adc_2_ch1 adc_2_ch2 adc_2_ch3 adc_2_ch4 adc_2_ch5 adc_2_ch6 adc_2_ch7 adc_2_ch8 temp hum pres t_prog t_gps t_split t_adc t_temp t_hum t_pres trame_gga
1 12 12 37 4333.6916900128.72033139.5ó 00128.72033 139.5 1101100100 1011110000 1100001110 1111100110 10000100111 1100011101 1101010100 10000010100 1100011000 1101101001 1010101110 1011011111 1111100101 10000100001 1100101010 1100010101 1100110001 1100011001 25.063 47.349 795.83 2532 17 16 14 60 51 3 $GNGGA,121237.00,4333.69169,N,00128.72033,E,1,04,3.45,139.5,M,53.8,M,,*48
2 12 12 38 4333.6911600128.71995139.9ó 00128.71995 139.9 1101100100 1011110000 1100001110 1111101010 10000101000 1100011011 1101010100 10000010010 1100011010 1101101010 1010101011 1011011110 1111100110 10000100001 1100101111 1100011010 1100101010 1100010000 25.063 47.303 999.69 3532 17 14 14 59 50 4 $GNGGA,121238.00,4333.69116,N,00128.71995,E,1,04,3.45,139.9,M,53.8,M,,*45
3 12 12 39 4333.6911400128.71962140.1ó 00128.71962 140.1 1101100100 1011101111 1100001101 1111100110 10000100111 1100011000 1101010001 10000010111 1100010111 1101101001 1010101101 1011100000 1111100101 10000011110 1100101011 1100010010 1100111000 1100011100 25.063 47.364 999.71 4532 16 16 14 59 52 3 $GNGGA,121239.00,4333.69114,N,00128.71962,E,1,04,3.45,140.1,M,53.8,M,,*48
4 12 12 40 4333.6909500128.71967140.1ó 00128.71967 140.1 1101100100 1011110001 1100001110 1111100010 10000100111 1100011101 1101010011 10000011010 1100011001 1101101010 1010101110 1011100001 1111101100 10000100001 1100100110 1100011000 1100101000 1100010010 25.125 47.432 999.68 5530 17 15 14 60 51 3 $GNGGA,121240.00,4333.69095,N,00128.71967,E,1,04,3.45,140.1,M,53.8,M,,*4B
5 12 12 41 4333.6904100128.72007140.3ó 00128.72007 140.3 1101100100 1011101111 1100001101 1111100001 10000100110 1100011010 1101010010 10000010010 1100100100 1101101010 1010101011 1011011111 1111100110 10000100001 1100101110 1100011011 1100100110 1100010100 25.063 47.593 999.68 6530 17 15 13 59 50 5 $GNGGA,121241.00,4333.69041,N,00128.72007,E,1,04,3.45,140.3,M,53.8,M,,*4D
6 12 12 42 4333.6904600128.71906140.8ó 00128.71906 140.8 1101100100 1011110000 1100010000 1111100110 10000101011 1100011111 1101010100 10000010000 1100100100 1101101001 1010101100 1011011101 1111100101 10000100010 1100101101 1100010110 1100100111 1100010110 25.125 47.631 999.69 7528 17 15 14 60 51 3 $GNGGA,121242.00,4333.69046,N,00128.71906,E,1,04,3.45,140.8,M,53.8,M,,*49
7 12 12 43 4333.6907700128.71868141.0ó 00128.71868 141.0 1101100100 1011101101 1100001100 1111100101 10000101010 1100011101 1101010001 10000001001 1100011101 1101101001 1010101101 1011011110 1111101001 10000100010 1100100110 1100010101 1100101101 1100011010 25.063 47.616 999.70 8527 17 15 14 59 50 4 $GNGGA,121243.00,4333.69077,N,00128.71868,E,1,04,3.45,141.0,M,53.8,M,,*4A
8 12 12 44 4333.6906500128.71908141.0ó 00128.71908 141.0 1101100100 1011101111 1100001101 1111100111 10000101000 1100011101 1101010100 10000010000 1100100001 1101101001 1010101011 1011011111 1111100010 10000100001 1100101000 1100011001 1100101000 1100011010 25.063 47.600 999.70 9525 17 16 13 59 51 4 $GNGGA,121244.00,4333.69065,N,00128.71908,E,1,04,3.45,141.0,M,53.8,M,,*49
9 12 12 45 4333.6903600128.71826141.6ó 00128.71826 141.6 1101100100 1011110000 1100010000 1111100101 10000101100 1100011000 1101010000 10000010110 1100011111 1101101001 1010101101 1011100010 1111100111 10000100001 1100100111 1100010110 1100101110 1100011001 25.063 47.593 999.70 10524 17 14 13 60 50 4 $GNGGA,121245.00,4333.69036,N,00128.71826,E,1,04,3.45,141.6,M,53.8,M,,*45
10 12 12 46 4333.6901300128.71802141.5ó 00128.71802 141.5 1101100100 1011101110 1100001110 1111101000 10000101001 1100011011 1101010101 10000010100 1100100001 1101101010 1010101111 1011011111 1111100101 10000100010 1100101101 1100010111 1100110011 1100011010 25.063 47.593 999.72 11524 16 15 13 58 51 5 $GNGGA,121246.00,4333.69013,N,00128.71802,E,1,04,3.45,141.5,M,53.8,M,,*44
11 12 12 47 4333.6893500128.71802141.7ó 00128.71802 141.7 1101100100 1011110001 1100010010 1111101111 10000101010 1100011111 1101010011 10000001011 1100010101 1101101001 1010101110 1011100000 1111100100 10000100001 1100101001 1100011000 1100101101 1100010111 25.125 47.738 999.71 12522 17 14 13 60 50 4 $GNGGA,121247.00,4333.68935,N,00128.71802,E,1,04,3.45,141.7,M,53.8,M,,*4B
12 12 12 48 4333.6896200128.71822141.9ó 00128.71822 141.9 1101100100 1011110001 1100001111 1111100110 10000101000 1100011011 1101001111 10000010100 1100011111 1101101001 1010110010 1011100010 1111101011 10000100101 1100100111 1100011100 1100101011 1100011001 25.063 47.753 999.69 13521 16 14 14 59 50 4 $GNGGA,121248.00,4333.68962,N,00128.71822,E,1,04,3.45,141.9,M,53.8,M,,*4A
13 12 12 49 4333.6898700128.71838142.1ó 00128.71838 142.1 1101100100 1011110000 1100001100 1111101011 10000101010 1100100100 1101011000 10000010001 1100100111 1101101001 1010101110 1011011011 1111101001 10000100011 1100101011 1100010100 1100110100 1100011010 25.125 47.738 999.69 14521 16 16 14 60 50 4 $GNGGA,121249.00,4333.68987,N,00128.71838,E,1,04,3.45,142.1,M,53.8,M,,*40
14 12 12 50 4333.6902700128.71835142.4ó 00128.71835 142.4 1101100100 1011101111 1100010001 1111100011 10000101000 1100011011 1101010100 10000010001 1100100010 1101101001 1010101110 1011011111 1111100111 10000100010 1100101000 1100010110 1100101011 1100011010 25.063 47.768 999.69 15519 16 15 15 59 51 3 $GNGGA,121250.00,4333.69027,N,00128.71835,E,1,04,3.45,142.4,M,53.8,M,,*42
15 12 12 51 4333.6900700128.71771142.8ó 00128.71771 142.8 1101100100 1011101110 1100001111 1111100101 10000101000 1100100000 1101011011 10000010101 1100100011 1101101001 1010101100 1011100010 1111100011 10000100010 1100100111 1100010110 1100100111 1100011100 25.063 47.783 999.69 16519 17 16 13 59 51 4 $GNGGA,121251.00,4333.69007,N,00128.71771,E,1,04,3.45,142.8,M,53.8,M,,*42
16 12 12 52 4333.6902000128.71760142.7ó 00128.71760 142.7 1101100100 1011101111 1100001101 1111100111 10000101011 1100011111 1101011000 10000010011 1100011000 1101101001 1010101111 1011100000 1111101001 10000100010 1100101101 1100011000 1100110001 1100011100 25.125 47.806 999.70 17517 18 14 13 60 50 4 $GNGGA,121252.00,4333.69020,N,00128.71760,E,1,04,3.45,142.7,M,53.8,M,,*4B
17 12 12 53 4333.6902500128.71723143.1ó 00128.71723 143.1 1101100100 1011101110 1100001111 1111101001 10000101010 1100011111 1101001001 10000010100 1100100101 1101101010 1010101000 1011011100 1111100110 10000100001 1100100111 1100010111 1100101110 1100100001 25.125 47.791 999.71 18516 16 15 15 59 51 3 $GNGGA,121253.00,4333.69025,N,00128.71723,E,1,04,3.45,143.1,M,53.8,M,,*4F
18 12 12 54 4333.6905000128.71679143.2ó 00128.71679 143.2 1101100100 1011101101 1100001110 1111101110 10000101011 1100011101 1101010011 10000011011 1100100100 1101101010 1010101011 1011011111 1111100110 10000100011 1100100111 1100010001 1100101111 1100011001 25.063 47.852 999.70 19516 18 15 13 60 50 4 $GNGGA,121254.00,4333.69050,N,00128.71679,E,1,04,3.45,143.2,M,53.8,M,,*47
19 12 12 55 4333.6903500128.71738143.2ó 00128.71738 143.2 1101100100 1011110000 1100010000 1111101011 10000101010 1100011111 1101010111 10000010100 1100010110 1101101001 1010101100 1011100001 1111101001 10000100011 1100101000 1100011010 1100101100 1100010100 25.125 47.822 999.70 20513 16 15 15 59 51 3 $GNGGA,121255.00,4333.69035,N,00128.71738,E,1,04,3.45,143.2,M,53.8,M,,*41
20 12 12 56 4333.6903700128.71764143.2ó 00128.71764 143.2 1101100100 1011101111 1100001110 1111101011 10000101101 1100100001 1101011000 10000011000 1100100011 1101101001 1010101001 1011011100 1111100111 10000100000 1100101101 1100011001 1100100001 1100010100 25.063 47.837 999.70 21515 17 16 13 59 51 4 $GNGGA,121256.00,4333.69037,N,00128.71764,E,1,04,3.45,143.2,M,53.8,M,,*49
21 12 12 57 4333.6904700128.71796143.4ó 00128.71796 143.4 1101100100 1011101111 1100010000 1111101011 10000101001 1100010110 1101001010 10000010000 1100011000 1101101001 1010101010 1011011110 1111101001 10000100010 1100101110 1100010101 1100101100 1100011010 25.000 47.822 999.70 22514 17 15 14 60 51 3 $GNGGA,121257.00,4333.69047,N,00128.71796,E,1,04,3.46,143.4,M,53.8,M,,*47
22 12 12 58 4333.6906900128.71826143.3ó 00128.71826 143.3 1101100100 1011110001 1100001111 1111100110 10000101001 1100100001 1101010110 10000010000 1100010100 1101101010 1010101001 1011011110 1111100001 10000100000 1100110001 1100011110 1100100111 1100011011 25.125 47.745 999.70 23513 16 15 13 58 51 5 $GNGGA,121258.00,4333.69069,N,00128.71826,E,1,04,3.46,143.3,M,53.8,M,,*47
23 12 12 59 4333.6903700128.71862143.6ó 00128.71862 143.6 1101100100 1011101111 1100001100 1111101101 10000101011 1100011110 1101010110 10000010011 1100011100 1101101001 1010101001 1011011110 1111100110 10000100011 1100101001 1100010111 1100101010 1100010101 25.125 47.646 999.70 24511 17 14 13 59 51 4 $GNGGA,121259.00,4333.69037,N,00128.71862,E,1,04,3.46,143.6,M,53.8,M,,*48
24 12 13 00 4333.6904900128.71872143.3ó 00128.71872 143.3 1101100100 1011110010 1100010001 1111101100 10000101011 1100011100 1101010000 10000001100 1100011101 1101101001 1010101001 1011100010 1111100011 10000100010 1100101011 1100011010 1100110010 1100100000 25.000 47.600 999.71 25509 16 15 15 59 51 3 $GNGGA,121300.00,4333.69049,N,00128.71872,E,1,04,3.46,143.3,M,53.8,M,,*48
25 12 13 01 4333.6899900128.71938143.2ó 00128.71938 143.2 1101100100 1011110001 1100010010 1111101101 10000101101 1100011111 1101010101 10000001111 1100011011 1101101001 1010101001 1011100011 1111011011 10000100010 1100101000 1100011011 1100101100 1100011001 25.125 47.654 999.71 26508 17 15 13 59 51 4 $GNGGA,121301.00,4333.68999,N,00128.71938,E,1,04,3.46,143.2,M,53.8,M,,*42
26 12 13 02 4333.6903700128.71896143.2ó 00128.71896 143.2 1101100100 1011110000 1100001111 1111100110 10000101000 1100011001 1101010000 10000001001 1100011001 1101101001 1010101011 1011100001 1111011001 10000100000 1100101010 1100010101 1100101000 1100010100 25.125 47.761 999.71 27508 16 14 15 59 51 3 $GNGGA,121302.00,4333.69037,N,00128.71896,E,1,04,3.46,143.2,M,53.8,M,,*48
27 12 13 03 4333.6909500128.71851138.8ó 00128.71851 138.8 1101100100 1011110011 1100010010 1111100110 10000101000 1100011101 1101001110 10000000111 1100010100 1101101001 1010101001 1011011111 1111011001 10000100011 1100101100 1100010111 1100101111 1100011010 25.125 47.761 999.72 28508 16 15 13 59 51 4 $GNGGA,121303.00,4333.69095,N,00128.71851,E,1,03,5.59,138.8,M,53.8,M,,*43
28 12 13 04 4333.6904100128.71855138.8ó 00128.71855 138.8 1101100101 1011101111 1100001101 1111101010 10000101011 1100011011 1101010011 10000001110 1100011000 1101101010 1010101001 1011011111 1111010011 10000100011 1100101101 1100011101 1100110000 1100011000 25.125 47.715 999.71 29506 17 14 13 59 51 4 $GNGGA,121304.00,4333.69041,N,00128.71855,E,1,03,5.59,138.8,M,53.8,M,,*49
29 12 13 05 Nan Nan Nan 1101100100 1011101111 1100001111 1111100100 10000101000 1100011110 1101010011 10000001100 1100011111 1101101001 1010101001 1011100001 1111010101 10000100001 1100110011 1100011111 1100101000 1100010101 25.063 47.715 999.70 30494 17 7 11 60 51 3 $GNGGA,121305.00,,,,,0,00,24.5,,,,,,*4F
30 12 13 06 Nan Nan Nan 1101100100 1011110000 1100010001 1111100011 10000101000 1100011001 1101001110 10000010001 1100010011 1101101001 1010101001 1011011111 1111010110 10000100000 1100101001 1100011000 1100101011 1100011111 25.188 47.715 999.70 31492 16 8 10 58 51 5 $GNGGA,121306.00,,,,,0,00,24.5,,,,,,*4C
31 12 13 07 Nan Nan Nan 1101100100 1011110010 1100001111 1111100111 10000101011 1100011100 1101001110 10000010001 1100011100 1101101010 1010101100 1011100010 1111011000 10000100011 1100101011 1100010111 1100101010 1100100110 25.188 47.707 999.68 32492 17 7 10 60 51 4 $GNGGA,121307.00,,,,,0,00,24.4,,,,,,*4C
32 12 13 08 Nan Nan Nan 1101100100 1011101111 1100001110 1111101000 10000101001 1100011110 1101010100 10000010010 1100011000 1101101001 1010101110 1011100011 1111010011 10000100001 1100101110 1100011011 1100101001 1100011001 25.063 47.638 999.69 33491 16 7 12 59 51 3 $GNGGA,121308.00,,,,,0,00,24.4,,,,,,*43
33 12 13 09 Nan Nan Nan 1101100100 1011101111 1100010001 1111101000 10000101010 1100011100 1101010100 10000001110 1100011011 1101101001 1010100111 1011011110 1111011001 10000100001 1100100111 1100010001 1100110010 1100011110 25.125 47.493 999.70 34490 16 6 11 60 50 4 $GNGGA,121309.00,,,,,0,00,24.4,,,,,,*42
34 12 13 10 Nan Nan Nan 1101100100 1011101101 1100001110 1111101010 10000100111 1100011100 1101001111 10000001111 1100010011 1101101001 1010100101 1011011110 1111011100 10000100100 1100101000 1100010111 1100100110 1100011010 25.125 47.364 999.70 35489 18 7 10 58 51 4 $GNGGA,121310.00,,,,,0,00,24.4,,,,,,*4A
35 12 13 11 4333.6896100128.71630138.4ó 00128.71630 138.4 1101100100 1011101101 1100001110 1111100011 10000100100 1100100100 1101010011 10000010001 1100010111 1101101001 1010100111 1011100001 1111011010 10000100000 1100101001 1100011010 1100101001 1100100001 25.063 47.310 999.69 36500 17 15 14 60 50 4 $GNGGA,121311.00,4333.68961,N,00128.71630,E,1,05,1.72,138.4,M,53.8,M,,*4D
36 12 13 12 Nan Nan Nan 1101100100 1011101111 1100001110 1111100111 10000101000 1100011000 1101001100 10000010111 1100100101 1101101010 1010101011 1011011111 1111010110 10000100000 1100110000 1100011101 1100100101 1100011100 25.188 47.280 999.70 37487 17 7 11 60 51 3 $GNGGA,121312.00,,,,,0,00,24.3,,,,,,*4F
37 12 13 13 4333.6880300128.71532138.2ó 00128.71532 138.2 1101100100 1011110001 1100010000 1111100101 10000101001 1100011100 1101010101 10000001110 1100100011 1101101001 1010110000 1011100000 1111011100 10000100001 1100101110 1100011011 1100101000 1100011011 25.125 47.257 999.69 38496 16 16 14 59 52 3 $GNGGA,121313.00,4333.68803,N,00128.71532,E,1,05,1.72,138.2,M,53.8,M,,*4D
38 12 13 14 Nan Nan Nan 1101100100 1011110001 1100010001 1111100111 10000101101 1100011011 1101010000 10000001101 1100011011 1101101010 1010101101 1011100000 1111011000 10000100100 1100100100 1100010100 1100100111 1100011101 25.188 47.211 999.69 39486 17 7 10 59 51 4 $GNGGA,121314.00,,,,,0,00,24.2,,,,,,*48
39 12 13 15 Nan Nan Nan 1101100100 1011101111 1100001111 1111100001 10000101000 1100011011 1101010000 10000001100 1100011110 1101101010 1010101110 1011100000 1111011111 10000100010 1100101011 1100011000 1100101011 1100011000 25.188 47.196 999.70 40483 16 7 11 58 51 4 $GNGGA,121315.00,,,,,0,00,24.2,,,,,,*49
40 12 13 16 4333.6870300128.71647137.7ó 00128.71647 137.7 1101100100 1011110000 1100010000 1111100100 10000100111 1100011001 1101010111 10000000111 1100011010 1101101010 1010101110 1011100001 1111100011 10000100010 1100101100 1100010111 1100101000 1100011100 25.125 47.211 999.69 41494 17 14 13 59 51 4 $GNGGA,121316.00,4333.68703,N,00128.71647,E,1,05,1.72,137.7,M,53.8,M,,*4C
41 12 13 17 4333.6869300128.71635137.6ó 00128.71635 137.6 1101100100 1011101111 1100010000 1111100100 10000101010 1100011111 1101011010 10000001110 1100010101 1101101010 1010101101 1011100000 1111100011 10000100001 1100101100 1100010111 1100101001 1100011100 25.125 47.204 999.69 42491 17 15 14 59 50 4 $GNGGA,121317.00,4333.68693,N,00128.71635,E,1,05,1.72,137.6,M,53.8,M,,*41
42 12 13 18 4333.6870400128.71698137.4ó 00128.71698 137.4 1101100100 1011101110 1100001111 1111100100 10000101001 1100100010 1101011001 10000010010 1100011100 1101101001 1010101110 1011100000 1111101001 10000100010 1100101010 1100011000 1100101111 1100011100 25.063 47.173 999.69 43493 17 15 14 60 51 3 $GNGGA,121318.00,4333.68704,N,00128.71698,E,1,05,1.72,137.4,M,53.8,M,,*44
43 12 13 19 4333.6884100128.71706137.2ó 00128.71706 137.2 1101100100 1011101110 1100001110 1111101101 10000101111 1100100001 1101001111 10000010000 1100100000 1101101001 1010101101 1011011111 1111100001 10000100010 1100101111 1100011110 1100101101 1100010010 25.188 47.143 999.69 44491 16 14 14 58 51 4 $GNGGA,121319.00,4333.68841,N,00128.71706,E,1,05,1.72,137.2,M,53.8,M,,*4B
44 12 13 20 4333.6887500128.71763137.1ó 00128.71763 137.1 1101100100 1011101110 1100001110 1111100000 10000100110 1100010111 1101010100 10000010010 1100011011 1101101010 1010101100 1011100000 1111100010 10000100001 1100101100 1100010110 1100101100 1100010110 25.125 47.082 999.70 45490 16 15 13 58 52 4 $GNGGA,121320.00,4333.68875,N,00128.71763,E,1,05,1.72,137.1,M,53.8,M,,*46
45 12 13 21 4333.6885000128.71741137.1ó 00128.71741 137.1 1101100100 1011101111 1100001111 1111100000 10000101000 1100011001 1101010100 10000001010 1100010111 1101101001 1010101110 1011011110 1111100111 10000100001 1100101011 1100100000 1100101101 1100011010 25.063 46.990 999.69 46489 17 15 14 60 51 3 $GNGGA,121321.00,4333.68850,N,00128.71741,E,1,05,1.72,137.1,M,53.8,M,,*40
46 12 13 22 4333.6884200128.71669137.0ó 00128.71669 137.0 1101100100 1011101110 1100010000 1111100111 10000101100 1100011101 1101010100 10000010010 1100011100 1101101001 1010101111 1011100001 1111011101 10000011110 1100101011 1100010110 1100101110 1100011000 25.125 46.952 999.70 47488 16 15 14 59 50 4 $GNGGA,121322.00,4333.68842,N,00128.71669,E,1,05,1.72,137.0,M,53.8,M,,*4A
47 12 13 23 4333.6884800128.71601136.9ó 00128.71601 136.9 1101100100 1011110001 1100010000 1111101100 10000101101 1100011001 1101001110 10000001110 1100011010 1101101010 1010101001 1011011110 1111100101 10000100000 1100101111 1100011100 1100110010 1100100011 25.063 46.921 999.70 48487 17 15 14 60 51 3 $GNGGA,121323.00,4333.68848,N,00128.71601,E,1,05,1.72,136.9,M,53.8,M,,*47
48 12 13 24 4333.6880500128.71624136.8ó 00128.71624 136.8 1101100100 1011101110 1100001111 1111100000 10000100110 1100011011 1101010000 10000010111 1100011110 1101101010 1010101001 1011011101 1111100011 10000100100 1100101011 1100011011 1100110001 1100011000 25.063 46.830 999.70 49484 16 15 15 59 51 3 $GNGGA,121324.00,4333.68805,N,00128.71624,E,1,05,1.72,136.8,M,53.8,M,,*4F
49 12 13 25 4333.6870400128.71661136.7ó 00128.71661 136.7 1101100100 1011101100 1100001101 1111101001 10000101100 1100011000 1101001111 10000001110 1100010111 1101101001 1010101101 1011100010 1111101011 10000100101 1100101110 1100010011 1100101100 1100001111 25.000 46.715 999.70 50485 16 15 13 58 52 4 $GNGGA,121325.00,4333.68704,N,00128.71661,E,1,05,1.72,136.7,M,53.8,M,,*4E
50 12 13 26 4333.6870800128.71706136.5ó 00128.71706 136.5 1101100100 1011101100 1100001100 1111100000 10000101001 1100011101 1101010001 10000001001 1100011010 1101101001 1010110001 1011100011 1111011111 10000100001 1100101001 1100010111 1100101001 1100010001 25.000 46.631 999.71 51483 17 14 13 59 51 4 $GNGGA,121326.00,4333.68708,N,00128.71706,E,1,05,1.72,136.5,M,53.8,M,,*43
51 12 13 27 4333.6868800128.71706136.5ó 00128.71706 136.5 1101100100 1011101111 1100001111 1111100111 10000101011 1100011001 1101010010 10000001010 1100011101 1101101010 1010101011 1011011110 1111100000 10000100001 1100101100 1100010101 1100101000 1100010110 25.063 46.578 999.72 52484 16 15 13 58 51 5 $GNGGA,121327.00,4333.68688,N,00128.71706,E,1,05,1.72,136.5,M,53.8,M,,*4B
52 12 13 28 4333.6871700128.71762136.3ó 00128.71762 136.3 1101100100 1011101111 1100001111 1111101001 10000101011 1100100000 1101010000 10000001110 1100100001 1101101001 1010101011 1011011110 1111011100 10000100010 1100101110 1100011011 1100101100 1100010010 25.000 46.502 999.70 53482 17 14 13 59 51 4 $GNGGA,121328.00,4333.68717,N,00128.71762,E,1,05,1.72,136.3,M,53.8,M,,*47
53 12 13 29 4333.6873300128.71861136.2ó 00128.71861 136.2 1101100100 1011110010 1100010001 1111101010 10000101011 1100011111 1101010110 10000010100 1100011111 1101101001 1010100111 1011011111 1111011001 10000100100 1100110010 1100011011 1100100101 1100010011 25.063 46.433 999.71 54480 16 14 14 58 51 4 $GNGGA,121329.00,4333.68733,N,00128.71861,E,1,05,1.72,136.2,M,53.8,M,,*4D
54 12 13 30 4333.6887700128.71940136.2ó 00128.71940 136.2 1101100100 1011110001 1100001110 1111101001 10000101010 1100011110 1101010010 10000010001 1100011001 1101101001 1010101101 1011011111 1111100011 10000100100 1100101011 1100010111 1100101011 1100011011 25.125 46.380 999.70 55480 16 16 14 59 52 3 $GNGGA,121330.00,4333.68877,N,00128.71940,E,1,05,1.72,136.2,M,53.8,M,,*48
55 12 13 31 4333.6881900128.71947136.1ó 00128.71947 136.1 1101100100 1011101100 1100001010 1111100100 10000101000 1100011011 1101010111 10000010101 1100011110 1101101001 1010101100 1011011110 1111100000 10000100001 1100110010 1100011110 1100100110 1100010001 25.063 46.349 999.71 56478 17 15 14 60 51 3 $GNGGA,121331.00,4333.68819,N,00128.71947,E,1,05,1.72,136.1,M,53.8,M,,*45
56 12 13 32 Nan Nan Nan 1101100100 1011110000 1100001101 1111100110 10000101011 1100011100 1101010001 10000010110 1100011100 1101101010 1010101011 1011100000 1111100010 10000100010 1100101100 1100011001 1100101110 1100001110 25.125 46.364 999.70 57465 17 7 11 59 50 4 $GNGGA,121332.00,,,,,0,00,23.7,,,,,,*4E
57 12 13 33 Nan Nan Nan 1101100100 1011101111 1100001111 1111011110 10000100111 1100011011 1101010000 10000010000 1100011000 1101101010 1010110000 1011100100 1111100100 10000100010 1100101011 1100010111 1100100100 1100001100 25.125 46.448 999.69 58466 16 7 11 59 52 3 $GNGGA,121333.00,,,,,0,00,23.7,,,,,,*4F
58 12 13 34 Nan Nan Nan 1101100100 1011101111 1100010001 1111100001 10000101001 1100011110 1101011010 10000010000 1100011011 1101101001 1010110000 1011100001 1111100111 10000100001 1100101010 1100011001 1100101111 1100011001 25.125 46.540 999.69 59464 17 7 11 60 51 3 $GNGGA,121334.00,,,,,0,00,23.6,,,,,,*49
59 12 13 35 Nan Nan Nan 1101100100 1011101111 1100010000 1111100101 10000101011 1100011101 1101010100 10000010010 1100101000 1101101001 1010101110 1011100001 1111110000 10000100101 1100101010 1100010111 1100110000 1100011010 25.125 46.593 999.69 60461 16 8 10 58 51 5 $GNGGA,121335.00,,,,,0,00,23.6,,,,,,*48
60 12 13 36 Nan Nan Nan 1101100100 1011101101 1100001110 1111101010 10000101100 1100011100 1101010011 10000010010 1100011111 1101101001 1010101111 1011011111 1111101010 10000100011 1100101001 1100011010 1100110000 1100011000 25.063 46.525 999.69 61462 18 7 10 59 51 4 $GNGGA,121336.00,,,,,0,00,23.6,,,,,,*4B
61 12 13 37 Nan Nan Nan 1101100100 1011101101 1100001100 1111100101 10000101100 1100011011 1101010110 10000010001 1100011001 1101101010 1010101110 1011100010 1111101000 10000100001 1100100111 1100010010 1100101001 1100010100 25.063 46.448 999.69 62460 17 7 11 58 51 4 $GNGGA,121337.00,,,,,0,00,23.6,,,,,,*4A
62 12 13 38 Nan Nan Nan 1101100100 1011101011 1100001011 1111100001 10000101000 1100100000 1101010111 10000010011 1100100011 1101101001 1010101001 1011011111 1111101000 10000100000 1100101001 1100011010 1100101101 1100011000 25.063 46.319 999.68 63460 17 7 10 59 51 4 $GNGGA,121338.00,,,,,0,00,23.5,,,,,,*46
63 12 13 39 Nan Nan Nan 1101100100 1011101110 1100001110 1111011100 10000100010 1100011001 1101010011 10000010000 1100011000 1101101001 1010101101 1011011101 1111101000 10000100011 1100101010 1100010101 1100100100 1100001110 25.063 46.227 999.69 64459 17 7 11 59 51 3 $GNGGA,121339.00,,,,,0,00,23.5,,,,,,*47
64 12 13 40 Nan Nan Nan 1101100100 1011110001 1100001111 1111101000 10000101011 1100011011 1101010000 10000010000 1100100110 1101101010 1010101110 1011011111 1111101010 10000100000 1100101011 1100010111 1100101000 1100010110 25.063 46.242 999.69 65460 16 7 11 59 51 4 $GNGGA,121340.00,,,,,0,00,23.5,,,,,,*49
65 12 13 41 Nan Nan Nan 1101100100 1011110001 1100010000 1111101000 10000101010 1100011110 1101010011 10000001101 1100010111 1101101010 1010101111 1011011111 1111101110 10000100100 1100100010 1100001101 1100101110 1100011000 25.063 46.387 999.68 66456 17 7 11 60 51 3 $GNGGA,121341.00,,,,,0,00,99.9,,,,,,*45
66 12 13 42 Nan Nan Nan 1101100100 1011110001 1100001111 1111101010 10000101011 1100011011 1101010101 10000001111 1100011001 1101101001 1010110000 1011100001 1111101001 10000100000 1100101100 1100011111 1100110010 1100011101 25.063 46.471 999.68 67457 17 8 11 59 50 4 $GNGGA,121342.00,,,,,0,00,23.4,,,,,,*4A
67 12 13 43 Nan Nan Nan 1101100100 1011110001 1100010010 1111100010 10000101000 1100011010 1101001111 10000010101 1100101001 1101101010 1010101110 1011100000 1111101011 10000100010 1100101001 1100010101 1100101100 1100010111 25.063 46.502 999.66 68455 17 7 11 60 51 3 $GNGGA,121343.00,,,,,0,00,23.4,,,,,,*4B
68 12 13 44 Nan Nan Nan 1101100100 1011110000 1100010001 1111100011 10000101001 1100011101 1101010010 10000010000 1100011111 1101101001 1010101111 1011100001 1111101101 10000100100 1100100111 1100011000 1100101000 1100010111 25.063 46.532 999.66 69453 16 7 12 59 51 3 $GNGGA,121344.00,,,,,0,00,23.4,,,,,,*4C
69 12 13 45 Nan Nan Nan 1101100100 1011110000 1100001110 1111100111 10000101011 1100100000 1101010101 10000010111 1100100100 1101101010 1010101101 1011011111 1111110010 10000100011 1100101011 1100011001 1100101010 1100011010 25.063 46.601 999.66 70454 16 7 11 59 51 4 $GNGGA,121345.00,,,,,0,00,23.3,,,,,,*4A
70 12 13 46 4333.6915200128.73008136.1ó 00128.73008 136.1 1101100100 1011110010 1100010000 1111100110 10000101010 1100100000 1101010111 10000010001 1100011010 1101101010 1010101111 1011011111 1111110010 10000100011 1100101010 1100010100 1100101101 1100010100 25.063 46.662 999.66 71461 17 15 14 59 50 4 $GNGGA,121346.00,4333.69152,N,00128.73008,E,1,05,1.72,136.1,M,53.8,M,,*42
71 12 13 47 Nan Nan Nan 1101100100 1011110010 1100010000 1111100110 10000101011 1100100101 1101010100 10000001111 1100011101 1101101010 1010110000 1011100011 1111110110 10000100011 1100101100 1100010101 1100101010 1100100001 25.125 46.692 999.67 72451 17 7 10 59 50 5 $GNGGA,121347.00,,,,,0,00,23.3,,,,,,*48
72 12 13 48 Nan Nan Nan 1101100100 1011101101 1100001111 1111101001 10000101011 1100011111 1101010101 10000011011 1100100100 1101101001 1010101110 1011100010 1111110101 10000100011 1100100110 1100010110 1100100111 1100010100 25.125 46.708 999.66 73449 18 7 10 59 51 4 $GNGGA,121348.00,,,,,0,00,23.2,,,,,,*46
73 12 13 49 Nan Nan Nan 1101100100 1011101111 1100001110 1111101011 10000101000 1100011101 1101010001 10000010010 1100011110 1101101010 1010101101 1011011100 1111110100 10000100011 1100101101 1100011000 1100110011 1100100010 25.125 46.723 999.67 74448 17 7 11 58 51 4 $GNGGA,121349.00,,,,,0,00,23.2,,,,,,*47
74 12 13 50 Nan Nan Nan 1101100100 1011110001 1100001111 1111101111 10000101110 1100011101 1101010101 10000011000 1100100011 1101101001 1010110000 1011100001 1111110010 10000100100 1100100111 1100011010 1100101011 1100010110 25.125 46.753 999.67 75448 16 7 11 58 52 3 $GNGGA,121350.00,,,,,0,00,23.2,,,,,,*4F
75 12 13 51 Nan Nan Nan 1101100100 1011110001 1100010000 1111101011 10000101000 1100011111 1101001101 10000001110 1100011100 1101101001 1010101011 1011011101 1111110011 10000100010 1100101100 1100011000 1100101001 1100011110 25.125 46.746 999.67 76446 18 7 10 58 51 4 $GNGGA,121351.00,,,,,0,00,23.2,,,,,,*4E
76 12 13 52 Nan Nan Nan 1101100100 1011110000 1100001101 1111101000 10000101110 1100011011 1101010011 10000010000 1100010111 1101101001 1010101011 1011011111 1111101000 10000011111 1100101011 1100011010 1100101000 1100011011 25.125 46.700 999.68 77446 17 8 10 58 52 4 $GNGGA,121352.00,,,,,0,00,23.1,,,,,,*4E
77 12 13 53 Nan Nan Nan 1101100100 1011110010 1100001111 1111100110 10000101010 1100011111 1101001110 10000010010 1100011001 1101101001 1010110000 1011100011 1111101110 10000100110 1100101100 1100011100 1100101111 1100001111 25.063 46.647 999.67 78442 17 7 11 60 51 3 $GNGGA,121353.00,,,,,0,00,23.1,,,,,,*4F
78 12 13 54 Nan Nan Nan 1101100100 1011110010 1100010000 1111101100 10000101100 1100011001 1101001110 10000001111 1100010110 1101101001 1010101111 1011100010 1111101101 10000100011 1100100110 1100010110 1100110000 1100011011 25.063 46.616 999.67 79443 16 7 12 59 51 3 $GNGGA,121354.00,,,,,0,00,23.1,,,,,,*48
79 12 13 55 Nan Nan Nan 1101100100 1011101100 1100001100 1111101110 10000101000 1100011011 1101010000 10000001100 1100010101 1101101010 1010101000 1011011101 1111100110 10000011111 1100101011 1100011010 1100110001 1100011101 25.125 46.578 999.66 80442 17 7 10 60 50 4 $GNGGA,121355.00,,,,,0,00,23.1,,,,,,*49
80 12 13 56 Nan Nan Nan 1101100100 1011110001 1100001111 1111100011 10000100111 1100011100 1101010010 10000001001 1100011000 1101101001 1010101100 1011011111 1111101001 10000100100 1100100111 1100010111 1100101101 1100011101 25.125 46.540 999.67 81441 17 7 11 59 51 3 $GNGGA,121356.00,,,,,0,00,23.0,,,,,,*4B
81 12 13 57 Nan Nan Nan 1101100100 1011110001 1100001111 1111101110 10000101001 1100011000 1101010101 10000001000 1100011001 1101101001 1010101110 1011011111 1111101010 10000100000 1100101001 1100011000 1100100111 1100011001 25.063 46.502 999.67 82440 16 7 11 59 52 3 $GNGGA,121357.00,,,,,0,00,23.0,,,,,,*4A
82 12 13 58 4333.6945200128.74189137.3ó 00128.74189 137.3 1101100100 1011101111 1100001101 1111100110 10000101010 1100011000 1101001011 10000001010 1100010111 1101101001 1010110000 1011100000 1111101110 10000100011 1100100111 1100010111 1100101110 1100011001 25.125 46.479 999.68 83450 16 14 15 59 51 3 $GNGGA,121358.00,4333.69452,N,00128.74189,E,1,03,9.43,137.3,M,53.8,M,,*48
83 12 13 59 Nan Nan Nan 1101100100 1011101110 1100001101 1111100111 10000100101 1100010110 1101010000 10000001001 1100010010 1101101010 1010110001 1011011111 1111101101 10000100000 1100110001 1100011010 1100110101 1100011100 25.063 46.486 999.67 84439 16 8 11 58 51 4 $GNGGA,121359.00,,,,,0,00,22.9,,,,,,*4C
84 12 14 00 Nan Nan Nan 1101100100 1011110010 1100010000 1111101001 10000101001 1100011011 1101010001 10000001100 1100010010 1101101001 1010101101 1011100000 1111110000 10000100100 1100100110 1100010110 1100101110 1100010101 25.063 46.494 999.68 85438 18 7 10 59 51 4 $GNGGA,121400.00,,,,,0,00,22.9,,,,,,*47
85 12 14 01 Nan Nan Nan 1101100100 1011110000 1100010001 1111100000 10000100110 1100100000 1101011000 10000001100 1100010011 1101101010 1010101111 1011100001 1111101011 10000100010 1100101000 1100010101 1100110000 1100010110 25.063 46.479 999.69 86437 16 7 12 59 50 4 $GNGGA,121401.00,,,,,0,00,22.9,,,,,,*46
86 12 14 02 4333.6915400128.74159137.6ó 00128.74159 137.6 1101100100 1011110000 1100010000 1111101010 10000101000 1100010100 1101001101 10000001010 1100011010 1101101001 1010110010 1011100010 1111101100 10000100010 1100100101 1100010100 1100100100 1100001111 25.063 46.456 999.69 87447 18 15 13 60 50 4 $GNGGA,121402.00,4333.69154,N,00128.74159,E,1,05,6.28,137.6,M,53.8,M,,*4F
87 12 14 03 4333.6912700128.74049137.7ó 00128.74049 137.7 1101100100 1011110000 1100001110 1111100111 10000101001 1100011101 1101010001 10000010010 1100100111 1101101010 1010101110 1011011111 1111101000 10000100001 1100101111 1100011100 1100101011 1100011011 25.063 46.441 999.70 88445 16 14 14 58 51 4 $GNGGA,121403.00,4333.69127,N,00128.74049,E,1,05,6.28,137.7,M,53.8,M,,*4B
88 12 14 04 4333.6920300128.74033137.8ó 00128.74033 137.8 1101100100 1011101101 1100001110 1111100001 10000101001 1100011011 1101010010 10000001111 1100100001 1101101001 1010110000 1011100001 1111101101 10000100011 1100110000 1100011101 1100101000 1100011110 25.125 46.410 999.70 89443 16 16 14 59 52 3 $GNGGA,121404.00,4333.69203,N,00128.74033,E,1,05,6.28,137.8,M,53.8,M,,*4B
89 12 14 05 4333.6910900128.74001137.9ó 00128.74001 137.9 1101100100 1011101110 1100010000 1111101001 10000101100 1100011100 1101010100 10000001111 1100011111 1101101010 1010101111 1011100000 1111101001 10000100011 1100101000 1100011100 1100100111 1100010000 25.063 46.402 999.70 90443 16 14 14 58 51 4 $GNGGA,121405.00,4333.69109,N,00128.74001,E,1,05,6.28,137.9,M,53.8,M,,*43
90 12 14 06 4333.6909200128.74015138.0ó 00128.74015 138.0 1101100100 1011101110 1100001101 1111100101 10000101001 1100011011 1101010010 10000001010 1100010100 1101101001 1010101011 1011011111 1111101100 10000100010 1100101101 1100011001 1100110100 1100100001 25.125 46.387 999.68 91442 16 15 13 58 52 4 $GNGGA,121406.00,4333.69092,N,00128.74015,E,1,04,12.7,138.0,M,53.8,M,,*49
91 12 14 07 4333.6912000128.74072138.0ó 00128.74072 138.0 1101100100 1011101111 1100001110 1111101110 10000101100 1100010111 1101001101 10000000101 1100010011 1101101001 1010101110 1011100001 1111101010 10000100001 1100101000 1100011000 1100101001 1100011001 25.125 46.380 999.69 92442 17 14 13 60 51 4 $GNGGA,121407.00,4333.69120,N,00128.74072,E,1,05,6.28,138.0,M,53.8,M,,*48
