id HH MM SS longitude latitude altitude adc_1_ch0 adc_1_ch1 adc_1_ch2 adc_1_ch3 adc_1_ch4 adc_1_ch5 adc_1_ch6 adc_1_ch7 adc_1_ch8 adc_2_ch0 adc_2_ch1 adc_2_ch2 adc_2_ch3 adc_2_ch4 adc_2_ch5 adc_2_ch6 adc_2_ch7 adc_2_ch8 temp hum pres t_prog t_gps t_split t_adc t_temp t_hum t_pres trame_gga
1 12 14 24 4333.6909700128.73536137.1ó 00128.73536 137.1 110110 1000000 0 110110 1000000 0 110110 1000000 0 1101101010 1010101100 1011011110 1111101011 10000100100 1100101010 1100011000 1100101111 1100011111 25.125 46.685 795.83 3099 17 15 13 60 50 4 $GNGGA,121424.00,4333.69097,N,00128.73536,E,1,04,12.5,137.1,M,53.8,M,,*43
2 12 14 25 4333.6898800128.73421137.3ó 00128.73421 137.3 0 0 0 110110 1000000 0 110110 1000000 0 1101101001 1010101111 1011100001 1111101111 10000100100 1100101011 1100010111 1100100111 1100010100 25.125 46.723 999.71 4098 16 15 13 59 50 5 $GNGGA,121425.00,4333.68988,N,00128.73421,E,1,05,1.86,137.3,M,53.8,M,,*49
3 12 14 26 4333.6902300128.73401137.5ó 00128.73401 137.5 0 0 0 110110 1000000 0 110110 1000000 0 1101101010 1010101111 1011100000 1111101000 10000100100 1100100100 1100010100 1100101100 1100011101 25.125 46.753 999.70 5095 17 15 14 60 51 3 $GNGGA,121426.00,4333.69023,N,00128.73401,E,1,05,1.85,137.5,M,53.8,M,,*44
4 12 14 27 4333.6905300128.73448137.6ó 00128.73448 137.6 0 0 0 110110 1000000 0 110110 1000000 0 1101101001 1010101110 1011011110 1111101011 10000100100 1100101011 1100011001 1100100110 1100011011 25.063 46.776 999.70 6096 15 15 15 59 51 3 $GNGGA,121427.00,4333.69053,N,00128.73448,E,1,05,1.85,137.6,M,53.8,M,,*4C
5 12 14 28 4333.6905900128.73512137.5ó 00128.73512 137.5 0 0 0 110110 1000000 0 110110 1000000 0 1101101001 1010110001 1011100001 1111101100 10000100100 1100101110 1100011010 1100100110 1100010111 25.188 46.799 999.70 7093 16 15 13 58 52 4 $GNGGA,121428.00,4333.69059,N,00128.73512,E,1,05,1.85,137.5,M,53.8,M,,*44
6 12 14 29 4333.6896100128.73549137.3ó 00128.73549 137.3 0 0 0 110110 1000000 0 110110 1000000 0 1101101010 1010110010 1011100011 1111100100 10000100010 1100101011 1100011101 1100101010 1100010100 25.125 46.814 999.71 8093 17 15 13 60 50 4 $GNGGA,121429.00,4333.68961,N,00128.73549,E,1,05,1.85,137.3,M,53.8,M,,*4E
7 12 14 30 4333.6893000128.73557137.1ó 00128.73557 137.1 0 0 0 110110 1000000 0 110110 1000000 0 1101101001 1010110010 1011100010 1111101011 10000100010 1100101010 1100010110 1100101101 1100011010 25.188 46.853 999.70 9092 16 15 13 58 51 5 $GNGGA,121430.00,4333.68930,N,00128.73557,E,1,05,1.85,137.1,M,53.8,M,,*4F
8 12 14 31 4333.6890600128.73490136.9ó 00128.73490 136.9 0 0 0 110110 1000000 0 110110 1000000 0 1101101010 1010101111 1011100000 1111100011 10000100001 1100101110 1100011111 1100101100 1100011000 25.125 46.891 999.70 10091 17 15 14 60 51 3 $GNGGA,121431.00,4333.68906,N,00128.73490,E,1,05,1.85,136.9,M,53.8,M,,*48
9 12 14 32 4333.6888500128.73434136.7ó 00128.73434 136.7 0 0 0 110110 1000000 0 110110 1000000 0 1101101001 1010110001 1011100001 1111100011 10000100001 1100101010 1100011011 1100101011 1100010001 25.063 46.921 999.71 11089 16 14 14 58 51 4 $GNGGA,121432.00,4333.68885,N,00128.73434,E,1,05,1.85,136.7,M,53.8,M,,*41
10 12 14 33 4333.6901000128.73419136.9ó 00128.73419 136.9 0 0 0 110110 1000000 0 110110 1000000 0 1101101010 1010101111 1011100010 1111011111 10000100000 1100100011 1100010010 1100101010 1100010010 25.063 46.937 999.71 12087 16 15 14 59 52 3 $GNGGA,121433.00,4333.69010,N,00128.73419,E,1,05,1.85,136.9,M,53.8,M,,*44
11 12 14 34 4333.6900300128.73421136.8ó 00128.73421 136.8 0 0 0 110110 1000000 0 110110 1000000 0 1101101001 1010110000 1011100100 1111100011 10000100001 1100100101 1100010110 1100101110 1100011011 25.125 46.929 999.72 13088 15 15 15 59 51 3 $GNGGA,121434.00,4333.69003,N,00128.73421,E,1,05,1.85,136.8,M,53.8,M,,*4B
12 12 14 35 4333.6903000128.73372136.8ó 00128.73372 136.8 0 0 0 110110 1000000 0 110110 1000000 0 1101101001 1010110000 1011100010 1111101001 10000100101 1100101000 1100010101 1100101001 1100010000 25.125 46.914 999.71 14087 16 15 13 59 51 4 $GNGGA,121435.00,4333.69030,N,00128.73372,E,1,05,1.85,136.8,M,53.8,M,,*4B
13 12 14 36 4333.6904100128.73344136.8ó 00128.73344 136.8 0 0 0 110110 1000000 0 110110 1000000 0 1101101001 1010101100 1011100000 1111101001 10000100100 1100100111 1100011000 1100100011 1100010011 25.125 46.906 999.71 15086 17 14 13 59 51 4 $GNGGA,121436.00,4333.69041,N,00128.73344,E,1,05,1.85,136.8,M,53.8,M,,*4B
14 12 14 37 4333.6910600128.73302136.8ó 00128.73302 136.8 0 0 0 110110 1000000 0 110110 1000000 0 1101101001 1010101101 1011100010 1111101101 10000100100 1100101001 1100011011 1100100100 1100010100 25.125 46.883 999.70 16084 16 15 15 59 51 3 $GNGGA,121437.00,4333.69106,N,00128.73302,E,1,05,1.85,136.8,M,53.8,M,,*4A
15 12 14 38 4333.6920500128.73288137.1ó 00128.73288 137.1 0 0 0 110110 1000000 0 110110 1000000 0 1101101010 1010101000 1011100001 1111100111 10000100010 1100101000 1100010111 1100101011 1100011000 25.125 46.799 999.71 17085 16 15 14 60 51 3 $GNGGA,121438.00,4333.69205,N,00128.73288,E,1,06,1.45,137.1,M,53.8,M,,*41
16 12 14 39 4333.6931600128.73281137.6ó 00128.73281 137.6 0 0 0 110110 1000000 0 110110 1000000 0 1101101001 1010101100 1011100000 1111100001 10000100001 1100100111 1100010101 1100100111 1100010110 25.125 46.723 999.70 18083 16 14 14 58 51 4 $GNGGA,121439.00,4333.69316,N,00128.73281,E,1,06,1.45,137.6,M,53.8,M,,*4D
17 12 14 40 4333.6936700128.73297138.0ó 00128.73297 138.0 0 0 0 110110 1000000 0 110110 1000000 0 1101101001 1010101010 1011011111 1111100100 10000100101 1100101010 1100011000 1100101000 1100011101 25.125 46.639 999.69 19083 15 16 14 59 52 3 $GNGGA,121440.00,4333.69367,N,00128.73297,E,1,06,1.45,138.0,M,53.8,M,,*4B
18 12 14 41 4333.6941000128.73314138.4ó 00128.73314 138.4 0 0 0 110110 1000000 0 110110 1000000 0 1101101001 1010101100 1011100001 1111101001 10000100101 1100101010 1100011010 1100101110 1100010111 25.188 46.563 999.69 20081 17 14 13 60 50 4 $GNGGA,121441.00,4333.69410,N,00128.73314,E,1,06,1.45,138.4,M,53.8,M,,*43
19 12 14 42 4333.6944300128.73267138.6ó 00128.73267 138.6 0 0 0 110110 1000000 0 110110 1000000 0 1101101010 1010101101 1011100001 1111100010 10000100101 1100100111 1100011100 1100101011 1100011100 25.188 46.486 999.69 21080 16 15 13 59 50 5 $GNGGA,121442.00,4333.69443,N,00128.73267,E,1,06,1.45,138.6,M,53.8,M,,*41
20 12 14 43 4333.6948700128.73275138.9ó 00128.73275 138.9 0 0 0 110110 1000000 0 110110 1000000 0 1101101001 1010101010 1011011111 1111100001 10000100100 1100100111 1100010110 1100101001 1100011000 25.188 46.448 999.70 22079 16 15 14 60 51 3 $GNGGA,121443.00,4333.69487,N,00128.73275,E,1,06,1.45,138.9,M,53.8,M,,*44
21 12 14 44 4333.6956800128.73249139.2ó 00128.73249 139.2 0 0 0 110110 1000000 0 110110 1000000 0 1101101001 1010101101 1011011111 1111100111 10000100100 1100101011 1100011001 1100110000 1100011111 25.125 46.471 999.69 23076 16 14 15 59 51 3 $GNGGA,121444.00,4333.69568,N,00128.73249,E,1,06,1.45,139.2,M,53.8,M,,*46
22 12 14 45 4333.6960600128.73284139.7ó 00128.73284 139.7 0 0 0 110110 1000000 0 110110 1000000 0 1101101010 1010101101 1011100000 1111101000 10000100011 1100101100 1100011010 1100100010 1100010011 25.125 46.563 999.70 24077 16 15 13 59 51 4 $GNGGA,121445.00,4333.69606,N,00128.73284,E,1,06,1.45,139.7,M,53.8,M,,*48
23 12 14 46 4333.6963400128.73288140.0ó 00128.73288 140.0 0 0 0 110110 1000000 0 110110 1000000 0 1101101010 1010101011 1011011111 1111101010 10000100100 1100101000 1100011010 1100100111 1100010000 25.125 46.631 999.70 25076 16 15 15 59 51 3 $GNGGA,121446.00,4333.69634,N,00128.73288,E,1,06,1.45,140.0,M,53.8,M,,*4F
24 12 14 47 4333.6972900128.73268140.5ó 00128.73268 140.5 0 0 0 110110 1000000 0 110110 1000000 0 1101101001 1010110000 1011100010 1111100110 10000100001 1100101111 1100010111 1100101000 1100010100 25.063 46.692 999.70 26075 16 15 13 59 50 5 $GNGGA,121447.00,4333.69729,N,00128.73268,E,1,06,1.45,140.5,M,53.8,M,,*48
25 12 14 48 4333.6976100128.73253140.6ó 00128.73253 140.6 0 0 0 110110 1000000 0 110110 1000000 0 1101101001 1010101110 1011100001 1111101100 10000100010 1100101000 1100011001 1100110100 1100011110 25.063 46.715 999.68 27074 16 15 14 60 51 3 $GNGGA,121448.00,4333.69761,N,00128.73253,E,1,06,1.45,140.6,M,53.8,M,,*40
26 12 14 49 4333.6973600128.73216141.0ó 00128.73216 141.0 0 0 0 110110 1000000 0 110110 1000000 0 1101101001 1010101100 1011100001 1111101011 10000100011 1100100110 1100010011 1100101100 1100011000 25.125 46.723 999.69 28072 16 14 14 59 50 4 $GNGGA,121449.00,4333.69736,N,00128.73216,E,1,06,1.45,141.0,M,53.8,M,,*45
27 12 14 50 4333.6972000128.73199141.3ó 00128.73199 141.3 0 0 0 110110 1000000 0 110110 1000000 0 1101101010 1010110001 1011011111 1111101100 10000100100 1100101010 1100010110 1100110000 1100011000 25.125 46.723 999.68 29071 17 14 13 60 50 4 $GNGGA,121450.00,4333.69720,N,00128.73199,E,1,06,1.45,141.3,M,53.8,M,,*4D
28 12 14 51 4333.6971300128.73231141.6ó 00128.73231 141.6 0 0 0 110110 1000000 0 110110 1000000 0 1101101001 1010101001 1011011110 1111100101 10000100000 1100101001 1100010101 1100100011 1100010100 25.188 46.731 999.69 30070 16 15 15 59 51 3 $GNGGA,121451.00,4333.69713,N,00128.73231,E,1,06,1.45,141.6,M,53.8,M,,*48
29 12 14 52 4333.6967500128.73178141.7ó 00128.73178 141.7 0 0 0 110110 1000000 0 110110 1000000 0 1101101001 1010110000 1011011111 1111101001 10000100011 1100101010 1100010110 1100100100 1100011000 25.125 46.753 999.68 31070 16 15 13 58 52 4 $GNGGA,121452.00,4333.69675,N,00128.73178,E,1,06,1.45,141.7,M,53.8,M,,*45
30 12 14 53 4333.6959800128.73101142.0ó 00128.73101 142.0 0 0 0 110110 1000000 0 110110 1000000 0 1101101001 1010101101 1011100010 1111100000 10000100001 1100101010 1100010110 1100110001 1100011101 25.125 46.784 999.69 32068 16 15 14 60 51 3 $GNGGA,121453.00,4333.69598,N,00128.73101,E,1,05,1.51,142.0,M,53.8,M,,*48
31 12 14 54 4333.6955800128.73076142.2ó 00128.73076 142.2 0 0 0 110110 1000000 0 110110 1000000 0 1101101001 1010101010 1011011111 1111100100 10000100011 1100101100 1100011001 1100101101 1100011110 25.188 46.776 999.67 33068 15 16 15 59 51 3 $GNGGA,121454.00,4333.69558,N,00128.73076,E,1,05,1.51,142.2,M,53.8,M,,*40
32 12 14 55 4333.6946900128.73036142.4ó 00128.73036 142.4 0 0 0 110110 1000000 0 110110 1000000 0 1101101010 1010101101 1011100101 1111100001 10000100011 1100101011 1100010111 1100110000 1100100000 25.125 46.769 999.67 34064 17 14 13 59 51 4 $GNGGA,121455.00,4333.69469,N,00128.73036,E,1,05,1.51,142.4,M,53.8,M,,*40
33 12 14 56 4333.6946400128.72973142.4ó 00128.72973 142.4 0 0 0 110110 1000000 0 110110 1000000 0 1101101010 1010101100 1011100011 1111100110 10000100100 1100100011 1100010010 1100101110 1100100000 25.125 46.784 999.68 35065 16 14 14 58 51 4 $GNGGA,121456.00,4333.69464,N,00128.72973,E,1,05,1.51,142.4,M,53.8,M,,*47
34 12 14 57 4333.6950800128.72974142.6ó 00128.72974 142.6 0 0 0 110110 1000000 0 110110 1000000 0 1101101010 1010101100 1011100001 1111100011 10000100100 1100101100 1100011001 1100110001 1100011110 25.188 46.792 999.68 36065 15 16 14 59 52 3 $GNGGA,121457.00,4333.69508,N,00128.72974,E,1,05,1.51,142.6,M,53.8,M,,*48
35 12 14 58 4333.6951400128.73010142.7ó 00128.73010 142.7 0 0 0 110110 1000000 0 110110 1000000 0 1101101001 1010101010 1011100010 1111011011 10000100001 1100101101 1100011010 1100101110 1100011001 25.125 46.731 999.68 37063 17 14 13 60 50 4 $GNGGA,121458.00,4333.69514,N,00128.73010,E,1,05,1.51,142.7,M,53.8,M,,*41
36 12 14 59 4333.6956900128.73056143.0ó 00128.73056 143.0 0 0 0 110110 1000000 0 110110 1000000 0 1101101010 1010101100 1011100001 1111101011 10000100100 1100101001 1100010101 1100100101 1100011010 25.188 46.647 999.67 38063 15 16 14 59 51 4 $GNGGA,121459.00,4333.69569,N,00128.73056,E,1,05,1.51,143.0,M,53.8,M,,*4E
37 12 15 00 4333.6950200128.73066143.2ó 00128.73066 143.2 0 0 0 110110 1000000 0 110110 1000000 0 1101101001 1010101100 1011100000 1111100001 10000100011 1100101100 1100011000 1100101000 1100011000 25.125 46.654 999.67 39061 17 14 14 60 51 3 $GNGGA,121500.00,4333.69502,N,00128.73066,E,1,05,1.51,143.2,M,53.8,M,,*4F
38 12 15 01 4333.6957600128.73090143.4ó 00128.73090 143.4 0 0 0 110110 1000000 0 110110 1000000 0 1101101010 1010101110 1011100001 1111011111 10000100010 1100101010 1100010110 1100101001 1100010001 25.188 46.692 999.67 40060 15 15 15 59 50 4 $GNGGA,121501.00,4333.69576,N,00128.73090,E,1,05,1.51,143.4,M,53.8,M,,*42
39 12 15 02 4333.6950800128.73040143.6ó 00128.73040 143.6 0 0 0 110110 1000000 0 110110 1000000 0 1101101001 1010101101 1011011111 1111011101 10000100001 1100110100 1100011110 1100100111 1100011100 25.125 46.662 999.67 41058 15 16 14 59 52 3 $GNGGA,121502.00,4333.69508,N,00128.73040,E,1,05,1.51,143.6,M,53.8,M,,*47
40 12 15 03 4333.6947600128.73020143.7ó 00128.73020 143.7 0 0 0 110110 1000000 0 110110 1000000 0 1101101010 1010101110 1011011111 1111100000 10000100000 1100101001 1100010011 1100100101 1100010110 25.125 46.601 999.66 42058 16 15 15 59 51 3 $GNGGA,121503.00,4333.69476,N,00128.73020,E,1,05,1.51,143.7,M,53.8,M,,*49
41 12 15 04 4333.6952500128.73115143.3ó 00128.73115 143.3 0 0 0 110110 1000000 0 110110 1000000 0 1101101001 1010101000 1011011101 1111100011 10000100100 1100101010 1100010111 1100101100 1100010101 25.125 46.563 999.67 43058 15 16 14 59 51 4 $GNGGA,121504.00,4333.69525,N,00128.73115,E,1,05,1.51,143.3,M,53.8,M,,*4A
42 12 15 05 4333.6948700128.73035143.5ó 00128.73035 143.5 0 0 0 110110 1000000 0 110110 1010111 11111111 1101101001 1010101110 1011100010 1111100011 10000100010 1100101010 1100010101 1100110000 1100011100 25.125 46.540 999.66 44056 17 14 13 60 50 4 $GNGGA,121505.00,4333.69487,N,00128.73035,E,1,05,1.51,143.5,M,53.8,M,,*47
43 12 15 06 4333.6944100128.73017143.7ó 00128.73017 143.7 0 0 0 110110 1000000 0 110110 1000000 0 1101101001 1010101011 1011100000 1111101101 10000100111 1100101100 1100011000 1100101100 1100010010 25.063 46.525 999.65 45056 15 16 15 59 51 3 $GNGGA,121506.00,4333.69441,N,00128.73017,E,1,06,1.45,143.7,M,53.8,M,,*4A
44 12 15 07 4333.6937700128.73000143.8ó 00128.73000 143.8 0 0 0 110110 1000000 0 110110 1000000 0 1101101001 1010101011 1011100001 1111100011 10000100100 1100110100 1100100000 1100110000 1100011110 25.125 46.532 999.66 46054 17 14 13 60 50 4 $GNGGA,121507.00,4333.69377,N,00128.73000,E,1,06,1.45,143.8,M,53.8,M,,*40
45 12 15 08 4333.6935000128.72974143.5ó 00128.72974 143.5 0 0 0 110110 1000000 0 110110 1000000 0 1101101001 1010101101 1011100001 1111100001 10000100001 1100101101 1100011010 1100110100 1100011011 25.063 46.517 999.65 47053 16 14 14 58 51 4 $GNGGA,121508.00,4333.69350,N,00128.72974,E,1,05,6.21,143.5,M,53.8,M,,*4A
46 12 15 09 4333.6931900128.72969143.2ó 00128.72969 143.2 0 0 0 110110 1000000 0 110110 1000000 0 1101101001 1010101110 1011100010 1111100000 10000100010 1100101000 1100010101 1100101001 1100010011 25.125 46.479 999.64 48053 15 16 14 59 52 3 $GNGGA,121509.00,4333.69319,N,00128.72969,E,1,05,6.21,143.2,M,53.8,M,,*4D
47 12 15 10 Nan Nan Nan 0 0 0 110110 1000000 0 110110 1000000 0 1101101001 1010101100 1011100001 1111011101 10000100001 1100101010 1100010111 1100101001 1100010001 25.125 46.441 999.63 49041 16 7 11 60 51 3 $GNGGA,121510.00,,,,,0,00,21.2,,,,,,*4F
48 12 15 11 Nan Nan Nan 0 0 0 110110 1000000 0 110110 1000000 0 1101101010 1010101001 1011011100 1111100101 10000100010 1100100110 1100010011 1100101011 1100011011 25.125 46.418 999.64 50039 15 7 12 59 50 4 $GNGGA,121511.00,,,,,0,00,21.2,,,,,,*4E
49 12 15 12 4333.6932200128.73012143.2ó 00128.73012 143.2 0 0 0 110110 1000000 0 110110 1000000 0 1101101001 1010101100 1011100000 1111100100 10000100011 1100101100 1100011110 1100101111 1100010110 25.125 46.425 999.66 51049 16 15 14 60 50 4 $GNGGA,121512.00,4333.69322,N,00128.73012,E,1,05,6.20,143.2,M,53.8,M,,*4A
50 12 15 13 4333.6930800128.73027143.2ó 00128.73027 143.2 0 0 0 110110 1000000 0 110110 1000000 0 1101101001 1010101001 1011011111 1111011111 10000100010 1100101100 1100011101 1100101100 1100011010 25.063 46.441 999.66 52045 16 14 14 59 50 4 $GNGGA,121513.00,4333.69308,N,00128.73027,E,1,05,6.20,143.2,M,53.8,M,,*45
51 12 15 14 4333.6921300128.72908143.3ó 00128.72908 143.3 0 0 0 110110 1000000 0 110110 1000000 0 1101101010 1010101010 1011100001 1111010101 10000011111 1100100111 1100010001 1100101001 1100010110 25.125 46.433 999.66 53047 15 16 14 59 52 3 $GNGGA,121514.00,4333.69213,N,00128.72908,E,1,05,6.20,143.3,M,53.8,M,,*4D
52 12 15 15 4333.6922800128.73004143.3ó 00128.73004 143.3 0 0 0 110110 1000000 0 110110 1000000 0 1101101001 1010101101 1011100001 1111100010 10000100100 1100101101 1100010110 1100101000 1100011010 25.250 46.433 999.66 54045 16 15 14 60 51 3 $GNGGA,121515.00,4333.69228,N,00128.73004,E,1,05,6.20,143.3,M,53.8,M,,*40
53 12 15 16 4333.6923100128.73086143.3ó 00128.73086 143.3 0 0 0 110110 1000000 0 110110 1000000 0 1101101001 1010101111 1011100001 1111101000 10000100100 1100101011 1100010111 1100101010 1100010101 25.188 46.441 999.65 55045 15 16 14 59 51 4 $GNGGA,121516.00,4333.69231,N,00128.73086,E,1,05,6.20,143.3,M,53.8,M,,*41
54 12 15 17 4333.6922500128.73132143.3ó 00128.73132 143.3 0 0 0 110110 1000000 0 110110 1000000 0 1101101010 1010101101 1011011111 1111101101 10000100111 1100101010 1100010111 1100110000 1100011001 25.125 46.441 999.64 56043 17 14 13 59 51 4 $GNGGA,121517.00,4333.69225,N,00128.73132,E,1,05,6.20,143.3,M,53.8,M,,*4B
55 12 15 18 4333.6920900128.73106143.2ó 00128.73106 143.2 0 0 0 110110 1000000 0 110110 1000000 0 1101101001 1010101101 1011100001 1111100101 10000100010 1100101101 1100011010 1100100011 1100010001 25.188 46.456 999.65 57042 15 15 15 59 51 3 $GNGGA,121518.00,4333.69209,N,00128.73106,E,1,05,6.20,143.2,M,53.8,M,,*4C
56 12 15 19 4333.6930900128.73113143.1ó 00128.73113 143.1 0 0 0 110110 1000000 0 110110 1000000 0 1101101001 1010101100 1011100001 1111100101 10000100001 1100101111 1100011000 1100101100 1100011011 25.125 46.456 999.64 58041 16 14 13 59 51 4 $GNGGA,121519.00,4333.69309,N,00128.73113,E,1,05,6.20,143.1,M,53.8,M,,*4B
57 12 15 20 4333.6932100128.73110143.1ó 00128.73110 143.1 0 0 0 110110 1000000 0 110110 1000000 0 1101101001 1010110000 1011100001 1111101001 10000100010 1100101001 1100011000 1100101111 1100011001 25.125 46.456 999.64 59040 16 14 14 58 51 4 $GNGGA,121520.00,4333.69321,N,00128.73110,E,1,05,6.19,143.1,M,53.8,M,,*42
58 12 15 21 4333.6934800128.73162142.9ó 00128.73162 142.9 0 0 0 110110 1000000 0 110110 1000000 0 1101101010 1010110001 1011100010 1111100111 10000100010 1100110001 1100011101 1100100100 1100001111 25.188 46.456 999.64 60040 16 16 13 59 51 4 $GNGGA,121521.00,4333.69348,N,00128.73162,E,1,05,6.19,142.9,M,53.8,M,,*40
59 12 15 22 Nan Nan Nan 0 0 0 110110 1000000 0 110110 1000000 0 1101101001 1010101111 1011100000 1111101100 10000100100 1100101000 1100010011 1100110010 1100011011 25.188 46.456 999.65 61027 16 7 10 60 50 4 $GNGGA,121522.00,,,,,0,00,20.9,,,,,,*44
60 12 15 23 Nan Nan Nan 0 0 0 110110 1000000 0 110110 1000000 0 1101101001 1010101110 1011100010 1111101001 10000100011 1100100111 1100010001 1100101000 1100011011 25.188 46.448 999.65 62026 17 7 11 59 51 3 $GNGGA,121523.00,,,,,0,00,20.9,,,,,,*45
61 12 15 24 Nan Nan Nan 0 0 0 110110 1000000 0 110110 1000000 0 1101101010 1010110000 1011100010 1111101100 10000100101 1100101001 1100011001 1100101010 1100011001 25.125 46.433 999.65 63023 15 7 11 59 50 5 $GNGGA,121524.00,,,,,0,00,20.9,,,,,,*42
62 12 15 25 Nan Nan Nan 0 0 0 110110 1000000 0 110110 1000000 0 1101101001 1010110000 1011100000 1111101110 10000100101 1100101001 1100010110 1100101000 1100010100 25.188 46.425 999.64 64024 16 7 11 60 51 3 $GNGGA,121525.00,,,,,0,00,20.8,,,,,,*42
63 12 15 26 Nan Nan Nan 0 0 0 110110 1000000 0 110110 1000000 0 1101101001 1010101111 1011011111 1111101111 10000100110 1100100011 1100010101 1100101111 1100011000 25.188 46.425 999.64 65024 16 8 12 59 51 3 $GNGGA,121526.00,,,,,0,00,20.8,,,,,,*41
64 12 15 27 Nan Nan Nan 0 0 0 110110 1000000 0 110110 1000000 0 1101101001 1010101010 1011011111 1111101100 10000100010 1100101110 1100011010 1100101100 1100011001 25.188 46.425 999.64 66023 15 7 11 60 51 3 $GNGGA,121527.00,,,,,0,00,20.8,,,,,,*40
65 12 15 28 Nan Nan Nan 0 0 0 110110 1000000 0 110110 1000000 0 1101101010 1010110000 1011100001 1111110101 10000100011 1100101010 1100010011 1100101010 1100010111 25.125 46.410 999.63 67020 17 7 10 59 50 4 $GNGGA,121528.00,,,,,0,00,20.8,,,,,,*4F
66 12 15 29 4333.6906100128.73242142.3ó 00128.73242 142.3 0 0 0 110110 1000000 0 110110 1000000 0 1101101001 1010110001 1011100001 1111111001 10000100100 1100110010 1100100001 1100101010 1100011000 25.063 46.418 999.63 68032 17 14 13 59 51 4 $GNGGA,121529.00,4333.69061,N,00128.73242,E,1,05,6.18,142.3,M,53.8,M,,*4A
67 12 15 30 4333.6899700128.73058142.5ó 00128.73058 142.5 0 0 0 110110 1000000 0 110110 1000000 0 1101101001 1010110010 1011100001 1111110000 10000100100 1100101001 1100011000 1100110011 1100011011 25.063 46.425 999.62 69030 16 14 14 58 51 4 $GNGGA,121530.00,4333.68997,N,00128.73058,E,1,05,6.18,142.5,M,53.8,M,,*4C
68 12 15 31 4333.6894900128.72983142.7ó 00128.72983 142.7 0 0 0 110110 1000000 0 110110 1000000 0 1101101001 1010110011 1011100011 1111110000 10000100100 1100101101 1100011100 1100101010 1100010011 25.125 46.433 999.62 70028 15 16 14 59 51 4 $GNGGA,121531.00,4333.68949,N,00128.72983,E,1,05,6.18,142.7,M,53.8,M,,*42
69 12 15 32 4333.6895900128.73013142.7ó 00128.73013 142.7 0 0 0 110110 1000000 0 110110 1000000 0 1101101010 1010101110 1011011111 1111101010 10000100010 1100101011 1100011010 1100110001 1100011010 25.125 46.509 999.62 71028 15 15 15 59 51 3 $GNGGA,121532.00,4333.68959,N,00128.73013,E,1,05,6.18,142.7,M,53.8,M,,*41
70 12 15 33 4333.6896600128.72958142.7ó 00128.72958 142.7 0 0 0 110110 1000000 0 110110 1000000 0 1101101001 1010110101 1011100100 1111101100 10000100011 1100100110 1100011001 1100110001 1100100001 25.063 46.494 999.63 72028 16 15 13 58 52 4 $GNGGA,121533.00,4333.68966,N,00128.72958,E,1,05,6.18,142.7,M,53.8,M,,*4B
71 12 15 34 4333.6900000128.72965142.7ó 00128.72965 142.7 0 0 0 110110 1000000 0 110110 1000000 0 1101101001 1010110010 1011100100 1111101100 10000100010 1100100111 1100001111 1100101101 1100011001 25.063 46.479 999.63 73026 17 14 13 59 51 4 $GNGGA,121534.00,4333.69000,N,00128.72965,E,1,05,6.18,142.7,M,53.8,M,,*4A
72 12 15 35 4333.6897400128.72979142.5ó 00128.72979 142.5 0 0 0 110110 1000000 0 110110 1000000 0 1101101001 1010101111 1011100000 1111101101 10000100010 1100100110 1100010010 1100101110 1100011001 25.125 46.494 999.63 74024 15 15 15 59 51 3 $GNGGA,121535.00,4333.68974,N,00128.72979,E,1,05,6.18,142.5,M,53.8,M,,*4F
73 12 15 36 4333.6883300128.72844142.6ó 00128.72844 142.6 0 0 0 110110 1000000 0 110110 1000000 0 1101101001 1010101101 1011100000 1111101100 10000100011 1100100111 1100010101 1100101111 1100011001 25.125 46.502 999.62 75025 17 14 13 59 51 4 $GNGGA,121536.00,4333.68833,N,00128.72844,E,1,05,6.18,142.6,M,53.8,M,,*42
74 12 15 37 4333.6877300128.72680142.7ó 00128.72680 142.7 0 0 0 110110 1000000 0 110110 1000000 0 1101101001 1010101111 1011100010 1111101101 10000100100 1100101010 1100011100 1100101000 1100010111 25.063 46.517 999.62 76023 16 14 14 59 50 4 $GNGGA,121537.00,4333.68773,N,00128.72680,E,1,05,6.18,142.7,M,53.8,M,,*4F
75 12 15 38 4333.6873400128.72585142.9ó 00128.72585 142.9 0 0 0 110110 1000000 0 110110 1000000 0 1101101001 1010110010 1011100011 1111110000 10000100100 1100100101 1100010100 1100100110 1100010100 25.125 46.540 999.63 77023 16 16 14 59 52 3 $GNGGA,121538.00,4333.68734,N,00128.72585,E,1,05,6.17,142.9,M,53.8,M,,*44
76 12 15 39 4333.6864800128.72393142.9ó 00128.72393 142.9 0 0 0 110110 1000000 0 110110 1000000 0 1101101001 1010101110 1011100001 1111110001 10000100100 1100101111 1100011001 1100101111 1100011111 25.125 46.555 999.64 78022 16 15 14 60 51 3 $GNGGA,121539.00,4333.68648,N,00128.72393,E,1,05,6.17,142.9,M,53.8,M,,*4E
77 12 15 40 4333.6861500128.72401142.7ó 00128.72401 142.7 0 0 0 110110 1000000 0 110110 1000000 0 1101101001 1010110100 1011100011 1111101001 10000100100 1100101001 1100010101 1100101010 1100011100 25.125 46.563 999.62 79020 16 15 14 59 50 4 $GNGGA,121540.00,4333.68615,N,00128.72401,E,1,05,6.17,142.7,M,53.8,M,,*4A
78 12 15 41 Nan Nan Nan 0 0 0 110110 1000000 0 110110 1000000 0 1101101010 1010101110 1011100001 1111101101 10000100010 1100100110 1100010111 1100101110 1100011100 25.188 46.593 999.65 80009 16 7 11 59 52 3 $GNGGA,121541.00,,,,,0,00,20.5,,,,,,*4D
79 12 15 42 4333.6860900128.72276142.8ó 00128.72276 142.8 0 0 0 110110 1000000 0 110110 1000000 0 1101101010 1010101101 1011100000 1111101001 10000100010 1100100110 1100011000 1100100100 1100010011 25.125 46.586 999.64 81016 16 14 14 58 51 4 $GNGGA,121542.00,4333.68609,N,00128.72276,E,1,05,6.17,142.8,M,53.8,M,,*4C
80 12 15 43 4333.6856700128.72192142.9ó 00128.72192 142.9 0 0 0 110110 1000000 0 110110 1000000 0 1101101001 1010101011 1011011111 1111101100 10000100100 1100101011 1100011000 1100101110 1100011000 25.125 46.601 999.65 82017 16 15 13 58 52 4 $GNGGA,121543.00,4333.68567,N,00128.72192,E,1,05,6.17,142.9,M,53.8,M,,*4E
81 12 15 44 4333.6855500128.72085143.0ó 00128.72085 143.0 0 0 0 110110 1000000 0 110110 1000000 0 1101101001 1010110001 1011100011 1111110001 10000100101 1100101010 1100011001 1100100011 1100010110 25.188 46.578 999.63 83016 17 15 14 60 51 3 $GNGGA,121544.00,4333.68555,N,00128.72085,E,1,05,6.17,143.0,M,53.8,M,,*47
82 12 15 45 4333.6856500128.71990143.1ó 00128.71990 143.1 0 0 0 110110 1000000 0 110110 1000000 0 1101101010 1010101100 1011100000 1111101001 10000100011 1100101011 1100011010 1100100111 1100011001 25.188 46.601 999.63 84016 15 16 14 59 51 4 $GNGGA,121545.00,4333.68565,N,00128.71990,E,1,05,6.17,143.1,M,53.8,M,,*4A
83 12 15 46 4333.6859700128.71955143.3ó 00128.71955 143.3 0 0 0 110110 1000000 0 110110 1000000 0 1101101001 1010110000 1011100100 1111101010 10000100101 1100101101 1100011010 1100101000 1100010100 25.125 46.593 999.63 85014 16 15 14 60 51 3 $GNGGA,121546.00,4333.68597,N,00128.71955,E,1,05,6.17,143.3,M,53.8,M,,*4F
84 12 15 47 4333.6855800128.71890143.5ó 00128.71890 143.5 0 0 0 110110 1000000 0 110110 1000000 0 1101101010 1010101110 1011100000 1111100101 10000100100 1100110000 1100011100 1100101101 1100011111 25.125 46.586 999.63 86012 16 14 14 59 50 4 $GNGGA,121547.00,4333.68558,N,00128.71890,E,1,05,6.16,143.5,M,53.8,M,,*42
85 12 15 48 4333.6856700128.71886143.5ó 00128.71886 143.5 0 0 0 110110 1000000 0 110110 1000000 0 1101101010 1010101110 1011100010 1111100101 10000100100 1100101100 1100011010 1100100101 1100010010 25.125 46.547 999.64 87012 17 14 13 60 50 4 $GNGGA,121548.00,4333.68567,N,00128.71886,E,1,05,6.16,143.5,M,53.8,M,,*46
86 12 15 49 4333.6863000128.72006143.4ó 00128.72006 143.4 0 0 0 110110 1000000 0 110110 1000000 0 1101101001 1010110010 1011100100 1111100111 10000100100 1100101101 1100011011 1100100011 1100010111 25.125 46.517 999.63 88010 16 14 14 58 51 4 $GNGGA,121549.00,4333.68630,N,00128.72006,E,1,05,6.16,143.4,M,53.8,M,,*44
87 12 15 50 4333.6861300128.72009143.6ó 00128.72009 143.6 0 0 0 110110 1000000 0 110110 1000000 0 1101101001 1010101111 1011100011 1111100111 10000100001 1100101001 1100011111 1100101000 1100011001 25.125 46.509 999.62 89010 15 16 14 59 52 3 $GNGGA,121550.00,4333.68613,N,00128.72009,E,1,05,6.16,143.6,M,53.8,M,,*40
88 12 15 51 4333.6855700128.71927143.6ó 00128.71927 143.6 0 0 0 110110 1000000 0 110110 1000000 0 1101101010 1010101110 1011100001 1111101000 10000100011 1100101011 1100011011 1100100111 1100011001 25.125 46.502 999.63 90009 16 15 14 60 51 3 $GNGGA,121551.00,4333.68557,N,00128.71927,E,1,05,6.16,143.6,M,53.8,M,,*44
89 12 15 52 4333.6858800128.71940143.8ó 00128.71940 143.8 0 0 0 110110 1000000 0 110110 1000000 0 1101101001 1010110000 1011100001 1111101001 10000100100 1100110000 1100011100 1100100011 1100010011 25.125 46.532 999.63 91009 16 15 14 58 51 4 $GNGGA,121552.00,4333.68588,N,00128.71940,E,1,05,6.16,143.8,M,53.8,M,,*4A
90 12 15 53 4333.6855900128.71945143.8ó 00128.71945 143.8 0 0 0 110110 1000000 0 110110 1000000 0 1101101010 1010101110 1011100010 1111100100 10000100010 1100101010 1100010100 1100101001 1100010111 25.125 46.670 999.64 92006 17 14 13 59 51 4 $GNGGA,121553.00,4333.68559,N,00128.71945,E,1,05,6.16,143.8,M,53.8,M,,*42
91 12 15 54 4333.6855100128.71777144.1ó 00128.71777 144.1 0 0 0 110110 1000000 0 110110 1000000 0 1101101001 1010101110 1011100011 1111100101 10000100010 1100101001 1100011011 1100100100 1100011001 25.125 46.631 999.62 93006 15 15 15 59 51 3 $GNGGA,121554.00,4333.68551,N,00128.71777,E,1,05,6.16,144.1,M,53.8,M,,*4C
92 12 15 55 4333.6861600128.71778144.2ó 00128.71778 144.2 0 0 0 110110 1000000 0 110110 1000000 0 1101101010 1010101101 1011100000 1111101101 10000100011 1100101100 1100010110 1100100010 1100001110 25.125 46.616 999.62 94005 16 16 13 59 51 4 $GNGGA,121555.00,4333.68616,N,00128.71778,E,1,05,6.16,144.2,M,53.8,M,,*41
93 12 15 56 4333.6855900128.71630144.4ó 00128.71630 144.4 0 0 0 110110 1000000 0 110110 1000000 0 1101101001 1010101111 1011100001 1111110000 10000100101 1100110010 1100011101 1100101001 1100100010 25.125 46.601 999.64 95003 17 15 14 60 51 3 $GNGGA,121556.00,4333.68559,N,00128.71630,E,1,05,6.15,144.4,M,53.8,M,,*42
94 12 15 57 4333.6853500128.71445144.5ó 00128.71445 144.5 0 0 0 110110 1000000 0 110110 1000000 0 1101101001 1010110001 1011100000 1111110001 10000100110 1100100111 1100010110 1100100010 1100011001 25.125 46.608 999.63 96004 16 16 13 59 50 5 $GNGGA,121557.00,4333.68535,N,00128.71445,E,1,05,6.15,144.5,M,53.8,M,,*48
95 12 15 58 4333.6858400128.71418144.7ó 00128.71418 144.7 0 0 0 110110 1000000 0 110110 1000000 0 1101101001 1010101100 1011100001 1111101110 10000100100 1100100110 1100010111 1100100111 1100011001 25.125 46.593 999.65 97001 17 14 13 60 50 4 $GNGGA,121558.00,4333.68584,N,00128.71418,E,1,05,6.15,144.7,M,53.8,M,,*47
96 12 15 59 4333.6863500128.71574144.6ó 00128.71574 144.6 0 0 0 110110 1000000 0 110110 1000000 0 1101101001 1010101100 1011100000 1111101101 10000100100 1100101000 1100010101 1100100111 1100011100 25.125 46.563 999.64 98001 15 15 15 59 51 3 $GNGGA,121559.00,4333.68635,N,00128.71574,E,1,05,6.15,144.6,M,53.8,M,,*45
97 12 16 00 4333.6868200128.71615144.6ó 00128.71615 144.6 0 0 0 110110 1000000 0 110110 1000000 0 1101101001 1010110001 1011100000 1111110000 10000100011 1100101111 1100011010 1100101100 1100011110 25.063 46.563 999.64 99000 16 15 13 60 50 4 $GNGGA,121600.00,4333.68682,N,00128.71615,E,1,05,6.15,144.6,M,53.8,M,,*42
98 12 16 01 4333.6850100128.71521146.7ó 00128.71521 146.7 0 0 0 110110 1000000 0 110110 1000000 0 1101101010 1010110110 1011100110 1111101110 10000100101 1100101000 1100011001 1100100110 1100010001 25.125 46.570 999.64 99999 16 14 14 59 50 4 $GNGGA,121601.00,4333.68501,N,00128.71521,E,1,06,1.44,146.7,M,53.8,M,,*4C
99 12 16 02 4333.6852900128.71656148.3ó 00128.71656 148.3 0 0 0 110110 1000000 0 110110 1000000 0 1101101001 1010110001 1011100001 1111101100 10000100011 1100101010 1100010110 1100100101 1100010010 25.188 46.593 999.64 100999 16 15 13 58 52 4 $GNGGA,121602.00,4333.68529,N,00128.71656,E,1,06,1.44,148.3,M,53.8,M,,*4C
100 12 16 03 4333.6855900128.71669148.8ó 00128.71669 148.8 0 0 0 110110 1010111 11111111 110110 1000000 0 1101101010 1010101111 1011100001 1111101000 10000100011 1100101011 1100011000 1100110000 1100010110 25.063 46.624 999.64 101997 17 14 14 60 51 3 $GNGGA,121603.00,4333.68559,N,00128.71669,E,1,05,1.76,148.8,M,53.8,M,,*4F
101 12 16 04 4333.6851900128.71665149.2ó 00128.71665 149.2 0 0 0 110110 1000000 0 110110 1000000 0 1101101010 1010101111 1011100010 1111100111 10000100010 1100101010 1100011100 1100101010 1100011000 25.063 46.624 999.63 102995 15 15 15 59 51 3 $GNGGA,121604.00,4333.68519,N,00128.71665,E,1,05,1.76,149.2,M,53.8,M,,*4B
102 12 16 05 4333.6850200128.71786149.8ó 00128.71786 149.8 0 0 0 110110 1000000 0 110110 1000000 0 1101101001 1010110000 1011100011 1111110100 10000100100 1100101010 1100011100 1100101011 1100010111 25.188 46.624 999.63 103995 17 14 14 60 51 3 $GNGGA,121605.00,4333.68502,N,00128.71786,E,1,06,1.44,149.8,M,53.8,M,,*44
103 12 16 06 4333.6849700128.71796150.0ó 00128.71796 150.0 0 0 0 110110 1000000 0 110110 1000000 0 1101101001 1010101110 1011100001 1111101100 10000100011 1100101001 1100011000 1100101101 1100010101 25.125 46.631 999.63 104994 16 14 14 59 50 4 $GNGGA,121606.00,4333.68497,N,00128.71796,E,1,06,1.44,150.0,M,53.8,M,,*4B
104 12 16 07 4333.6844700128.71771150.1ó 00128.71771 150.1 0 0 0 110110 1000000 0 110110 1000000 0 1101101001 1010101100 1011100000 1111110000 10000100101 1100101011 1100010111 1100101000 1100010110 25.063 46.639 999.63 105994 16 16 14 59 52 3 $GNGGA,121607.00,4333.68447,N,00128.71771,E,1,05,1.76,150.1,M,53.8,M,,*4D
105 12 16 08 4333.6845600128.71880150.6ó 00128.71880 150.6 0 0 0 110110 1000000 0 110110 1000000 0 1101101001 1010110000 1011100010 1111100010 10000100011 1100101101 1100011000 1100101111 1100010010 25.063 46.761 999.62 106991 17 14 13 59 51 4 $GNGGA,121608.00,4333.68456,N,00128.71880,E,1,05,1.76,150.6,M,53.8,M,,*44
106 12 16 09 4333.6852700128.71960150.7ó 00128.71960 150.7 0 0 0 110110 1000000 0 110110 1000000 0 1101101010 1010110000 1011100011 1111101001 10000100011 1100100101 1100010111 1100100110 1100010010 25.063 46.746 999.64 107991 16 16 14 59 50 4 $GNGGA,121609.00,4333.68527,N,00128.71960,E,1,05,1.76,150.7,M,53.8,M,,*4C
107 12 16 10 4333.6851500128.71978150.6ó 00128.71978 150.6 0 0 0 110110 1000000 0 110110 1000000 0 1101101001 1010110010 1011100001 1111101010 10000100011 1100101100 1100011001 1100110001 1100011101 25.063 46.692 999.63 108990 16 15 14 60 51 3 $GNGGA,121610.00,4333.68515,N,00128.71978,E,1,05,1.76,150.6,M,53.8,M,,*4D
108 12 16 11 4333.6862900128.71900150.6ó 00128.71900 150.6 0 0 0 110110 1000000 0 110110 1000000 0 1101101001 1010101101 1011011110 1111101110 10000100011 1100100010 1100010111 1100101100 1100011011 25.063 46.670 999.63 109986 16 14 14 58 51 4 $GNGGA,121611.00,4333.68629,N,00128.71900,E,1,05,1.76,150.6,M,53.8,M,,*4F
109 12 16 12 4333.6863900128.71947150.9ó 00128.71947 150.9 0 0 0 110110 1000000 0 110110 1000000 0 1101101001 1010110001 1011100001 1111101010 10000100100 1100100110 1100010000 1100101111 1100010111 25.188 46.647 999.62 110988 16 15 14 59 52 3 $GNGGA,121612.00,4333.68639,N,00128.71947,E,1,05,1.76,150.9,M,53.8,M,,*41
110 12 16 13 4333.6864900128.71990151.1ó 00128.71990 151.1 0 0 0 110110 1000000 0 110110 1000000 0 1101101010 1010110011 1011100101 1111101100 10000100011 1100101001 1100011000 1100101000 1100010100 25.063 46.639 999.61 111987 16 15 14 60 50 4 $GNGGA,121613.00,4333.68649,N,00128.71990,E,1,05,1.76,151.1,M,53.8,M,,*44
111 12 16 14 4333.6858300128.71962150.8ó 00128.71962 150.8 0 0 0 110110 1000000 0 110110 1000000 0 1101101001 1010101110 1011100001 1111100110 10000100100 1100101101 1100010110 1100101001 1100010100 25.125 46.624 999.62 112986 16 16 14 59 51 4 $GNGGA,121614.00,4333.68583,N,00128.71962,E,1,05,1.76,150.8,M,53.8,M,,*43
112 12 16 15 4333.6851900128.71998151.2ó 00128.71998 151.2 0 0 0 110110 1000000 0 110110 1000000 0 1101101001 1010110010 1011100001 1111101101 10000100010 1100101000 1100010001 1100101011 1100011001 25.063 46.608 999.61 113984 17 14 13 60 50 4 $GNGGA,121615.00,4333.68519,N,00128.71998,E,1,05,1.76,151.2,M,53.8,M,,*4F
113 12 16 16 4333.6846600128.71963151.2ó 00128.71963 151.2 0 0 0 110110 1000000 0 110110 1000000 0 1101101001 1010110101 1011100100 1111101011 10000100100 1100101011 1100011000 1100100101 1100011010 25.063 46.670 999.62 114983 16 15 15 59 51 3 $GNGGA,121616.00,4333.68466,N,00128.71963,E,1,04,2.79,151.2,M,53.8,M,,*4C
114 12 16 17 4333.6839500128.71919151.7ó 00128.71919 151.7 0 0 0 110110 1000000 0 110110 1000000 0 1101101001 1010101011 1011011110 1111101100 10000100100 1100101010 1100010111 1100110101 1100011111 25.125 46.685 999.61 115982 16 14 13 60 50 4 $GNGGA,121617.00,4333.68395,N,00128.71919,E,1,04,2.79,151.7,M,53.8,M,,*4E
115 12 16 18 4333.6844500128.71912152.1ó 00128.71912 152.1 0 0 0 110110 1000000 0 110110 1000000 0 1101101010 1010101111 1011100001 1111101011 10000100101 1100100110 1100011101 1100101110 1100010110 25.125 46.647 999.63 116982 16 14 14 58 51 4 $GNGGA,121618.00,4333.68445,N,00128.71912,E,1,04,2.44,152.1,M,53.8,M,,*4B
116 12 16 19 4333.6853200128.71973152.8ó 00128.71973 152.8 0 0 0 110110 1000000 0 110110 1000000 0 1101101001 1010110001 1011100101 1111101111 10000100011 1100101101 1100011100 1100100111 1100010111 25.188 46.631 999.64 117981 16 16 14 59 52 3 $GNGGA,121619.00,4333.68532,N,00128.71973,E,1,04,6.40,152.8,M,53.8,M,,*45
117 12 16 20 4333.6854200128.72002153.0ó 00128.72002 153.0 0 0 0 110110 1000000 0 110110 1000000 0 1101101010 1010101111 1011100000 1111101111 10000100011 1100101101 1100010101 1100100001 1100010110 25.125 46.639 999.64 118979 17 14 14 60 51 3 $GNGGA,121620.00,4333.68542,N,00128.72002,E,1,04,6.40,153.0,M,53.8,M,,*4D
118 12 16 21 4333.6854300128.72077153.2ó 00128.72077 153.2 0 0 0 110110 1000000 0 110110 1000000 0 1101101001 1010101110 1011100010 1111100110 10000100011 1100101000 1100010111 1100101101 1100010110 25.063 46.662 999.64 119979 16 15 15 59 51 3 $GNGGA,121621.00,4333.68543,N,00128.72077,E,1,04,1.86,153.2,M,53.8,M,,*40
119 12 16 22 4333.6866300128.72158153.3ó 00128.72158 153.3 0 0 0 110110 1000000 0 110110 1000000 0 1101101001 1010101111 1011100011 1111110000 10000100110 1100100111 1100010001 1100101101 1100011011 25.063 46.662 999.64 120976 17 14 13 59 51 4 $GNGGA,121622.00,4333.68663,N,00128.72158,E,1,04,1.86,153.3,M,53.8,M,,*4F
120 12 16 23 4333.6872500128.72268153.4ó 00128.72268 153.4 0 0 0 110110 1000000 0 110110 1000000 0 1101101010 1010101110 1011100000 1111101111 10000100100 1100101000 1100010101 1100101001 1100011010 25.125 46.654 999.63 121975 16 14 14 58 51 4 $GNGGA,121623.00,4333.68725,N,00128.72268,E,1,04,1.86,153.4,M,53.8,M,,*4A
121 12 16 24 4333.6876200128.72302153.6ó 00128.72302 153.6 0 0 0 110110 1000000 0 110110 1000000 0 1101101010 1010110001 1011100000 1111110000 10000100010 1100101100 1100011100 1100011101 1100001100 25.188 46.654 999.62 122975 15 16 14 59 52 3 $GNGGA,121624.00,4333.68762,N,00128.72302,E,1,04,1.86,153.6,M,53.8,M,,*41
122 12 16 25 4333.6879600128.72467153.8ó 00128.72467 153.8 0 0 0 110110 1000000 0 110110 1000000 0 1101101010 1010110010 1011100100 1111101010 10000100101 1100101111 1100011000 1100101110 1100010100 25.188 46.654 999.62 123974 17 15 14 60 51 3 $GNGGA,121625.00,4333.68796,N,00128.72467,E,1,04,1.92,153.8,M,53.8,M,,*44
123 12 16 26 4333.6877900128.72633154.2ó 00128.72633 154.2 0 0 0 110110 1000000 0 110110 1000000 0 1101101001 1010101101 1011100100 1111101011 10000100011 1100101000 1100011001 1100101000 1100011001 25.125 46.670 999.62 124973 16 15 13 58 51 5 $GNGGA,121626.00,4333.68779,N,00128.72633,E,1,04,1.92,154.2,M,53.8,M,,*48
124 12 16 27 4333.6881700128.72847154.7ó 00128.72847 154.7 0 0 0 110110 1000000 0 110110 1000000 0 1101101001 1010110001 1011100011 1111101110 10000100110 1100101101 1100011100 1100110001 1100011010 25.125 46.723 999.62 125972 17 14 13 60 50 4 $GNGGA,121627.00,4333.68817,N,00128.72847,E,1,04,1.92,154.7,M,53.8,M,,*46
125 12 16 28 4333.6888300128.73018155.5ó 00128.73018 155.5 0 0 0 110110 1000000 0 110110 1000000 0 1101101001 1010110011 1011100100 1111101110 10000100100 1100101100 1100010111 1100101011 1100001111 25.063 46.769 999.63 126970 16 15 15 59 51 3 $GNGGA,121628.00,4333.68883,N,00128.73018,E,1,04,1.92,155.5,M,53.8,M,,*44
126 12 16 29 4333.6903500128.73103148.8ó 00128.73103 148.8 0 0 0 110110 1000000 0 110110 1000000 0 1101101001 1010101111 1011100001 1111110000 10000100100 1100101001 1100010001 1100100110 1100001101 25.063 46.830 999.64 127970 15 16 14 59 52 3 $GNGGA,121629.00,4333.69035,N,00128.73103,E,1,03,7.86,148.8,M,53.8,M,,*4F
127 12 16 30 4333.6903900128.73264148.8ó 00128.73264 148.8 0 0 0 110110 1000000 0 110110 1000000 0 1101101001 1010110000 1011100010 1111100110 10000100001 1100101110 1100011010 1100100111 1100010010 25.125 46.853 999.64 128968 17 14 14 59 51 3 $GNGGA,121630.00,4333.69039,N,00128.73264,E,1,03,7.86,148.8,M,53.8,M,,*49
128 12 16 31 Nan Nan Nan 0 0 0 110110 1000000 0 110110 1000000 0 1101101001 1010110010 1011100010 1111101000 10000100001 1100101111 1100011000 1100101110 1100010111 25.125 46.906 999.66 129956 16 7 11 59 51 4 $GNGGA,121631.00,,,,,0,00,36.7,,,,,,*4C
129 12 16 32 Nan Nan Nan 0 0 0 110110 1000000 0 110110 1000000 0 1101101001 1010101111 1011100000 1111101001 10000100001 1100100111 1100010000 1100101010 1100010000 25.125 46.845 999.65 130955 16 7 11 59 52 3 $GNGGA,121632.00,,,,,0,00,36.7,,,,,,*4F
130 12 16 33 4333.6905800128.73544149.2ó 00128.73544 149.2 0 0 0 110110 1000000 0 110110 1000000 0 1101101010 1010110010 1011100011 1111101100 10000100101 1100100111 1100010110 1100101100 1100010110 25.125 46.845 999.64 131962 16 14 14 59 51 4 $GNGGA,121633.00,4333.69058,N,00128.73544,E,1,03,7.85,149.2,M,53.8,M,,*40
131 12 16 34 4333.6908000128.73627149.3ó 00128.73627 149.3 0 0 0 110110 1000000 0 110110 1000000 0 1101101001 1010110000 1011100100 1111110001 10000100100 1100101000 1100010111 1100101111 1100011110 25.125 46.807 999.64 132964 17 14 13 59 51 4 $GNGGA,121634.00,4333.69080,N,00128.73627,E,1,03,7.85,149.3,M,53.8,M,,*45
132 12 16 35 4333.6914100128.73719149.7ó 00128.73719 149.7 0 0 0 110110 1000000 0 110110 1000000 0 1101101001 1010110001 1011100011 1111101011 10000100101 1100100100 1100010101 1100101001 1100011100 25.125 46.769 999.63 133962 16 15 15 59 51 3 $GNGGA,121635.00,4333.69141,N,00128.73719,E,1,03,7.85,149.7,M,53.8,M,,*40
133 12 16 36 4333.6917400128.73886149.7ó 00128.73886 149.7 0 0 0 110110 1000000 0 110110 1000000 0 1101101001 1010101111 1011100001 1111101101 10000100110 1100100101 1100010011 1100100111 1100010100 25.063 46.738 999.63 134962 16 15 13 58 52 4 $GNGGA,121636.00,4333.69174,N,00128.73886,E,1,03,7.85,149.7,M,53.8,M,,*4C
134 12 16 37 4333.6919000128.73924149.7ó 00128.73924 149.7 0 0 0 110110 1000000 0 110110 1000000 0 1101101001 1010101110 1011100010 1111101011 10000100011 1100101101 1100011001 1100100111 1100011011 25.063 46.715 999.64 135961 16 15 14 60 51 3 $GNGGA,121637.00,4333.69190,N,00128.73924,E,1,03,7.85,149.7,M,53.8,M,,*4E
135 12 16 38 4333.6919300128.73962149.7ó 00128.73962 149.7 0 0 0 110110 1000000 0 110110 1000000 0 1101101001 1010101110 1011011111 1111101100 10000100100 1100101000 1100010101 1100100111 1100010000 25.063 46.731 999.63 136960 16 15 14 58 51 4 $GNGGA,121638.00,4333.69193,N,00128.73962,E,1,03,7.85,149.7,M,53.8,M,,*40
136 12 16 39 4333.6923300128.74051149.8ó 00128.74051 149.8 0 0 0 110110 1000000 0 110110 1000000 0 1101101001 1010110000 1011100001 1111110010 10000100111 1100101001 1100010110 1100100001 1100010101 25.063 46.746 999.63 137958 17 14 13 59 51 4 $GNGGA,121639.00,4333.69233,N,00128.74051,E,1,03,7.85,149.8,M,53.8,M,,*49
137 12 16 40 4333.6927400128.74169149.9ó 00128.74169 149.9 0 0 0 110110 1000000 0 110110 1000000 0 1101101001 1010110010 1011100100 1111101000 10000100100 1100101100 1100011000 1100101111 1100100001 25.063 46.723 999.63 138955 16 15 14 59 50 4 $GNGGA,121640.00,4333.69274,N,00128.74169,E,1,03,7.85,149.9,M,53.8,M,,*4F
138 12 16 41 4333.6930200128.74225150.0ó 00128.74225 150.0 0 0 0 110110 1000000 0 110110 1000000 0 1101101010 1010101100 1011100010 1111100111 10000100010 1100101011 1100100000 1100100101 1100010110 25.063 46.776 999.64 139957 15 16 14 59 51 4 $GNGGA,121641.00,4333.69302,N,00128.74225,E,1,03,7.85,150.0,M,53.8,M,,*44
139 12 16 42 4333.6937700128.74216149.9ó 00128.74216 149.9 0 0 0 110110 1000000 0 110110 1000000 0 1101101001 1010101111 1011100010 1111100111 10000100011 1100101101 1100011010 1100101101 1100011011 25.063 46.898 999.65 140955 17 14 13 59 51 4 $GNGGA,121642.00,4333.69377,N,00128.74216,E,1,03,7.85,149.9,M,53.8,M,,*44
140 12 16 43 4333.6945400128.74288150.0ó 00128.74288 150.0 0 0 0 110110 1000000 0 110110 1000000 0 1101101010 1010110000 1011100011 1111100010 10000100100 1100100110 1100010100 1100101001 1100010011 25.125 46.914 999.65 141956 16 15 13 59 50 5 $GNGGA,121643.00,4333.69454,N,00128.74288,E,1,03,7.84,150.0,M,53.8,M,,*44
141 12 16 44 4333.6962300128.74405150.1ó 00128.74405 150.1 0 0 0 110110 1010111 11111111 110110 1000000 0 1101101010 1010101110 1011100010 1111101000 10000100011 1100101010 1100011001 1100100100 1100011011 25.125 46.868 999.65 142952 17 14 13 59 51 4 $GNGGA,121644.00,4333.69623,N,00128.74405,E,1,03,7.84,150.1,M,53.8,M,,*43
142 12 16 45 4333.6962400128.74400150.1ó 00128.74400 150.1 0 0 0 110110 1000000 0 110110 1000000 0 1101101010 1010110000 1011100011 1111011111 10000100001 1100101011 1100010110 1100101011 1100010000 25.063 46.822 999.65 143953 15 15 15 59 50 4 $GNGGA,121645.00,4333.69624,N,00128.74400,E,1,03,7.84,150.1,M,53.8,M,,*40
143 12 16 46 4333.6967400128.74394150.3ó 00128.74394 150.3 0 0 0 110110 1000000 0 110110 1000000 0 1101101010 1010101110 1011100010 1111101101 10000100100 1100100101 1100010111 1100101011 1100010011 25.188 46.891 999.65 144952 16 16 14 59 52 3 $GNGGA,121646.00,4333.69674,N,00128.74394,E,1,03,7.84,150.3,M,53.8,M,,*4E
144 12 16 47 4333.6968900128.74444151.1ó 00128.74444 151.1 0 0 0 110110 1000000 0 110110 1000000 0 1101101001 1010110000 1011100011 1111101001 10000100100 1100101001 1100010111 1100110000 1100011001 25.063 46.944 999.65 145950 17 14 14 60 51 3 $GNGGA,121647.00,4333.69689,N,00128.74444,E,1,04,1.92,151.1,M,53.8,M,,*42
145 12 16 48 4333.6984400128.74583151.5ó 00128.74583 151.5 0 0 0 110110 1000000 0 110110 1000000 0 1101101001 1010110010 1011100001 1111101001 10000100011 1100101011 1100010111 1100110010 1100011110 25.125 46.891 999.65 146950 16 15 13 58 52 4 $GNGGA,121648.00,4333.69844,N,00128.74583,E,1,04,1.92,151.5,M,53.8,M,,*4C
146 12 16 49 4333.6997400128.74648151.3ó 00128.74648 151.3 0 0 0 110110 1000000 0 110110 1000000 0 1101101010 1010110011 1011100011 1111101000 10000100001 1100101101 1100011101 1100110010 1100011101 25.063 46.891 999.66 147948 17 14 13 59 51 4 $GNGGA,121649.00,4333.69974,N,00128.74648,E,1,04,1.92,151.3,M,53.8,M,,*4D
147 12 16 50 4333.7004800128.74716151.3ó 00128.74716 151.3 0 0 0 110110 1000000 0 110110 1000000 0 1101101001 1010101111 1011100010 1111101110 10000100011 1100101001 1100010101 1100110011 1100011100 25.063 47.036 999.65 148947 16 14 14 59 50 4 $GNGGA,121650.00,4333.70048,N,00128.74716,E,1,04,1.92,151.3,M,53.8,M,,*41
148 12 16 51 4333.7007600128.74738151.3ó 00128.74738 151.3 0 0 0 110110 1000000 0 110110 1000000 0 1101101001 1010101111 1011100010 1111101010 10000100100 1100101011 1100011001 1100110010 1100011111 25.125 47.066 999.65 149945 16 14 14 60 51 3 $GNGGA,121651.00,4333.70076,N,00128.74738,E,1,04,1.92,151.3,M,53.8,M,,*41
149 12 16 52 4333.7017200128.74803151.4ó 00128.74803 151.4 0 0 0 110110 1000000 0 110110 1000000 0 1101101010 1010110001 1011100011 1111101011 10000100100 1100100111 1100011010 1100100101 1100010001 25.125 46.967 999.65 150945 16 14 14 58 51 4 $GNGGA,121652.00,4333.70172,N,00128.74803,E,1,04,1.92,151.4,M,53.8,M,,*47
150 12 16 53 4333.7017300128.74731151.7ó 00128.74731 151.7 0 0 0 110110 1000000 0 110110 1000000 0 1101101001 1010110000 1011100010 1111101001 10000011111 1100101000 1100011011 1100101101 1100011011 25.063 46.929 999.64 151944 16 15 13 59 51 4 $GNGGA,121653.00,4333.70173,N,00128.74731,E,1,04,1.92,151.7,M,53.8,M,,*4A
151 12 16 54 4333.6988800128.74518152.1ó 00128.74518 152.1 0 0 0 110110 1000000 0 110110 1000000 0 1101101010 1010110001 1011100010 1111101110 10000100100 1100101010 1100011000 1100101110 1100011101 25.063 46.898 999.63 152943 17 14 13 60 50 4 $GNGGA,121654.00,4333.69888,N,00128.74518,E,1,04,1.92,152.1,M,53.8,M,,*44
152 12 16 55 4333.6986700128.74549152.5ó 00128.74549 152.5 0 0 0 110110 1000000 0 110110 1000000 0 1101101010 1010110000 1011011111 1111101111 10000100100 1100101101 1100011100 1100101010 1100011000 25.063 46.906 999.64 153942 16 15 14 59 50 4 $GNGGA,121655.00,4333.69867,N,00128.74549,E,1,04,1.92,152.5,M,53.8,M,,*44
153 12 16 56 4333.6986000128.74572152.6ó 00128.74572 152.6 0 0 0 110110 1000000 0 110110 1000000 0 1101101001 1010101111 1011100010 1111101111 10000100101 1100100110 1100011010 1100110011 1100011111 25.063 46.967 999.65 154942 17 15 14 60 51 3 $GNGGA,121656.00,4333.69860,N,00128.74572,E,1,04,1.92,152.6,M,53.8,M,,*4B
154 12 16 57 4333.6981500128.74513152.6ó 00128.74513 152.6 0 0 0 110110 1000000 0 110110 1000000 0 1101101001 1010110001 1011100011 1111110100 10000100101 1100101001 1100010010 1100101101 1100010111 25.125 46.990 999.64 155942 15 15 15 59 51 3 $GNGGA,121657.00,4333.69815,N,00128.74513,E,1,04,1.92,152.6,M,53.8,M,,*4F
155 12 16 58 4333.6981400128.74483152.6ó 00128.74483 152.6 0 0 0 110110 1000000 0 110110 1000000 0 1101101001 1010110011 1011100011 1111110000 10000100101 1100101100 1100011000 1100101100 1100011100 25.125 46.967 999.66 156941 15 16 14 59 52 3 $GNGGA,121658.00,4333.69814,N,00128.74483,E,1,04,1.92,152.6,M,53.8,M,,*49
156 12 16 59 4333.6984000128.74465152.6ó 00128.74465 152.6 0 0 0 110110 1000000 0 110110 1000000 0 1101101010 1010110000 1011100011 1111110001 10000100101 1100101011 1100011010 1100101111 1100011001 25.063 46.883 999.66 157938 17 14 13 59 51 4 $GNGGA,121659.00,4333.69840,N,00128.74465,E,1,04,1.92,152.6,M,53.8,M,,*41
157 12 17 00 4333.6978200128.74430152.8ó 00128.74430 152.8 0 0 0 110110 1000000 0 110110 1000000 0 1101101001 1010101110 1011100010 1111101001 10000100100 1100100101 1100010101 1100101101 1100100001 25.125 46.822 999.66 158938 15 16 14 59 51 4 $GNGGA,121700.00,4333.69782,N,00128.74430,E,1,04,1.92,152.8,M,53.8,M,,*43
158 12 17 01 4333.6977900128.74418152.9ó 00128.74418 152.9 0 0 0 110110 1000000 0 110110 1000000 0 1101101010 1010110001 1011100010 1111110001 10000100110 1100100111 1100010110 1100101011 1100011111 25.063 46.799 999.66 159936 17 14 13 59 51 4 $GNGGA,121701.00,4333.69779,N,00128.74418,E,1,04,1.93,152.9,M,53.8,M,,*4C
159 12 17 02 4333.6974400128.74409152.9ó 00128.74409 152.9 0 0 0 110110 1000000 0 110110 1000000 0 1101101010 1010110000 1011100001 1111101110 10000100100 1100100001 1100001110 1100101101 1100100000 25.125 46.761 999.67 160934 15 15 15 59 50 4 $GNGGA,121702.00,4333.69744,N,00128.74409,E,1,04,1.93,152.9,M,53.8,M,,*41
160 12 17 03 4333.6961600128.74316152.7ó 00128.74316 152.7 0 0 0 110110 1000000 0 110110 1000000 0 1101101001 1010101110 1011011110 1111110010 10000100100 1100100111 1100010010 1100101111 1100010101 25.000 46.830 999.65 161934 16 14 13 60 50 4 $GNGGA,121703.00,4333.69616,N,00128.74316,E,1,05,1.58,152.7,M,53.8,M,,*47
161 12 17 04 4333.6954800128.74265152.7ó 00128.74265 152.7 0 0 0 110110 1000000 0 110110 1000000 0 1101101001 1010101111 1011100000 1111110011 10000100101 1100100001 1100010001 1100101010 1100010111 25.063 46.799 999.65 162933 16 14 14 58 51 4 $GNGGA,121704.00,4333.69548,N,00128.74265,E,1,04,1.93,152.7,M,53.8,M,,*4B
162 12 17 05 4333.6949200128.74237152.8ó 00128.74237 152.8 0 0 0 110110 1000000 0 110110 1000000 0 1101101010 1010101111 1011100010 1111101000 10000100001 1100101010 1100010111 1100110001 1100011000 25.125 46.769 999.65 163933 15 16 14 59 52 3 $GNGGA,121705.00,4333.69492,N,00128.74237,E,1,04,1.93,152.8,M,53.8,M,,*44
163 12 17 06 4333.6948600128.74244152.8ó 00128.74244 152.8 0 0 0 110110 1000000 0 110110 1000000 0 1101101001 1010110010 1011100010 1111101101 10000100100 1100100011 1100011001 1100100111 1100010101 25.188 46.746 999.65 164932 17 15 14 60 51 3 $GNGGA,121706.00,4333.69486,N,00128.74244,E,1,04,1.93,152.8,M,53.8,M,,*46
164 12 17 07 4333.6934800128.74203152.7ó 00128.74203 152.7 0 0 0 110110 1000000 0 110110 1000000 0 1101101010 1010110010 1011100011 1111101101 10000100101 1100101101 1100011000 1100100101 1100010011 25.063 46.731 999.66 165931 15 16 15 59 51 3 $GNGGA,121707.00,4333.69348,N,00128.74203,E,1,05,1.58,152.7,M,53.8,M,,*48
165 12 17 08 4333.6927600128.74179152.5ó 00128.74179 152.5 0 0 0 110110 1000000 0 110110 1000000 0 1101101001 1010101111 1011100011 1111101100 10000100101 1100101100 1100011001 1100101100 1100011101 25.000 46.731 999.67 166930 17 14 14 60 51 3 $GNGGA,121708.00,4333.69276,N,00128.74179,E,1,05,1.58,152.5,M,53.8,M,,*47
166 12 17 09 4333.6922400128.74157152.3ó 00128.74157 152.3 0 0 0 110110 1000000 0 110110 1000000 0 1101101001 1010101110 1011100000 1111110100 10000100110 1100101010 1100011011 1100101100 1100011000 25.000 46.746 999.66 167928 16 14 14 58 51 4 $GNGGA,121709.00,4333.69224,N,00128.74157,E,1,05,1.58,152.3,M,53.8,M,,*4B
167 12 17 10 4333.6919600128.74117152.1ó 00128.74117 152.1 0 0 0 110110 1000000 0 110110 1000000 0 1101101001 1010110000 1011100010 1111101110 10000100100 1100101011 1100011001 1100101001 1100011101 25.000 46.746 999.66 168928 16 15 13 59 51 4 $GNGGA,121710.00,4333.69196,N,00128.74117,E,1,05,1.58,152.1,M,53.8,M,,*4F
168 12 17 11 4333.6913600128.74104152.0ó 00128.74104 152.0 0 0 0 110110 1000000 0 110110 1000000 0 1101101001 1010110000 1011100100 1111101101 10000100100 1100100111 1100011011 1100101010 1100010010 25.063 46.731 999.66 169926 17 15 14 60 51 3 $GNGGA,121711.00,4333.69136,N,00128.74104,E,1,05,1.58,152.0,M,53.8,M,,*47
169 12 17 12 4333.6917200128.74006151.8ó 00128.74006 151.8 0 0 0 110110 1000000 0 110110 1000000 0 1101101010 1010110000 1011100011 1111101011 10000100011 1100101001 1100011010 1100110000 1100011010 25.000 46.715 999.65 170926 15 16 14 59 51 4 $GNGGA,121712.00,4333.69172,N,00128.74006,E,1,05,1.58,151.8,M,53.8,M,,*4C
170 12 17 13 4333.6915500128.73976151.6ó 00128.73976 151.6 0 0 0 110110 1000000 0 110110 1000000 0 1101101001 1010101110 1011100001 1111101100 10000100011 1100101101 1100011010 1100100111 1100010000 25.000 46.708 999.65 171923 17 14 13 59 51 4 $GNGGA,121713.00,4333.69155,N,00128.73976,E,1,05,1.58,151.6,M,53.8,M,,*4F
171 12 17 14 4333.6913700128.73936151.5ó 00128.73936 151.5 0 0 0 110110 1000000 0 110110 1000000 0 1101101001 1010101100 1011100000 1111101011 10000100100 1100101111 1100011001 1100101100 1100011110 25.000 46.708 999.65 172923 15 15 15 59 51 3 $GNGGA,121714.00,4333.69137,N,00128.73936,E,1,05,1.58,151.5,M,53.8,M,,*4B
172 12 17 15 4333.6911800128.73934151.1ó 00128.73934 151.1 0 0 0 110110 1000000 0 110110 1000000 0 1101101001 1010101110 1011100010 1111101101 10000100101 1100101101 1100011111 1100100111 1100010100 25.000 46.731 999.66 173922 16 15 13 58 52 4 $GNGGA,121715.00,4333.69118,N,00128.73934,E,1,05,1.58,151.1,M,53.8,M,,*41
173 12 17 16 4333.6902800128.73846151.0ó 00128.73846 151.0 0 0 0 110110 1000000 0 110110 1000000 0 1101101001 1010110010 1011100110 1111101100 10000100100 1100101101 1100011100 1100101010 1100010100 25.000 46.753 999.67 174921 17 14 13 58 51 4 $GNGGA,121716.00,4333.69028,N,00128.73846,E,1,05,1.58,151.0,M,53.8,M,,*45
174 12 17 17 4333.6902200128.73835151.0ó 00128.73835 151.0 0 0 0 110110 1000000 0 110110 1000000 0 1101101010 1010110001 1011100001 1111101000 10000100011 1100101001 1100010010 1100101010 1100010011 25.125 46.746 999.67 175920 16 15 13 58 51 5 $GNGGA,121717.00,4333.69022,N,00128.73835,E,1,04,1.93,151.0,M,53.8,M,,*4C
175 12 17 18 4333.6906300128.73811150.8ó 00128.73811 150.8 0 0 0 110110 1000000 0 110110 1000000 0 1101101001 1010110010 1011100101 1111101011 10000100011 1100101100 1100010110 1100101101 1100010110 25.188 46.738 999.67 176919 17 15 14 60 51 3 $GNGGA,121718.00,4333.69063,N,00128.73811,E,1,04,1.93,150.8,M,53.8,M,,*49
176 12 17 19 4333.6906800128.73798150.7ó 00128.73798 150.7 0 0 0 110110 1000000 0 110110 1000000 0 1101101001 1010110010 1011100011 1111100110 10000100011 1100100110 1100010100 1100100110 1100010010 25.063 46.723 999.66 177917 16 15 15 59 51 3 $GNGGA,121719.00,4333.69068,N,00128.73798,E,1,04,1.93,150.7,M,53.8,M,,*42
177 12 17 20 4333.6905300128.73702150.8ó 00128.73702 150.8 0 0 0 110110 1000000 0 110110 1000000 0 1101101001 1010101110 1011100000 1111101101 10000100011 1100101101 1100011101 1100101100 1100010011 25.000 46.738 999.65 178917 16 15 14 60 51 3 $GNGGA,121720.00,4333.69053,N,00128.73702,E,1,04,1.93,150.8,M,53.8,M,,*4C
178 12 17 21 4333.6910800128.73725150.7ó 00128.73725 150.7 0 0 0 110110 1000000 0 110110 1000000 0 1101101010 1010110010 1011100011 1111101100 10000100011 1100101011 1100011001 1100101110 1100011100 25.000 46.769 999.64 179916 15 15 15 59 51 3 $GNGGA,121721.00,4333.69108,N,00128.73725,E,1,04,1.93,150.7,M,53.8,M,,*48
179 12 17 22 4333.6917500128.73770150.6ó 00128.73770 150.6 0 0 0 110110 1000000 0 110110 1000000 0 1101101010 1010110000 1011100000 1111101000 10000100011 1100101100 1100011000 1100101111 1100100001 25.000 46.822 999.64 180916 15 16 14 59 52 3 $GNGGA,121722.00,4333.69175,N,00128.73770,E,1,04,1.93,150.6,M,53.8,M,,*40
180 12 17 23 4333.6924400128.73795150.6ó 00128.73795 150.6 0 0 0 110110 1000000 0 110110 1000000 0 1101101001 1010101111 1011100011 1111101001 10000100100 1100101001 1100011001 1100101000 1100010110 25.063 46.830 999.64 181913 17 14 13 60 50 4 $GNGGA,121723.00,4333.69244,N,00128.73795,E,1,04,1.93,150.6,M,53.8,M,,*4B
181 12 17 24 4333.6931300128.73835150.6ó 00128.73835 150.6 0 0 0 110110 1000000 0 110110 1000000 0 1101101010 1010101110 1011100011 1111101001 10000100011 1100110010 1100011001 1100100111 1100010000 25.000 46.883 999.64 182913 15 16 15 59 51 3 $GNGGA,121724.00,4333.69313,N,00128.73835,E,1,04,1.93,150.6,M,53.8,M,,*4A
182 12 17 25 4333.6939000128.73912150.6ó 00128.73912 150.6 0 0 0 110110 1000000 0 110110 1000000 0 1101101010 1010110000 1011100010 1111100111 10000100010 1100101100 1100011100 1100101000 1100010111 25.000 46.975 999.64 183912 17 15 13 60 50 4 $GNGGA,121725.00,4333.69390,N,00128.73912,E,1,04,1.93,150.6,M,53.8,M,,*44
183 12 17 26 4333.6940900128.73932150.6ó 00128.73932 150.6 0 0 0 110110 1000000 0 110110 1000000 0 1101101001 1010101111 1011100011 1111101011 10000100110 1100101010 1100011010 1100100110 1100010011 25.063 47.020 999.63 184910 16 14 14 59 50 4 $GNGGA,121726.00,4333.69409,N,00128.73932,E,1,04,1.93,150.6,M,53.8,M,,*42
184 12 17 27 4333.6942900128.73966150.6ó 00128.73966 150.6 0 0 0 110110 1000000 0 110110 1000000 0 1101101001 1010101111 1011100000 1111110001 10000100101 1100101011 1100011010 1100101010 1100011011 25.000 47.066 999.63 185910 16 15 13 59 51 4 $GNGGA,121727.00,4333.69429,N,00128.73966,E,1,04,1.93,150.6,M,53.8,M,,*40
185 12 17 28 4333.6945100128.73965150.5ó 00128.73965 150.5 0 0 0 110110 1000000 0 110110 1000000 0 1101101001 1010110001 1011100011 1111101111 10000100100 1100101010 1100010110 1100101010 1100011010 25.000 47.082 999.63 186909 16 15 14 60 51 3 $GNGGA,121728.00,4333.69451,N,00128.73965,E,1,04,1.93,150.5,M,53.8,M,,*40
186 12 17 29 4333.6947500128.73998150.3ó 00128.73998 150.3 0 0 0 110110 1000000 0 110110 1000000 0 1101101001 1010110011 1011011111 1111110010 10000100100 1100100111 1100010110 1100100101 1100011000 25.000 47.051 999.64 187909 15 16 14 59 50 5 $GNGGA,121729.00,4333.69475,N,00128.73998,E,1,04,1.93,150.3,M,53.8,M,,*43
187 12 17 30 4333.6951100128.74001150.0ó 00128.74001 150.0 0 0 0 110110 1000000 0 110110 1000000 0 1101101001 1010110100 1011100001 1111111001 10000100100 1100101000 1100011001 1100101110 1100010111 25.000 47.036 999.63 188907 16 15 14 60 51 3 $GNGGA,121730.00,4333.69511,N,00128.74001,E,1,04,1.93,150.0,M,53.8,M,,*45
188 12 17 31 4333.6960700128.74040149.7ó 00128.74040 149.7 0 0 0 110110 1000000 0 110110 1000000 0 1101101001 1010110010 1011100011 1111110011 10000100100 1100101000 1100011000 1100101010 1100011010 25.000 47.036 999.63 189903 16 14 14 58 51 4 $GNGGA,121731.00,4333.69607,N,00128.74040,E,1,04,1.93,149.7,M,53.8,M,,*4A
