id HH MM SS longitude latitude altitude adc_1_ch0 adc_1_ch1 adc_1_ch2 adc_1_ch3 adc_1_ch4 adc_1_ch5 adc_1_ch6 adc_1_ch7 adc_1_ch8 adc_2_ch0 adc_2_ch1 adc_2_ch2 adc_2_ch3 adc_2_ch4 adc_2_ch5 adc_2_ch6 adc_2_ch7 adc_2_ch8 temp hum pres t_prog t_gps t_split t_adc t_temp t_hum t_pres trame_gga
1 12 18 27 4333.6919100128.73736149.1ó 00128.73736 149.1 1101100 10 0 1101100 10 0 1101100 10 0 1101101001 1010110001 1011100100 1111101100 10000100100 1100101001 1100011001 1100110100 1100011101 25.000 48.157 795.83 2471 15 15 15 59 51 3 $GNGGA,121827.00,4333.69191,N,00128.73736,E,1,06,1.43,149.1,M,53.8,M,,*42
2 12 18 28 4333.6921000128.73742149.1ó 00128.73742 149.1 0 0 0 1101100 10 0 1101100 10 0 1101101001 1010110001 1011100001 1111110010 10000100110 1100101101 1100011000 1100110000 1100011000 25.000 48.195 999.61 3469 15 15 13 58 52 4 $GNGGA,121828.00,4333.69210,N,00128.73742,E,1,06,1.43,149.1,M,53.8,M,,*44
3 12 18 29 4333.6921800128.73745149.0ó 00128.73745 149.0 0 0 0 1101100 10 0 1101100 10 0 1101101010 1010101011 1011011110 1111110101 10000100110 1100100101 1100010101 1100101111 1100010111 25.000 48.157 999.63 4467 17 15 13 60 50 4 $GNGGA,121829.00,4333.69218,N,00128.73745,E,1,06,1.43,149.0,M,53.8,M,,*4B
4 12 18 30 4333.6927800128.73722149.2ó 00128.73722 149.2 0 0 0 1101100 10 0 1101100 10 0 1101101010 1010110011 1011100011 1111110100 10000100110 1100101000 1100010011 1100100111 1100010001 25.000 48.096 999.64 5468 15 16 14 59 52 3 $GNGGA,121830.00,4333.69278,N,00128.73722,E,1,06,1.43,149.2,M,53.8,M,,*46
5 12 18 31 4333.6932900128.73722149.3ó 00128.73722 149.3 0 0 0 1101100 10 0 1101100 10 0 1101101001 1010110011 1011100010 1111110000 10000100100 1100100001 1100010011 1100101010 1100010100 25.000 48.073 999.64 6467 16 14 13 59 51 4 $GNGGA,121831.00,4333.69329,N,00128.73722,E,1,06,1.43,149.3,M,53.8,M,,*43
6 12 18 32 4333.6929900128.73703149.3ó 00128.73703 149.3 0 0 0 1101100 10 0 1101100 10 0 1101101001 1010110000 1011100000 1111101101 10000100100 1100101001 1100011011 1100110000 1100010111 25.000 48.089 999.65 7467 15 16 15 59 51 3 $GNGGA,121832.00,4333.69299,N,00128.73703,E,1,06,1.43,149.3,M,53.8,M,,*49
7 12 18 33 4333.6935800128.73720149.2ó 00128.73720 149.2 0 0 0 1101100 10 0 1101100 10 0 1101101001 1010110000 1011100100 1111101100 10000100011 1100100111 1100010110 1100100101 1100010000 25.000 48.165 999.64 8465 16 15 14 60 51 3 $GNGGA,121833.00,4333.69358,N,00128.73720,E,1,06,1.43,149.2,M,53.8,M,,*44
8 12 18 34 4333.6937400128.73738149.2ó 00128.73738 149.2 0 0 0 1101100 10 0 1101100 10 0 1101101001 1010101111 1011100011 1111110010 10000100100 1100100010 1100010100 1100100101 1100011010 25.125 48.180 999.64 9463 15 14 14 58 51 4 $GNGGA,121834.00,4333.69374,N,00128.73738,E,1,06,1.43,149.2,M,53.8,M,,*44
9 12 18 35 4333.6937500128.73764149.2ó 00128.73764 149.2 0 0 0 1101100 10 0 1101100 10 0 1101101010 1010110000 1011100101 1111110001 10000100100 1100100101 1100010101 1100100101 1100010001 25.125 48.165 999.65 10463 15 15 13 58 52 4 $GNGGA,121835.00,4333.69375,N,00128.73764,E,1,06,1.43,149.2,M,53.8,M,,*4D
10 12 18 36 4333.6936800128.73758149.2ó 00128.73758 149.2 0 0 0 1101100 10 0 1101100 10 0 1101101001 1010110000 1011100011 1111100111 10000100010 1100101100 1100011010 1100101000 1100011011 25.063 48.142 999.65 11462 17 15 13 60 50 4 $GNGGA,121836.00,4333.69368,N,00128.73758,E,1,06,1.43,149.2,M,53.8,M,,*4D
11 12 18 37 4333.6938000128.73776149.0ó 00128.73776 149.0 0 0 0 1101100 10 0 1101100 10 0 1101101001 1010110000 1011100000 1111101010 10000100111 1100101000 1100010111 1100100010 1100010110 25.000 48.043 999.63 12462 15 16 14 59 51 4 $GNGGA,121837.00,4333.69380,N,00128.73776,E,1,06,1.43,149.0,M,53.8,M,,*44
12 12 18 38 4333.6937900128.73780149.0ó 00128.73780 149.0 0 0 0 1101100 10 0 1101100 10 0 1101101010 1010110100 1011100011 1111101000 10000100100 1100101101 1100011011 1100110000 1100011010 25.000 47.959 999.63 13460 16 15 14 60 51 3 $GNGGA,121838.00,4333.69379,N,00128.73780,E,1,06,1.43,149.0,M,53.8,M,,*44
13 12 18 39 4333.6936700128.73768149.0ó 00128.73768 149.0 0 0 0 1101100 10 0 1101100 10 0 1101101010 1010101110 1011100010 1111101001 10000100011 1100100100 1100010011 1100101001 1100010101 25.063 47.913 999.63 14458 15 15 15 59 51 3 $GNGGA,121839.00,4333.69367,N,00128.73768,E,1,06,1.43,149.0,M,53.8,M,,*4C
14 12 18 40 4333.6942000128.73775149.3ó 00128.73775 149.3 0 0 0 1101100 10 0 1101100 10 0 1101101010 1010110010 1011100011 1111101101 10000100101 1100101000 1100010100 1100101101 1100011001 25.000 47.921 999.64 15456 15 15 13 58 52 4 $GNGGA,121840.00,4333.69420,N,00128.73775,E,1,06,1.43,149.3,M,53.8,M,,*49
15 12 18 41 4333.6941400128.73775149.0ó 00128.73775 149.0 0 0 0 1101100 10 0 1101100 10 0 1101101010 1010101111 1011100011 1111101010 10000100110 1100101000 1100010101 1100100010 1100010000 25.000 47.967 999.64 16456 16 14 13 59 51 4 $GNGGA,121841.00,4333.69414,N,00128.73775,E,1,06,1.43,149.0,M,53.8,M,,*4C
16 12 18 42 4333.6943100128.73757149.1ó 00128.73757 149.1 0 0 0 1101100 10 0 1101100 10 0 1101101001 1010110010 1011100100 1111101110 10000100101 1100101110 1100010111 1100011111 1100001101 25.063 47.967 999.63 17456 15 15 13 58 51 5 $GNGGA,121842.00,4333.69431,N,00128.73757,E,1,06,1.43,149.1,M,53.8,M,,*49
17 12 18 43 4333.6946900128.73763148.8ó 00128.73763 148.8 0 0 0 1101100 10 0 1101100 10 0 1101101001 1010101111 1011100001 1111110010 10000100111 1100101011 1100010011 1100100111 1100010110 25.063 47.974 999.64 18455 16 14 13 59 51 4 $GNGGA,121843.00,4333.69469,N,00128.73763,E,1,06,1.43,148.8,M,53.8,M,,*4A
18 12 18 44 4333.6946800128.73759148.9ó 00128.73759 148.9 0 0 0 1101100 10 0 1101100 10 0 1101101010 1010110010 1011100100 1111110101 10000101000 1100101110 1100011010 1100101001 1100010110 25.125 47.913 999.64 19453 15 15 15 59 51 3 $GNGGA,121844.00,4333.69468,N,00128.73759,E,1,06,1.43,148.9,M,53.8,M,,*44
19 12 18 45 4333.6945500128.73779148.9ó 00128.73779 148.9 0 0 0 1101100 10 0 1101100 10 0 1101101010 1010110000 1011100010 1111101111 10000100011 1100101011 1100011001 1100110000 1100011101 25.000 47.692 999.64 20453 17 15 13 60 50 4 $GNGGA,121845.00,4333.69455,N,00128.73779,E,1,06,1.43,148.9,M,53.8,M,,*49
20 12 18 46 4333.6938600128.73801149.0ó 00128.73801 149.0 0 0 0 1101100 10 0 1101100 10 0 1101101001 1010110010 1011100010 1111111100 10000101010 1100101110 1100011011 1100101100 1100011000 25.063 47.509 999.64 21451 15 14 14 58 51 4 $GNGGA,121846.00,4333.69386,N,00128.73801,E,1,06,1.43,149.0,M,53.8,M,,*4B
21 12 18 47 4333.6941100128.73806149.0ó 00128.73806 149.0 0 0 0 1101100 10 0 1101100 10 0 1101101001 1010110001 1011100100 1111110000 10000100110 1100101001 1100010101 1100101100 1100011001 25.000 47.402 999.65 22451 15 16 14 59 51 4 $GNGGA,121847.00,4333.69411,N,00128.73806,E,1,06,1.43,149.0,M,53.8,M,,*44
22 12 18 48 4333.6936500128.73800149.2ó 00128.73800 149.2 0 0 0 1101100 10 0 1101100 10 0 1101101010 1010110101 1011100110 1111110001 10000100011 1100101000 1100011001 1100101001 1100010100 25.000 47.333 999.66 23451 17 15 13 60 50 4 $GNGGA,121848.00,4333.69365,N,00128.73800,E,1,06,1.43,149.2,M,53.8,M,,*4B
23 12 18 49 4333.6936100128.73816149.2ó 00128.73816 149.2 0 0 0 1101100 10 0 1101100 10 0 1101101001 1010110011 1011100011 1111110100 10000100111 1100101100 1100010101 1100101110 1100011100 25.000 47.280 999.65 24450 15 16 15 59 51 3 $GNGGA,121849.00,4333.69361,N,00128.73816,E,1,06,1.43,149.2,M,53.8,M,,*49
24 12 18 50 4333.6936900128.73800149.6ó 00128.73800 149.6 0 0 0 1101100 10 0 1101100 10 0 1101101001 1010110001 1011100100 1111110011 10000100100 1100101000 1100010010 1100110111 1100100001 25.000 47.242 999.65 25448 17 14 13 59 51 4 $GNGGA,121850.00,4333.69369,N,00128.73800,E,1,06,1.43,149.6,M,53.8,M,,*4A
25 12 18 51 4333.6942100128.73797149.7ó 00128.73797 149.7 0 0 0 1101100 10 0 1101100 10 0 1101101010 1010110000 1011100101 1111110010 10000100110 1100101001 1100011001 1100110001 1100010110 25.000 47.219 999.64 26444 16 14 14 59 50 4 $GNGGA,121851.00,4333.69421,N,00128.73797,E,1,06,1.43,149.7,M,53.8,M,,*40
26 12 18 52 4333.6938300128.73812150.0ó 00128.73812 150.0 0 0 0 1101100 10 0 1101100 10 0 1101101010 1010110000 1011100000 1111110000 10000100101 1100101001 1100011001 1100101101 1100011000 25.000 47.204 999.64 27445 15 15 13 58 52 4 $GNGGA,121852.00,4333.69383,N,00128.73812,E,1,06,1.43,150.0,M,53.8,M,,*41
27 12 18 53 4333.6935800128.73799150.3ó 00128.73799 150.3 0 0 0 1101100 10 0 1101100 10 0 1101101001 1010110000 1011100011 1111101110 10000100101 1100101101 1100011011 1100110000 1100011100 25.000 47.196 999.64 28445 16 15 14 60 51 3 $GNGGA,121853.00,4333.69358,N,00128.73799,E,1,06,1.43,150.3,M,53.8,M,,*49
28 12 18 54 4333.6934000128.73803150.6ó 00128.73803 150.6 0 0 0 1101100 10 0 1101100 10 0 1101101010 1010110000 1011100011 1111101011 10000100101 1100101010 1100010101 1100101010 1100010101 25.000 47.188 999.64 29443 16 15 13 59 50 5 $GNGGA,121854.00,4333.69340,N,00128.73803,E,1,06,1.43,150.6,M,53.8,M,,*4E
29 12 18 55 4333.6933800128.73791150.6ó 00128.73791 150.6 0 0 0 1101100 10 0 1101100 10 0 1101101001 1010110100 1011100110 1111101001 10000100100 1100110000 1100011101 1100101101 1100011001 25.000 47.181 999.65 30443 16 15 14 60 51 3 $GNGGA,121855.00,4333.69338,N,00128.73791,E,1,06,1.43,150.6,M,53.8,M,,*44
30 12 18 56 4333.6933600128.73773151.0ó 00128.73773 151.0 0 0 0 1101100 10 0 1101100 10 0 1101101001 1010110001 1011100011 1111101010 10000100100 1100100001 1100010100 1100100100 1100010001 25.000 47.173 999.65 31442 15 15 15 59 51 3 $GNGGA,121856.00,4333.69336,N,00128.73773,E,1,06,1.43,151.0,M,53.8,M,,*42
31 12 18 57 4333.6935900128.73776151.0ó 00128.73776 151.0 0 0 0 1101100 10 0 1101100 10 0 1101101001 1010110000 1011100011 1111101010 10000100110 1100101110 1100011000 1100100011 1100010010 25.000 47.173 999.64 32440 16 15 13 58 52 4 $GNGGA,121857.00,4333.69359,N,00128.73776,E,1,06,1.43,151.0,M,53.8,M,,*4F
32 12 18 58 4333.6934300128.73793150.7ó 00128.73793 150.7 0 0 0 1101100 10 0 1101100 10 0 1101101001 1010110100 1011100110 1111101011 10000100011 1100101010 1100011001 1100101110 1100010011 25.000 47.173 999.64 33437 17 14 13 60 50 4 $GNGGA,121858.00,4333.69343,N,00128.73793,E,1,06,1.43,150.7,M,53.8,M,,*46
33 12 18 59 4333.6936200128.73795150.9ó 00128.73795 150.9 0 0 0 1101100 10 0 1101100 10 0 1101101010 1010110000 1011100011 1111100110 10000100101 1100100110 1100011001 1100101010 1100010100 25.000 47.165 999.65 34438 16 15 13 59 51 4 $GNGGA,121859.00,4333.69362,N,00128.73795,E,1,06,1.43,150.9,M,53.8,M,,*4C
34 12 19 00 4333.6940400128.73787150.7ó 00128.73787 150.7 0 0 0 1101100 10 0 1101100 10 0 1101101001 1010110001 1011100011 1111101001 10000100101 1100101000 1100011000 1100110001 1100010011 25.000 47.173 999.64 35437 17 14 13 60 50 4 $GNGGA,121900.00,4333.69404,N,00128.73787,E,1,06,1.43,150.7,M,53.8,M,,*4B
35 12 19 01 4333.6934500128.73754151.0ó 00128.73754 151.0 0 0 0 1101100 10 0 1101100 10 0 1101101010 1010110001 1011100101 1111110000 10000100111 1100100100 1100011000 1100110000 1100010011 25.000 47.204 999.63 36436 15 15 15 59 51 3 $GNGGA,121901.00,4333.69345,N,00128.73754,E,1,06,1.43,151.0,M,53.8,M,,*40
36 12 19 02 4333.6932300128.73772151.4ó 00128.73772 151.4 0 0 0 1101100 10 0 1101100 10 0 1101101001 1010101110 1011100010 1111101110 10000100011 1100110000 1100011101 1100101010 1100010010 25.000 47.242 999.63 37434 15 14 13 59 51 4 $GNGGA,121902.00,4333.69323,N,00128.73772,E,1,06,1.43,151.4,M,53.8,M,,*43
37 12 19 03 4333.6933100128.73768151.8ó 00128.73768 151.8 0 0 0 1101100 10 0 1101100 10 0 1101101001 1010110000 1011100110 1111101111 10000100100 1100101000 1100010111 1100101111 1100011111 25.000 47.272 999.63 38434 15 15 15 59 51 3 $GNGGA,121903.00,4333.69331,N,00128.73768,E,1,06,1.43,151.8,M,53.8,M,,*46
38 12 19 04 4333.6928800128.73782152.0ó 00128.73782 152.0 0 0 0 1101100 10 0 1101100 10 0 1101101010 1010101110 1011100000 1111101100 10000100100 1100101000 1100010011 1100110001 1100011010 25.000 47.280 999.64 39433 15 15 13 58 52 4 $GNGGA,121904.00,4333.69288,N,00128.73782,E,1,06,1.43,152.0,M,53.8,M,,*4D
39 12 19 05 4333.6923800128.73795152.1ó 00128.73795 152.1 0 0 0 1101100 10 0 1101100 10 0 1101101001 1010110000 1011100010 1111100010 10000100010 1100101101 1100011100 1100101100 1100100000 25.000 47.288 999.64 40432 16 14 13 60 51 4 $GNGGA,121905.00,4333.69238,N,00128.73795,E,1,06,1.43,152.1,M,53.8,M,,*40
40 12 19 06 4333.6925500128.73776152.3ó 00128.73776 152.3 0 0 0 1101100 10 0 1101100 10 0 1101101001 1010110011 1011100101 1111101000 10000100100 1100101000 1100010011 1100101100 1100011000 25.000 47.295 999.64 41432 15 16 15 59 51 3 $GNGGA,121906.00,4333.69255,N,00128.73776,E,1,06,1.43,152.3,M,53.8,M,,*47
41 12 19 07 4333.6925700128.73776152.8ó 00128.73776 152.8 0 0 0 1101100 10 0 1101100 10 0 1101101010 1010110000 1011100011 1111101001 10000100101 1100100111 1100010100 1100110101 1100100000 25.063 47.288 999.64 42430 16 15 14 60 51 3 $GNGGA,121907.00,4333.69257,N,00128.73776,E,1,06,1.43,152.8,M,53.8,M,,*4F
42 12 19 08 4333.6925500128.73802153.0ó 00128.73802 153.0 0 0 0 1101100 10 0 1101100 10 0 1101101001 1010110001 1011100011 1111101001 10000100010 1100101000 1100010111 1100101001 1100011000 25.000 47.280 999.64 43429 15 14 14 58 51 4 $GNGGA,121908.00,4333.69255,N,00128.73802,E,1,06,1.43,153.0,M,53.8,M,,*47
43 12 19 09 4333.6922600128.73810153.4ó 00128.73810 153.4 0 0 0 1101100 10 0 1101100 10 0 1101101001 1010110000 1011100010 1111101000 10000100100 1100101010 1100011000 1100101000 1100010111 25.000 47.280 999.64 44427 15 15 13 58 52 4 $GNGGA,121909.00,4333.69226,N,00128.73810,E,1,06,1.43,153.4,M,53.8,M,,*45
44 12 19 10 4333.6918500128.73827153.6ó 00128.73827 153.6 0 0 0 1101100 10 0 1101100 10 0 1101101001 1010101111 1011100111 1111101111 10000100110 1100101011 1100010100 1100100000 1100010001 25.000 47.303 999.64 45427 17 14 13 59 50 4 $GNGGA,121910.00,4333.69185,N,00128.73827,E,1,06,1.43,153.6,M,53.8,M,,*41
45 12 19 11 4333.6916600128.73856153.9ó 00128.73856 153.9 0 0 0 1101100 10 0 1101100 10 0 1101101001 1010110011 1011100110 1111101011 10000100110 1100101010 1100010011 1100100111 1100011110 25.000 47.318 999.64 46426 16 15 13 59 50 5 $GNGGA,121911.00,4333.69166,N,00128.73856,E,1,06,1.43,153.9,M,53.8,M,,*44
46 12 19 12 4333.6916900128.73864153.8ó 00128.73864 153.8 0 0 0 1101100 10 0 1101100 10 0 1101101010 1010110001 1011100011 1111110000 10000100110 1100101001 1100010100 1100100100 1100010110 25.000 47.326 999.65 47424 17 14 13 60 50 4 $GNGGA,121912.00,4333.69169,N,00128.73864,E,1,06,1.43,153.8,M,53.8,M,,*48
47 12 19 13 4333.6917400128.73867153.9ó 00128.73867 153.9 0 0 0 1101100 10 0 1101100 10 0 1101101001 1010110000 1011100011 1111110011 10000100111 1100101000 1100010110 1100011101 1100001010 25.000 47.349 999.65 48423 15 15 15 59 51 3 $GNGGA,121913.00,4333.69174,N,00128.73867,E,1,06,1.43,153.9,M,53.8,M,,*47
48 12 19 14 4333.6920000128.73887153.9ó 00128.73887 153.9 0 0 0 1101100 10 0 1101100 10 0 1101101010 1010101101 1011100011 1111101010 10000100110 1100101110 1100011000 1100101011 1100011010 25.000 47.326 999.64 49423 15 15 14 60 51 3 $GNGGA,121914.00,4333.69200,N,00128.73887,E,1,06,1.43,153.9,M,53.8,M,,*4E
49 12 19 15 4333.6914200128.73902154.1ó 00128.73902 154.1 0 0 0 1101100 10 0 1101100 10 0 1101101010 1010110011 1011100111 1111101010 10000100100 1100101101 1100011110 1100100111 1100010001 25.000 47.326 999.65 50422 15 15 15 59 51 3 $GNGGA,121915.00,4333.69142,N,00128.73902,E,1,06,1.43,154.1,M,53.8,M,,*49
50 12 19 16 4333.6915400128.73899154.2ó 00128.73899 154.2 0 0 0 1101100 10 0 1101100 10 0 1101101010 1010110011 1011100100 1111101101 10000100101 1100101011 1100011001 1100100001 1100001111 25.000 47.371 999.65 51421 15 15 13 58 52 4 $GNGGA,121916.00,4333.69154,N,00128.73899,E,1,06,1.43,154.2,M,53.8,M,,*4D
51 12 19 17 4333.6913000128.73894154.5ó 00128.73894 154.5 0 0 0 1101100 10 0 1101100 10 0 1101101010 1010110010 1011100101 1111101000 10000100100 1100101000 1100010110 1100100111 1100010100 25.000 47.356 999.64 52420 16 15 14 60 51 3 $GNGGA,121917.00,4333.69130,N,00128.73894,E,1,06,1.43,154.5,M,53.8,M,,*44
52 12 19 18 4333.6912800128.73884154.5ó 00128.73884 154.5 0 0 0 1101100 10 0 1101100 10 0 1101101001 1010101110 1011100011 1111101111 10000100101 1100101011 1100011010 1100100011 1100010000 25.000 47.303 999.63 53419 15 15 15 59 51 3 $GNGGA,121918.00,4333.69128,N,00128.73884,E,1,06,1.43,154.5,M,53.8,M,,*43
53 12 19 19 4333.6915200128.73868154.8ó 00128.73868 154.8 0 0 0 1101100 10 0 1101100 10 0 1101101001 1010101111 1011100100 1111101001 10000100100 1100100101 1100010111 1100100101 1100011001 25.000 47.341 999.64 54418 16 15 14 60 51 3 $GNGGA,121919.00,4333.69152,N,00128.73868,E,1,06,1.43,154.8,M,53.8,M,,*40
54 12 19 20 4333.6909600128.73877155.0ó 00128.73877 155.0 0 0 0 1101100 10 0 1101100 10 0 1101101001 1010110010 1011100101 1111101100 10000100101 1100101001 1100010110 1100100011 1100010010 25.000 47.387 999.63 55415 15 14 14 58 51 4 $GNGGA,121920.00,4333.69096,N,00128.73877,E,1,06,1.43,155.0,M,53.8,M,,*44
55 12 19 21 4333.6907900128.73863155.5ó 00128.73863 155.5 0 0 0 1101100 10 0 1101100 10 0 1101101001 1010101111 1011100011 1111100100 10000100100 1100101010 1100010101 1100100110 1100010101 25.000 47.410 999.63 56416 15 16 14 59 52 3 $GNGGA,121921.00,4333.69079,N,00128.73863,E,1,06,1.43,155.5,M,53.8,M,,*44
56 12 19 22 4333.6909300128.73795156.0ó 00128.73795 156.0 0 0 0 1101100 10 0 1101100 10 0 1101101001 1010110001 1011100010 1111100010 10000100100 1100100111 1100011000 1100110101 1100100010 25.000 47.394 999.65 57415 16 14 13 59 51 4 $GNGGA,121922.00,4333.69093,N,00128.73795,E,1,06,1.43,156.0,M,53.8,M,,*43
57 12 19 23 4333.6899900128.73774156.7ó 00128.73774 156.7 0 0 0 1101100 10 0 1101100 10 0 1101101001 1010110000 1011100101 1111101010 10000100101 1100100110 1100010100 1100110001 1100011101 25.000 47.379 999.65 58413 16 15 13 59 50 5 $GNGGA,121923.00,4333.68999,N,00128.73774,E,1,06,1.43,156.7,M,53.8,M,,*48
58 12 19 24 4333.6901300128.73762157.1ó 00128.73762 157.1 0 0 0 1101100 10 0 1101100 10 0 1101101001 1010110000 1011100110 1111100111 10000100101 1100101001 1100010100 1100100110 1100010111 25.000 47.379 999.65 59412 16 15 14 60 51 3 $GNGGA,121924.00,4333.69013,N,00128.73762,E,1,06,1.43,157.1,M,53.8,M,,*45
59 12 19 25 4333.6899700128.73708157.4ó 00128.73708 157.4 0 0 0 1101100 10 0 1101100 10 0 1101101001 1010101100 1011011111 1111100110 10000100101 1100101001 1100010111 1100101000 1100011011 25.000 47.310 999.66 60411 15 14 14 58 51 4 $GNGGA,121925.00,4333.68997,N,00128.73708,E,1,06,1.43,157.4,M,53.8,M,,*49
60 12 19 26 4333.6894100128.73693157.5ó 00128.73693 157.5 0 0 0 1101100 10 0 1101100 10 0 1101101001 1010101111 1011100010 1111101100 10000100101 1100101100 1100010101 1100101011 1100011010 25.000 47.257 999.66 61411 16 16 13 59 51 4 $GNGGA,121926.00,4333.68941,N,00128.73693,E,1,06,1.43,157.5,M,53.8,M,,*43
61 12 19 27 4333.6895800128.73671157.7ó 00128.73671 157.7 0 0 0 1101100 10 0 1101100 10 0 1101101001 1010110100 1011100100 1111100011 10000100100 1100101101 1100011000 1100101010 1100011011 25.000 47.219 999.66 62410 15 15 15 59 51 3 $GNGGA,121927.00,4333.68958,N,00128.73671,E,1,06,1.43,157.7,M,53.8,M,,*44
62 12 19 28 4333.6893900128.73643157.8ó 00128.73643 157.8 0 0 0 1101100 10 0 1101100 10 0 1101101010 1010110000 1011100100 1111101111 10000101000 1100101010 1100010011 1100100111 1100011010 25.000 47.211 999.67 63408 16 15 13 59 50 5 $GNGGA,121928.00,4333.68939,N,00128.73643,E,1,06,1.43,157.8,M,53.8,M,,*42
63 12 19 29 4333.6895300128.73657157.9ó 00128.73657 157.9 0 0 0 1101100 10 0 1101100 10 0 1101101010 1010110010 1011100100 1111101100 10000100011 1100100111 1100010110 1100101000 1100011001 25.000 47.181 999.66 64407 16 15 14 60 51 3 $GNGGA,121929.00,4333.68953,N,00128.73657,E,1,06,1.43,157.9,M,53.8,M,,*4B
64 12 19 30 4333.6892500128.73667157.8ó 00128.73667 157.8 0 0 0 1101100 10 0 1101100 10 0 1101101001 1010110001 1011100110 1111101010 10000100100 1100101000 1100010101 1100100111 1100011101 25.000 47.104 999.65 65405 16 14 14 58 51 4 $GNGGA,121930.00,4333.68925,N,00128.73667,E,1,06,1.43,157.8,M,53.8,M,,*40
65 12 19 31 4333.6894200128.73610158.0ó 00128.73610 158.0 0 0 0 1101100 10 0 1101100 10 0 1101101001 1010110011 1011100110 1111101101 10000100101 1100101001 1100011001 1100101000 1100010100 25.000 47.059 999.65 66404 15 16 14 60 51 3 $GNGGA,121931.00,4333.68942,N,00128.73610,E,1,06,1.43,158.0,M,53.8,M,,*47
66 12 19 32 4333.6894300128.73613157.9ó 00128.73613 157.9 0 0 0 1101100 10 0 1101100 10 0 1101101001 1010110000 1011100010 1111110010 10000100110 1100100110 1100010101 1100101101 1100011010 25.000 47.028 999.65 67405 15 15 15 59 51 3 $GNGGA,121932.00,4333.68943,N,00128.73613,E,1,06,1.43,157.9,M,53.8,M,,*40
67 12 19 33 4333.6897700128.73614157.8ó 00128.73614 157.8 0 0 0 1101100 10 0 1101100 10 0 1101101001 1010110011 1011100101 1111101100 10000100101 1100100110 1100010110 1100101100 1100010101 25.000 47.020 999.64 68404 16 15 13 59 51 4 $GNGGA,121933.00,4333.68977,N,00128.73614,E,1,06,1.43,157.8,M,53.8,M,,*40
68 12 19 34 4333.6898400128.73597157.7ó 00128.73597 157.7 0 0 0 1101100 10 0 1101100 10 0 1101101010 1010110011 1011100010 1111101110 10000100110 1100101101 1100010111 1100100111 1100010000 25.000 47.112 999.65 69402 16 15 14 60 51 3 $GNGGA,121934.00,4333.68984,N,00128.73597,E,1,05,1.70,157.7,M,53.8,M,,*4F
69 12 19 35 4333.6897400128.73567158.0ó 00128.73567 158.0 0 0 0 1101100 10 0 1101100 10 0 1101101001 1010110001 1011100110 1111101111 10000100100 1100101101 1100011001 1100101110 1100010110 25.000 47.196 999.66 70401 15 16 15 59 51 3 $GNGGA,121935.00,4333.68974,N,00128.73567,E,1,06,1.43,158.0,M,53.8,M,,*45
70 12 19 36 4333.6902000128.73563158.0ó 00128.73563 158.0 0 0 0 1101100 10 0 1101100 10 0 1101101001 1010110100 1011100010 1111110011 10000100110 1100100111 1100010101 1100100110 1100010001 25.000 47.234 999.65 71400 16 15 14 60 51 3 $GNGGA,121936.00,4333.69020,N,00128.73563,E,1,06,1.43,158.0,M,53.8,M,,*4B
71 12 19 37 4333.6907000128.73531157.9ó 00128.73531 157.9 0 0 0 1101100 10 0 1101100 10 0 1101101010 1010110001 1011100010 1111110001 10000100101 1100101001 1100010110 1100101101 1100001111 25.000 47.204 999.64 72399 16 15 14 59 50 4 $GNGGA,121937.00,4333.69070,N,00128.73531,E,1,06,1.43,157.9,M,53.8,M,,*4E
72 12 19 38 4333.6904700128.73530158.1ó 00128.73530 158.1 0 0 0 1101100 10 0 1101100 10 0 1101101001 1010110011 1011100100 1111101111 10000100100 1100101100 1100011011 1100101101 1100011011 25.000 47.173 999.65 73396 16 15 13 59 51 4 $GNGGA,121938.00,4333.69047,N,00128.73530,E,1,06,1.43,158.1,M,53.8,M,,*43
73 12 19 39 4333.6905900128.73511158.1ó 00128.73511 158.1 0 0 0 1101100 10 0 1101100 10 0 1101101010 1010110011 1011100100 1111101101 10000100101 1100101100 1100011001 1100101011 1100010100 25.000 47.165 999.65 74397 16 15 14 60 51 3 $GNGGA,121939.00,4333.69059,N,00128.73511,E,1,06,1.43,158.1,M,53.8,M,,*4E
74 12 19 40 4333.6908400128.73473158.0ó 00128.73473 158.0 0 0 0 1101100 10 0 1101100 10 0 1101101010 1010110011 1011100011 1111110000 10000100010 1100100110 1100010110 1100100110 1100010001 25.000 47.135 999.66 75396 16 15 13 59 50 5 $GNGGA,121940.00,4333.69084,N,00128.73473,E,1,06,1.43,158.0,M,53.8,M,,*44
75 12 19 41 4333.6910700128.73463158.0ó 00128.73463 158.0 0 0 0 1101100 10 0 1101100 10 0 1101101010 1010110010 1011100110 1111111010 10000100111 1100101010 1100010111 1100101011 1100010011 25.063 47.112 999.66 76394 16 14 13 59 51 4 $GNGGA,121941.00,4333.69107,N,00128.73463,E,1,05,1.70,158.0,M,53.8,M,,*4D
76 12 19 42 4333.6909000128.73451158.2ó 00128.73451 158.2 0 0 0 1101100 10 0 1101100 10 0 1101101001 1010110000 1011100000 1111110010 10000100110 1100101010 1100011010 1100101000 1100010110 25.000 47.143 999.65 77393 15 15 15 59 51 3 $GNGGA,121942.00,4333.69090,N,00128.73451,E,1,05,1.70,158.2,M,53.8,M,,*42
77 12 19 43 4333.6904600128.73469158.1ó 00128.73469 158.1 0 0 0 1101100 10 0 1101100 10 0 1101101001 1010110101 1011100100 1111110011 10000100100 1100101000 1100011000 1100101011 1100011110 25.000 47.143 999.66 78392 15 16 14 59 52 3 $GNGGA,121943.00,4333.69046,N,00128.73469,E,1,05,1.70,158.1,M,53.8,M,,*40
78 12 19 44 4333.6907500128.73483157.7ó 00128.73483 157.7 0 0 0 1101100 10 0 1101100 10 0 1101101001 1010110100 1011100100 1111110101 10000100100 1100100111 1100011001 1100100111 1100011100 25.000 47.104 999.64 79390 17 14 13 59 50 4 $GNGGA,121944.00,4333.69075,N,00128.73483,E,1,05,1.70,157.7,M,53.8,M,,*4A
79 12 19 45 4333.6912900128.73492154.8ó 00128.73492 154.8 0 0 0 1101100 10 0 1101100 10 0 1101101001 1010110100 1011100010 1111110110 10000100110 1100100011 1100010111 1100100001 1100010110 25.000 47.097 999.65 80390 16 16 13 59 50 5 $GNGGA,121945.00,4333.69129,N,00128.73492,E,1,03,5.41,154.8,M,53.8,M,,*4F
80 12 19 46 4333.6912700128.73486154.8ó 00128.73486 154.8 0 0 0 1101100 10 0 1101100 10 0 1101101010 1010110011 1011100010 1111101111 10000100100 1100101010 1100011000 1100101100 1100011100 25.063 47.097 999.65 81388 17 14 13 60 50 4 $GNGGA,121946.00,4333.69127,N,00128.73486,E,1,04,3.59,154.8,M,53.8,M,,*4F
81 12 19 47 4333.6911500128.73485154.8ó 00128.73485 154.8 0 0 0 1101100 10 0 1101100 10 0 1101101001 1010110100 1011100100 1111101111 10000100100 1100101010 1100010111 1100101001 1100010101 25.000 47.104 999.65 82387 15 15 15 59 51 3 $GNGGA,121947.00,4333.69115,N,00128.73485,E,1,03,5.41,154.8,M,53.8,M,,*44
82 12 19 48 4333.6908000128.73456154.9ó 00128.73456 154.9 0 0 0 1101100 10 0 1101100 10 0 1101101001 1010110000 1011100010 1111101101 10000100100 1100100100 1100011000 1100100010 1100010110 25.063 47.112 999.64 83387 16 14 13 59 51 4 $GNGGA,121948.00,4333.69080,N,00128.73456,E,1,04,3.59,154.9,M,53.8,M,,*41
83 12 19 49 4333.6902000128.73462154.9ó 00128.73462 154.9 0 0 0 1101100 10 0 1101100 10 0 1101101010 1010110011 1011100011 1111110011 10000100110 1100100011 1100010011 1100110000 1100011101 25.063 47.104 999.64 84383 15 14 14 58 51 4 $GNGGA,121949.00,4333.69020,N,00128.73462,E,1,04,3.59,154.9,M,53.8,M,,*4D
84 12 19 50 4333.6898000128.73455155.0ó 00128.73455 155.0 0 0 0 1101100 10 0 1101100 10 0 1101101001 1010110010 1011100000 1111101110 10000100101 1100100101 1100010100 1100110011 1100011010 25.000 47.089 999.64 85384 16 15 13 58 52 4 $GNGGA,121950.00,4333.68980,N,00128.73455,E,1,04,3.59,155.0,M,53.8,M,,*4B
85 12 19 51 4333.6895100128.73461155.1ó 00128.73461 155.1 0 0 0 1101100 10 0 1101100 10 0 1101101010 1010110000 1011100101 1111101111 10000100110 1100101110 1100011010 1100101111 1100010111 25.000 47.082 999.63 86383 16 14 13 59 51 4 $GNGGA,121951.00,4333.68951,N,00128.73461,E,1,04,3.59,155.1,M,53.8,M,,*40
86 12 19 52 4333.6893100128.73438155.1ó 00128.73438 155.1 0 0 0 1101100 10 0 1101100 10 0 1101101001 1010110001 1011100100 1111101010 10000100101 1100101100 1100011010 1100101011 1100010010 25.063 47.059 999.64 87384 15 16 15 59 51 3 $GNGGA,121952.00,4333.68931,N,00128.73438,E,1,04,3.59,155.1,M,53.8,M,,*49
87 12 19 53 4333.6896000128.73413155.2ó 00128.73413 155.2 0 0 0 1101100 10 0 1101100 10 0 1101101001 1010110001 1011100100 1111101010 10000100100 1100101001 1100010110 1100101001 1100010110 25.000 47.043 999.64 88381 17 14 13 60 50 4 $GNGGA,121953.00,4333.68960,N,00128.73413,E,1,04,3.59,155.2,M,53.8,M,,*46
88 12 19 54 4333.6891900128.73436155.3ó 00128.73436 155.3 0 0 0 1101100 10 0 1101100 10 0 1101101010 1010101110 1011100010 1111101010 10000100010 1100100111 1100010101 1100100111 1100010001 25.063 47.028 999.63 89380 15 15 15 59 51 3 $GNGGA,121954.00,4333.68919,N,00128.73436,E,1,04,3.59,155.3,M,53.8,M,,*49
89 12 19 55 4333.6887800128.73436155.4ó 00128.73436 155.4 0 0 0 1101100 10 0 1101100 10 0 1101101001 1010110010 1011100011 1111100111 10000100100 1100101000 1100011010 1100101001 1100010001 25.000 47.036 999.64 90380 15 16 14 59 52 3 $GNGGA,121955.00,4333.68878,N,00128.73436,E,1,04,3.59,155.4,M,53.8,M,,*49
90 12 19 56 4333.6883300128.73404155.5ó 00128.73404 155.5 0 0 0 1101100 10 0 1101100 10 0 1101101001 1010110010 1011100010 1111101110 10000100111 1100101010 1100010101 1100101001 1100010100 25.000 47.150 999.63 91378 16 14 14 60 51 3 $GNGGA,121956.00,4333.68833,N,00128.73404,E,1,04,3.59,155.5,M,53.8,M,,*45
91 12 19 57 4333.6878000128.73352155.5ó 00128.73352 155.5 0 0 0 1101100 10 0 1101100 10 0 1101101001 1010110000 1011100011 1111101011 10000100101 1100101001 1100011100 1100110000 1100011100 25.000 47.188 999.63 92377 16 15 13 59 50 5 $GNGGA,121957.00,4333.68780,N,00128.73352,E,1,04,3.59,155.5,M,53.8,M,,*47
92 12 19 58 4333.6882200128.73328155.6ó 00128.73328 155.6 0 0 0 1101100 10 0 1101100 10 0 1101101010 1010101111 1011100011 1111100111 10000100100 1100100101 1100001111 1100101011 1100010111 25.063 47.188 999.63 93376 16 14 13 59 51 4 $GNGGA,121958.00,4333.68822,N,00128.73328,E,1,04,3.59,155.6,M,53.8,M,,*41
93 12 19 59 4333.6876000128.73314155.7ó 00128.73314 155.7 0 0 0 1101100 10 0 1101100 10 0 1101101010 1010101100 1011100010 1111110010 10000100110 1100101001 1100011100 1100101000 1100010100 25.063 47.211 999.63 94374 15 14 14 58 51 4 $GNGGA,121959.00,4333.68760,N,00128.73314,E,1,04,3.59,155.7,M,53.8,M,,*47
94 12 20 00 4333.6872600128.73332155.8ó 00128.73332 155.8 0 0 0 1101100 10 0 1101100 10 0 1101101001 1010110001 1011100010 1111101111 10000100110 1100100111 1100010110 1100101101 1100010101 25.063 47.150 999.63 95372 16 15 13 59 51 4 $GNGGA,122000.00,4333.68726,N,00128.73332,E,1,04,3.59,155.8,M,53.8,M,,*48
95 12 20 01 4333.6872000128.73277155.8ó 00128.73277 155.8 0 0 0 1101100 10 0 1101100 10 0 1101101010 1010101101 1011100010 1111101001 10000100011 1100101101 1100011000 1100100101 1100001110 25.000 47.089 999.61 96373 16 15 14 59 50 4 $GNGGA,122001.00,4333.68720,N,00128.73277,E,1,04,3.59,155.8,M,53.8,M,,*4F
96 12 20 02 4333.6872000128.73244155.8ó 00128.73244 155.8 0 0 0 1101100 10 0 1101100 10 0 1101101001 1010110010 1011100100 1111101001 10000100100 1100110000 1100011100 1100101000 1100010001 25.063 47.059 999.61 97372 16 15 13 58 52 4 $GNGGA,122002.00,4333.68720,N,00128.73244,E,1,04,3.59,155.8,M,53.8,M,,*4C
97 12 20 03 4333.6869800128.73224155.8ó 00128.73224 155.8 0 0 0 1101100 10 0 1101100 10 0 1101101001 1010101111 1011100010 1111110001 10000100110 1100100011 1100010011 1100100111 1100010101 25.063 47.020 999.62 98371 16 14 14 60 51 3 $GNGGA,122003.00,4333.68698,N,00128.73224,E,1,04,3.59,155.8,M,53.8,M,,*49
98 12 20 04 4333.6869300128.73182155.9ó 00128.73182 155.9 0 0 0 1101100 10 0 1101100 10 0 1101101010 1010101111 1011100011 1111101010 10000100101 1100101000 1100010000 1100110001 1100011111 25.000 47.020 999.64 99371 15 16 15 59 51 3 $GNGGA,122004.00,4333.68693,N,00128.73182,E,1,04,3.59,155.9,M,53.8,M,,*4B
99 12 20 05 4333.6868200128.73155155.9ó 00128.73155 155.9 0 0 0 1101100 10 0 1101100 10 0 1101101010 1010101110 1011100011 1111101010 10000100100 1100100110 1100010100 1100101000 1100010110 25.063 47.005 999.62 100369 16 14 14 60 51 3 $GNGGA,122005.00,4333.68682,N,00128.73155,E,1,04,3.59,155.9,M,53.8,M,,*40
100 12 20 06 4333.6865300128.73089155.9ó 00128.73089 155.9 0 0 0 1101100 10 0 1101100 10 0 1101101001 1010101011 1011100011 1111101011 10000100110 1100100111 1100010010 1100101001 1100011000 25.063 47.013 999.62 101368 15 15 15 59 51 3 $GNGGA,122006.00,4333.68653,N,00128.73089,E,1,04,3.59,155.9,M,53.8,M,,*4F
101 12 20 07 4333.6865300128.73065156.0ó 00128.73065 156.0 0 0 0 1101100 10 0 1101100 10 0 1101101010 1010110010 1011100101 1111100110 10000100100 1100101100 1100011100 1100100101 1100011001 25.000 46.998 999.62 102365 15 15 13 58 52 4 $GNGGA,122007.00,4333.68653,N,00128.73065,E,1,04,3.59,156.0,M,53.8,M,,*46
102 12 20 08 4333.6865900128.73017156.0ó 00128.73017 156.0 0 0 0 1101100 10 0 1101100 10 0 1101101001 1010101010 1011100000 1111100110 10000100100 1100101011 1100010101 1100101011 1100011000 25.125 46.975 999.63 103366 16 15 14 60 51 3 $GNGGA,122008.00,4333.68659,N,00128.73017,E,1,04,3.59,156.0,M,53.8,M,,*46
103 12 20 09 4333.6865600128.73024156.0ó 00128.73024 156.0 0 0 0 1101100 10 0 1101100 10 0 1101101001 1010101101 1011100001 1111110000 10000100101 1100101001 1100010111 1100011111 1100010100 25.063 46.959 999.61 104365 15 15 13 58 51 5 $GNGGA,122009.00,4333.68656,N,00128.73024,E,1,04,3.59,156.0,M,53.8,M,,*48
104 12 20 10 4333.6867000128.73076156.0ó 00128.73076 156.0 0 0 0 1101100 10 0 1101100 10 0 1101101010 1010110100 1011100010 1111101101 10000100101 1100100011 1100010011 1100100010 1100011010 25.125 46.959 999.61 105365 16 15 14 60 51 3 $GNGGA,122010.00,4333.68670,N,00128.73076,E,1,04,3.59,156.0,M,53.8,M,,*43
105 12 20 11 4333.6860800128.73091156.0ó 00128.73091 156.0 0 0 0 1101100 10 0 1101100 10 0 1101101010 1010110000 1011100011 1111101100 10000100101 1100101001 1100011001 1100101010 1100011010 25.063 46.959 999.61 106361 15 15 15 59 51 3 $GNGGA,122011.00,4333.68608,N,00128.73091,E,1,04,3.59,156.0,M,53.8,M,,*44
106 12 20 12 4333.6857900128.73074156.1ó 00128.73074 156.1 0 0 0 1101100 10 0 1101100 10 0 1101101001 1010110010 1011100110 1111110001 10000100110 1100101101 1100011000 1100100111 1100010011 25.000 46.959 999.61 107363 15 16 14 59 52 3 $GNGGA,122012.00,4333.68579,N,00128.73074,E,1,05,1.70,156.1,M,53.8,M,,*40
107 12 20 13 4333.6860600128.73084156.2ó 00128.73084 156.2 0 0 0 1101100 10 0 1101100 10 0 1101101001 1010110011 1011100011 1111101101 10000100101 1100101010 1100010110 1100100001 1100010010 25.000 46.959 999.60 108362 15 15 15 59 51 3 $GNGGA,122013.00,4333.68606,N,00128.73084,E,1,05,1.70,156.2,M,53.8,M,,*46
108 12 20 14 4333.6861400128.73157156.3ó 00128.73157 156.3 0 0 0 1101100 10 0 1101100 10 0 1101101010 1010110100 1011100100 1111101001 10000100110 1100101011 1100010110 1100101000 1100011000 25.000 46.975 999.61 109360 16 15 13 59 50 5 $GNGGA,122014.00,4333.68614,N,00128.73157,E,1,05,1.70,156.3,M,53.8,M,,*4C
109 12 20 15 4333.6862500128.73172156.3ó 00128.73172 156.3 0 0 0 1101100 10 0 1101100 10 0 1101101001 1010110001 1011100011 1111100101 10000100010 1100101010 1100011001 1100100111 1100011001 25.125 46.990 999.61 110359 17 15 13 60 50 4 $GNGGA,122015.00,4333.68625,N,00128.73172,E,1,04,3.59,156.3,M,53.8,M,,*40
110 12 20 16 4333.6863600128.73221156.3ó 00128.73221 156.3 0 0 0 1101100 10 0 1101100 10 0 1101101010 1010101111 1011100001 1111101011 10000100100 1100100101 1100010011 1100100110 1100010111 25.125 47.005 999.61 111360 16 16 14 59 50 4 $GNGGA,122016.00,4333.68636,N,00128.73221,E,1,04,3.60,156.3,M,53.8,M,,*4E
111 12 20 17 4333.6859800128.73199156.3ó 00128.73199 156.3 0 0 0 1101100 10 0 1101100 10 0 1101101001 1010101111 1011100110 1111101100 10000100101 1100101011 1100010110 1100011110 1100010001 25.063 47.005 999.61 112358 16 14 13 59 51 4 $GNGGA,122017.00,4333.68598,N,00128.73199,E,1,04,3.60,156.3,M,53.8,M,,*48
112 12 20 18 4333.6859600128.73209156.3ó 00128.73209 156.3 0 0 0 1101100 10 0 1101100 10 0 1101101001 1010110000 1011100011 1111101110 10000100101 1100101011 1100011101 1100101001 1100010100 25.125 47.005 999.61 113355 15 15 15 59 51 3 $GNGGA,122018.00,4333.68596,N,00128.73209,E,1,04,3.60,156.3,M,53.8,M,,*43
113 12 20 19 4333.6858500128.73216156.3ó 00128.73216 156.3 0 0 0 1101100 10 0 1101100 10 0 1101101010 1010110100 1011100110 1111101100 10000100110 1100110001 1100011100 1100101011 1100001111 25.125 47.020 999.60 114356 15 16 14 59 52 3 $GNGGA,122019.00,4333.68585,N,00128.73216,E,1,04,3.60,156.3,M,53.8,M,,*4E
114 12 20 20 4333.6855000128.73195156.5ó 00128.73195 156.5 0 0 0 1101100 10 0 1101100 10 0 1101101001 1010110111 1011101001 1111101000 10000100101 1100101100 1100011011 1100101110 1100010110 25.000 47.028 999.60 115353 17 14 13 59 51 4 $GNGGA,122020.00,4333.68550,N,00128.73195,E,1,05,1.70,156.5,M,53.8,M,,*40
115 12 20 21 4333.6854600128.73150156.6ó 00128.73150 156.6 0 0 0 1101100 10 0 1101100 10 0 1101101010 1010110111 1011100111 1111110011 10000100110 1100101011 1100010111 1100101011 1100010001 25.000 47.036 999.62 116354 15 15 15 59 51 3 $GNGGA,122021.00,4333.68546,N,00128.73150,E,1,05,1.70,156.6,M,53.8,M,,*4C
116 12 20 22 4333.6853100128.73159156.9ó 00128.73159 156.9 0 0 0 1101100 10 0 1101100 10 0 1101101001 1010110001 1011100001 1111110111 10000100111 1100101010 1100011001 1100101110 1100011001 25.000 47.036 999.61 117352 17 15 13 60 50 4 $GNGGA,122022.00,4333.68531,N,00128.73159,E,1,05,1.70,156.9,M,53.8,M,,*49
117 12 20 23 4333.6854300128.73190157.1ó 00128.73190 157.1 0 0 0 1101100 10 0 1101100 10 0 1101101001 1010110111 1011100100 1111110110 10000101000 1100100100 1100010010 1100100110 1100010010 25.000 47.059 999.61 118351 16 15 14 59 50 4 $GNGGA,122023.00,4333.68543,N,00128.73190,E,1,05,1.70,157.1,M,53.8,M,,*41
118 12 20 24 4333.6851600128.73129157.3ó 00128.73129 157.3 0 0 0 1101100 10 0 1101100 10 0 1101101001 1010110000 1011100001 1111110111 10000101000 1100101000 1100010100 1100100101 1100010000 25.000 47.089 999.63 119350 15 15 14 59 52 3 $GNGGA,122024.00,4333.68516,N,00128.73129,E,1,05,1.70,157.3,M,53.8,M,,*46
119 12 20 25 4333.6848500128.73124157.4ó 00128.73124 157.4 0 0 0 1101100 10 0 1101100 10 0 1101101001 1010110100 1011100100 1111111000 10000100110 1100101001 1100011001 1100011111 1100010000 25.000 47.127 999.64 120348 16 15 14 60 51 3 $GNGGA,122025.00,4333.68485,N,00128.73124,E,1,05,1.70,157.4,M,53.8,M,,*46
120 12 20 26 4333.6857800128.73120157.6ó 00128.73120 157.6 0 0 0 1101100 10 0 1101100 10 0 1101101010 1010101111 1011100010 1111110111 10000100110 1100100111 1100010101 1100100011 1100010010 25.000 47.150 999.64 121348 16 15 13 58 51 5 $GNGGA,122026.00,4333.68578,N,00128.73120,E,1,05,1.70,157.6,M,53.8,M,,*40
121 12 20 27 4333.6848900128.73081157.8ó 00128.73081 157.8 0 0 0 1101100 10 0 1101100 10 0 1101101001 1010110011 1011100011 1111110111 10000100111 1100101000 1100010110 1100100100 1100011101 25.000 47.173 999.63 122347 17 14 13 60 50 4 $GNGGA,122027.00,4333.68489,N,00128.73081,E,1,05,1.70,157.8,M,53.8,M,,*4A
122 12 20 28 4333.6860700128.73038158.1ó 00128.73038 158.1 0 0 0 1101100 10 0 1101100 10 0 1101101001 1010110011 1011100101 1111110111 10000100110 1100101101 1100011000 1100101001 1100011001 25.000 47.188 999.62 123345 16 14 14 59 50 4 $GNGGA,122028.00,4333.68607,N,00128.73038,E,1,05,1.70,158.1,M,53.8,M,,*45
123 12 20 29 4333.6857700128.73052158.3ó 00128.73052 158.3 0 0 0 1101100 10 0 1101100 10 0 1101101001 1010110001 1011100011 1111110011 10000100110 1100100111 1100011000 1100100100 1100010011 25.000 47.173 999.63 124344 16 16 13 59 51 4 $GNGGA,122029.00,4333.68577,N,00128.73052,E,1,05,1.70,158.3,M,53.8,M,,*4E
124 12 20 30 4333.6859800128.73084158.6ó 00128.73084 158.6 0 0 0 1101100 10 0 1101100 10 0 1101101001 1010110011 1011100101 1111110110 10000100111 1100101101 1100011100 1100101000 1100010111 25.000 47.112 999.63 125343 16 14 14 59 50 4 $GNGGA,122030.00,4333.68598,N,00128.73084,E,1,05,1.70,158.6,M,53.8,M,,*49
125 12 20 31 4333.6860500128.73009158.7ó 00128.73009 158.7 0 0 0 1101100 10 0 1101100 10 0 1101101001 1010110100 1011100100 1111111011 10000100100 1100100101 1100010101 1100100101 1100010111 25.063 47.082 999.62 126344 15 16 14 59 52 3 $GNGGA,122031.00,4333.68605,N,00128.73009,E,1,05,1.70,158.7,M,53.8,M,,*4B
126 12 20 32 4333.6860300128.72945159.0ó 00128.72945 159.0 0 0 0 1101100 10 0 1101100 10 0 1101101010 1010110100 1011100010 1111110011 10000101000 1100101011 1100011010 1100101101 1100011101 25.000 47.089 999.62 127342 16 15 14 60 50 4 $GNGGA,122032.00,4333.68603,N,00128.72945,E,1,05,1.70,159.0,M,53.8,M,,*48
127 12 20 33 4333.6861500128.72958159.2ó 00128.72958 159.2 0 0 0 1101100 10 0 1101100 10 0 1101101001 1010110100 1011100010 1111101101 10000100100 1100101011 1100011000 1100101000 1100011011 25.000 47.112 999.63 128340 15 15 15 59 51 3 $GNGGA,122033.00,4333.68615,N,00128.72958,E,1,05,1.70,159.2,M,53.8,M,,*40
128 12 20 34 4333.6850700128.72872159.4ó 00128.72872 159.4 0 0 0 1101100 10 0 1101100 10 0 1101101001 1010110001 1011100010 1111110001 10000100101 1100101010 1100010110 1100100101 1100011001 25.000 47.135 999.62 129340 16 15 14 60 51 3 $GNGGA,122034.00,4333.68507,N,00128.72872,E,1,05,1.70,159.4,M,53.8,M,,*48
129 12 20 35 4333.6840500128.72744159.7ó 00128.72744 159.7 0 0 0 1101100 10 0 1101100 10 0 1101101001 1010110010 1011100100 1111101111 10000100110 1100100100 1100010010 1100110010 1100011110 25.063 47.143 999.62 130338 15 15 15 59 51 3 $GNGGA,122035.00,4333.68405,N,00128.72744,E,1,05,1.70,159.7,M,53.8,M,,*43
130 12 20 36 4333.6832900128.72753159.9ó 00128.72753 159.9 0 0 0 1101100 10 0 1101100 10 0 1101101001 1010110101 1011100110 1111110000 10000100110 1100101110 1100011001 1100101011 1100010101 25.000 47.143 999.63 131338 16 15 13 59 51 4 $GNGGA,122036.00,4333.68329,N,00128.72753,E,1,05,1.70,159.9,M,53.8,M,,*41
131 12 20 37 4333.6831100128.72753160.1ó 00128.72753 160.1 0 0 0 1101100 10 0 1101100 10 0 1101101001 1010110011 1011100110 1111110001 10000100100 1100101000 1100011000 1100101010 1100010100 25.000 47.143 999.62 132337 16 15 14 60 51 3 $GNGGA,122037.00,4333.68311,N,00128.72753,E,1,05,1.70,160.1,M,53.8,M,,*49
132 12 20 38 4333.6834900128.72813160.3ó 00128.72813 160.3 0 0 0 1101100 10 0 1101100 10 0 1101101010 1010110001 1011100101 1111101111 10000100100 1100101010 1100010100 1100101011 1100011000 25.000 47.143 999.61 133336 15 15 15 59 51 3 $GNGGA,122038.00,4333.68349,N,00128.72813,E,1,05,1.70,160.3,M,53.8,M,,*42
133 12 20 39 4333.6834400128.72849160.5ó 00128.72849 160.5 0 0 0 1101100 10 0 1101100 10 0 1101101001 1010110101 1011100110 1111110100 10000100110 1100101001 1100010100 1100101011 1100010111 25.000 47.120 999.60 134334 17 14 13 59 51 4 $GNGGA,122039.00,4333.68344,N,00128.72849,E,1,05,1.70,160.5,M,53.8,M,,*47
134 12 20 40 4333.6836800128.72826160.5ó 00128.72826 160.5 0 0 0 1101100 10 0 1101100 10 0 1101101001 1010110010 1011100010 1111110110 10000100110 1100101001 1100010110 1100100001 1100010001 25.063 47.112 999.60 135330 15 14 14 58 51 4 $GNGGA,122040.00,4333.68368,N,00128.72826,E,1,04,3.60,160.5,M,53.8,M,,*4C
135 12 20 41 4333.6838100128.72768160.6ó 00128.72768 160.6 0 0 0 1101100 10 0 1101100 10 0 1101101010 1010110001 1011100010 1111110100 10000100110 1100100110 1100010010 1100100001 1100010010 25.125 47.089 999.61 136332 15 16 14 59 52 3 $GNGGA,122041.00,4333.68381,N,00128.72768,E,1,04,3.60,160.6,M,53.8,M,,*4C
136 12 20 42 4333.6831500128.72767160.6ó 00128.72767 160.6 0 0 0 1101100 10 0 1101100 10 0 1101101010 1010110101 1011100010 1111110100 10000100101 1100101010 1100010111 1100011110 1100010010 25.125 47.074 999.61 137331 16 15 14 60 51 3 $GNGGA,122042.00,4333.68315,N,00128.72767,E,1,04,3.60,160.6,M,53.8,M,,*4D
137 12 20 43 4333.6831600128.72691160.7ó 00128.72691 160.7 0 0 0 1101100 10 0 1101100 10 0 1101101001 1010110010 1011100010 1111110011 10000100110 1100101110 1100010111 1100101000 1100011011 25.125 47.066 999.62 138331 15 16 14 59 50 5 $GNGGA,122043.00,4333.68316,N,00128.72691,E,1,04,3.60,160.7,M,53.8,M,,*46
138 12 20 44 4333.6838300128.72672160.8ó 00128.72672 160.8 0 0 0 1101100 10 0 1101100 10 0 1101101001 1010110100 1011100100 1111110010 10000100110 1100101010 1100010110 1100101100 1100011010 25.125 47.066 999.62 139329 16 15 14 60 51 3 $GNGGA,122044.00,4333.68383,N,00128.72672,E,1,04,3.60,160.8,M,53.8,M,,*4F
139 12 20 45 4333.6829800128.72812161.2ó 00128.72812 161.2 0 0 0 1101100 10 0 1101100 10 0 1101101001 1010110010 1011100100 1111101111 10000100101 1100100110 1100011011 1100101101 1100010100 25.000 47.059 999.62 140328 16 14 14 58 51 4 $GNGGA,122045.00,4333.68298,N,00128.72812,E,1,05,1.70,161.2,M,53.8,M,,*44
140 12 20 46 4333.6829300128.72792161.5ó 00128.72792 161.5 0 0 0 1101100 10 0 1101100 10 0 1101101010 1010110110 1011100101 1111110000 10000100010 1100101100 1100011001 1100100111 1100011000 25.000 47.059 999.62 141327 15 14 13 59 51 4 $GNGGA,122046.00,4333.68293,N,00128.72792,E,1,05,1.70,161.5,M,53.8,M,,*4C
141 12 20 47 4333.6834400128.72847162.1ó 00128.72847 162.1 0 0 0 1101100 10 0 1101100 10 0 1101101001 1010110010 1011100101 1111101100 10000100011 1100101001 1100010111 1100100000 1100001101 25.063 47.074 999.63 142324 15 14 14 58 51 4 $GNGGA,122047.00,4333.68344,N,00128.72847,E,1,05,1.70,162.1,M,53.8,M,,*46
142 12 20 48 4333.6832500128.72925162.5ó 00128.72925 162.5 0 0 0 1101100 10 0 1101100 10 0 1101101010 1010110001 1011100100 1111101111 10000100110 1100101010 1100010110 1100100111 1100011001 25.063 47.097 999.63 143326 16 16 13 59 51 4 $GNGGA,122048.00,4333.68325,N,00128.72925,E,1,05,1.70,162.5,M,53.8,M,,*4F
143 12 20 49 4333.6834500128.72969162.7ó 00128.72969 162.7 0 0 0 1101100 10 0 1101100 10 0 1101101001 1010110010 1011100101 1111101100 10000100011 1100101010 1100010101 1100101100 1100010011 25.000 47.120 999.64 144324 17 15 13 60 50 4 $GNGGA,122049.00,4333.68345,N,00128.72969,E,1,04,3.61,162.7,M,53.8,M,,*41
144 12 20 50 4333.6832100128.72982162.8ó 00128.72982 162.8 0 0 0 1101100 10 0 1101100 10 0 1101101010 1010101111 1011100001 1111110010 10000100110 1100101011 1100011010 1100101001 1100010100 25.000 47.143 999.63 145323 15 16 15 59 51 3 $GNGGA,122050.00,4333.68321,N,00128.72982,E,1,04,3.61,162.8,M,53.8,M,,*41
145 12 20 51 4333.6832000128.73017163.2ó 00128.73017 163.2 0 0 0 1101100 10 0 1101100 10 0 1101101001 1010110010 1011100100 1111101111 10000100100 1100101001 1100010111 1100101011 1100010010 25.000 47.135 999.61 146321 17 14 13 60 50 4 $GNGGA,122051.00,4333.68320,N,00128.73017,E,1,04,15.6,163.2,M,53.8,M,,*48
146 12 20 52 4333.6829800128.73080163.8ó 00128.73080 163.8 0 0 0 1101100 10 0 1101100 10 0 1101101010 1010110011 1011100110 1111110001 10000100110 1100101000 1100010100 1100110001 1100010101 25.063 47.127 999.61 147320 15 14 14 58 51 4 $GNGGA,122052.00,4333.68298,N,00128.73080,E,1,04,15.6,163.8,M,53.8,M,,*4D
147 12 20 53 4333.6832000128.73115164.4ó 00128.73115 164.4 0 0 0 1101100 10 0 1101100 10 0 1101101001 1010110010 1011100100 1111110100 10000100111 1100101100 1100011011 1100100011 1100010110 25.063 47.112 999.62 148320 15 16 14 59 52 3 $GNGGA,122053.00,4333.68320,N,00128.73115,E,1,04,15.6,164.4,M,53.8,M,,*48
148 12 20 54 4333.6832000128.73231165.1ó 00128.73231 165.1 0 0 0 1101100 10 0 1101100 10 0 1101101001 1010110010 1011100011 1111110001 10000100101 1100100111 1100010111 1100101100 1100010111 25.063 47.135 999.62 149318 16 15 14 60 51 3 $GNGGA,122054.00,4333.68320,N,00128.73231,E,1,04,15.5,165.1,M,53.8,M,,*4D
149 12 20 55 4333.6837800128.73202162.8ó 00128.73202 162.8 0 0 0 1101100 10 0 1101100 10 0 1101101001 1010110010 1011100010 1111111010 10000100110 1100100010 1100011001 1100110000 1100011100 25.063 47.249 999.62 150319 16 16 13 59 50 5 $GNGGA,122055.00,4333.68378,N,00128.73202,E,1,03,5.38,162.8,M,53.8,M,,*47
150 12 20 56 4333.6846100128.73218162.8ó 00128.73218 162.8 0 0 0 1101100 10 0 1101100 10 0 1101101010 1010110011 1011100111 1111110101 10000100111 1100101110 1100011000 1100101011 1100010111 25.000 47.341 999.62 151316 17 14 13 59 51 4 $GNGGA,122056.00,4333.68461,N,00128.73218,E,1,03,5.38,162.8,M,53.8,M,,*40
151 12 20 57 4333.6844400128.73208162.8ó 00128.73208 162.8 0 0 0 1101100 10 0 1101100 10 0 1101101001 1010110001 1011100101 1111111001 10000100100 1100100111 1100010010 1100101011 1100010000 25.125 47.402 999.62 152315 15 15 15 59 51 3 $GNGGA,122057.00,4333.68444,N,00128.73208,E,1,03,5.38,162.8,M,53.8,M,,*47
152 12 20 58 4333.6857300128.73268162.8ó 00128.73268 162.8 0 0 0 1101100 10 0 1101100 10 0 1101101001 1010110100 1011100111 1111111000 10000100100 1100100011 1100011000 1100101010 1100010100 25.125 47.402 999.61 153312 15 16 14 59 52 3 $GNGGA,122058.00,4333.68573,N,00128.73268,E,1,03,5.38,162.8,M,53.8,M,,*4B
153 12 20 59 4333.6860500128.73249162.8ó 00128.73249 162.8 0 0 0 1101100 10 0 1101100 10 0 1101101001 1010101111 1011100000 1111110111 10000100110 1100100110 1100010101 1100101010 1100011001 25.125 47.417 999.60 154312 16 14 13 59 51 4 $GNGGA,122059.00,4333.68605,N,00128.73249,E,1,03,5.38,162.8,M,53.8,M,,*4B
154 12 21 00 4333.6867800128.73251162.8ó 00128.73251 162.8 0 0 0 1101100 10 0 1101100 10 0 1101101001 1010110100 1011100011 1111110001 10000100110 1100101011 1100011000 1100100101 1100011010 25.125 47.341 999.60 155312 16 15 13 59 50 5 $GNGGA,122100.00,4333.68678,N,00128.73251,E,1,03,5.38,162.8,M,53.8,M,,*45
155 12 21 01 4333.6863400128.73258162.8ó 00128.73258 162.8 0 0 0 1101100 10 0 1101100 10 0 1101101001 1010101111 1011100001 1111111010 10000100110 1100100100 1100010101 1100110001 1100010111 25.125 47.310 999.60 156311 16 15 14 60 51 3 $GNGGA,122101.00,4333.68634,N,00128.73258,E,1,03,5.38,162.8,M,53.8,M,,*45
156 12 21 02 4333.6863200128.73304162.8ó 00128.73304 162.8 0 0 0 1101100 10 0 1101100 10 0 1101101010 1010110011 1011100100 1111110001 10000100110 1100101110 1100100000 1100101010 1100010111 25.125 47.310 999.61 157310 15 15 15 59 51 3 $GNGGA,122102.00,4333.68632,N,00128.73304,E,1,03,5.38,162.8,M,53.8,M,,*48
157 12 21 03 4333.6851900128.73202162.8ó 00128.73202 162.8 0 0 0 1101100 11101010 11111111 1101100 10 0 1101101010 1010110010 1011100100 1111110011 10000100111 1100100101 1100011000 1100101010 1100011011 25.125 47.356 999.61 158309 16 15 14 60 51 3 $GNGGA,122103.00,4333.68519,N,00128.73202,E,1,03,5.38,162.8,M,53.8,M,,*44
158 12 21 04 4333.6852200128.73218162.8ó 00128.73218 162.8 0 0 0 1101100 10 0 1101100 10 0 1101101010 1010110001 1011100011 1111110001 10000100110 1100101011 1100010110 1100100111 1100011000 25.125 47.425 999.61 159307 16 15 14 59 50 4 $GNGGA,122104.00,4333.68522,N,00128.73218,E,1,03,5.38,162.8,M,53.8,M,,*40
159 12 21 05 4333.6857500128.73228162.7ó 00128.73228 162.7 0 0 0 1101100 10 0 1101100 10 0 1101101001 1010110100 1011100110 1111101010 10000100100 1100100111 1100010110 1100100111 1100010111 25.125 47.478 999.59 160306 16 15 13 58 52 4 $GNGGA,122105.00,4333.68575,N,00128.73228,E,1,03,5.38,162.7,M,53.8,M,,*4F
160 12 21 06 4333.6867700128.73296162.8ó 00128.73296 162.8 0 0 0 1101100 10 0 1101100 10 0 1101101001 1010110010 1011100110 1111101111 10000100101 1100100100 1100010011 1100101011 1100010010 25.188 47.509 999.60 161305 17 14 13 60 50 4 $GNGGA,122106.00,4333.68677,N,00128.73296,E,1,03,5.38,162.8,M,53.8,M,,*47
161 12 21 07 4333.6879300128.73342163.0ó 00128.73342 163.0 0 0 0 1101100 10 0 1101100 10 0 1101101001 1010110011 1011100011 1111110010 10000101010 1100101010 1100011011 1100100011 1100001011 25.125 47.471 999.60 162305 15 15 14 59 51 4 $GNGGA,122107.00,4333.68793,N,00128.73342,E,1,03,5.38,163.0,M,53.8,M,,*4C
162 12 21 08 4333.6881500128.73451163.0ó 00128.73451 163.0 0 0 0 1101100 10 0 1101100 10 0 1101101001 1010110001 1011100011 1111101011 10000100110 1100101010 1100010110 1100101010 1100010000 25.188 47.402 999.60 163304 16 15 14 60 51 3 $GNGGA,122108.00,4333.68815,N,00128.73451,E,1,03,5.38,163.0,M,53.8,M,,*47
163 12 21 09 4333.6884200128.73526163.0ó 00128.73526 163.0 0 0 0 1101100 10 0 1101100 10 0 1101101001 1010101110 1011100101 1111110110 10000100100 1100101001 1100011011 1100101011 1100011011 25.125 47.364 999.60 164300 15 14 14 58 51 4 $GNGGA,122109.00,4333.68842,N,00128.73526,E,1,03,5.38,163.0,M,53.8,M,,*45
164 12 21 10 Nan Nan Nan 0 0 0 1101100 10 0 1101100 10 0 1101101001 1010110011 1011101000 1111110110 10000100110 1100101100 1100011101 1100101011 1100010100 25.063 47.349 999.59 165288 16 6 11 59 50 4 $GNGGA,122110.00,,,,,0,00,99.9,,,,,,*40
165 12 21 11 Nan Nan Nan 0 0 0 1101100 10 0 1101100 10 0 1101101010 1010110100 1011100100 1111110010 10000100101 1100110000 1100011100 1100101000 1100011010 25.063 47.280 999.59 166287 16 7 10 59 51 4 $GNGGA,122111.00,,,,,0,00,99.9,,,,,,*41
166 12 21 12 Nan Nan Nan 0 0 0 1101100 10 0 1101100 10 0 1101101001 1010110100 1011100101 1111110101 10000100110 1100101000 1100010100 1100101010 1100010111 25.063 47.242 999.59 167286 17 7 10 59 50 4 $GNGGA,122112.00,,,,,0,00,99.9,,,,,,*42
167 12 21 13 Nan Nan Nan 0 0 0 1101100 10 0 1101100 10 0 1101101001 1010110010 1011100110 1111110010 10000100111 1100101011 1100011010 1100101010 1100010010 25.125 47.211 999.59 168286 15 7 11 59 52 3 $GNGGA,122113.00,,,,,0,00,99.9,,,,,,*43
168 12 21 14 Nan Nan Nan 0 0 0 1101100 10 0 1101100 10 0 1101101001 1010110011 1011100100 1111110101 10000100101 1100101001 1100010111 1100101101 1100010110 25.063 47.211 999.60 169284 17 7 10 59 51 4 $GNGGA,122114.00,,,,,0,00,99.9,,,,,,*44
169 12 21 15 4333.6896500128.73414162.8ó 00128.73414 162.8 0 0 0 1101100 10 0 1101100 10 0 1101101001 1010110011 1011100101 1111101110 10000100101 1100101011 1100010111 1100100010 1100011101 25.000 47.150 999.59 170297 16 14 13 60 50 4 $GNGGA,122115.00,4333.68965,N,00128.73414,E,1,03,2.36,162.8,M,53.8,M,,*4C
170 12 21 16 4333.6897600128.73341162.6ó 00128.73341 162.6 0 0 0 1101100 10 0 1101100 10 0 1101101001 1010110011 1011100100 1111110000 10000100100 1100101001 1100010101 1100101101 1100011000 25.063 47.112 999.58 171294 17 14 13 58 51 4 $GNGGA,122116.00,4333.68976,N,00128.73341,E,1,03,2.36,162.6,M,53.8,M,,*44
171 12 21 17 Nan Nan Nan 0 0 0 1101100 10 0 1101100 10 0 1101101001 1010110011 1011100100 1111101111 10000100100 1100101011 1100011000 1100100111 1100010001 25.125 47.112 999.59 172281 15 7 12 59 51 3 $GNGGA,122117.00,,,,,0,00,99.9,,,,,,*47
172 12 21 18 Nan Nan Nan 0 0 0 1101100 10 0 1101100 10 0 1101101001 1010110110 1011100110 1111110011 10000100101 1100101000 1100010101 1100110001 1100011010 25.063 47.104 999.58 173282 15 7 11 59 51 4 $GNGGA,122118.00,,,,,0,00,99.9,,,,,,*48
173 12 21 19 Nan Nan Nan 0 0 0 1101100 10 0 1101100 10 0 1101101010 1010110100 1011100111 1111111010 10000100111 1100101001 1100010111 1100101110 1100011010 25.063 47.104 999.59 174279 16 7 11 60 51 3 $GNGGA,122119.00,,,,,0,00,99.9,,,,,,*49
174 12 21 20 Nan Nan Nan 0 0 0 1101100 10 0 1101100 10 0 1101101001 1010110011 1011100101 1111110001 10000100101 1100101110 1100011011 1100101011 1100010011 25.125 47.127 999.59 175278 15 8 11 59 51 4 $GNGGA,122120.00,,,,,0,00,99.9,,,,,,*43
175 12 21 21 Nan Nan Nan 0 0 0 1101100 10 0 1101100 10 0 1101101001 1010110000 1011100010 1111110111 10000100111 1100101000 1100010111 1100101010 1100010101 25.125 47.127 999.58 176278 16 7 11 60 50 4 $GNGGA,122121.00,,,,,0,00,99.9,,,,,,*42
176 12 21 22 Nan Nan Nan 0 0 0 1101100 10 0 1101100 10 0 1101101010 1010110011 1011100010 1111101111 10000100100 1100101001 1100010110 1100100110 1100010000 25.063 47.082 999.59 177277 15 7 12 59 51 3 $GNGGA,122122.00,,,,,0,00,99.9,,,,,,*41
177 12 21 23 Nan Nan Nan 0 0 0 1101100 10 0 1101100 10 0 1101101001 1010110100 1011100100 1111110001 10000100110 1100100101 1100010010 1100100110 1100010110 25.125 47.059 999.59 178276 16 7 10 60 50 4 $GNGGA,122123.00,,,,,0,00,99.9,,,,,,*40
178 12 21 24 Nan Nan Nan 0 0 0 1101100 10 0 1101100 10 0 1101101010 1010110101 1011100011 1111110100 10000100110 1100101000 1100010100 1100100111 1100010011 25.063 47.165 999.59 179275 16 7 11 59 51 3 $GNGGA,122124.00,,,,,0,00,99.9,,,,,,*47
179 12 21 25 Nan Nan Nan 0 0 0 1101100 10 0 1101100 10 0 1101101001 1010111001 1011100111 1111110011 10000100101 1100100111 1100011100 1100101101 1100011011 25.125 47.211 999.60 180273 16 8 10 58 52 4 $GNGGA,122125.00,,,,,0,00,99.9,,,,,,*46
180 12 21 26 Nan Nan Nan 0 0 0 1101100 10 0 1101100 10 0 1101101001 1010110001 1011100100 1111111001 10000100110 1100100101 1100010100 1100101110 1100010101 25.188 47.150 999.59 181271 17 7 10 59 51 4 $GNGGA,122126.00,,,,,0,00,99.9,,,,,,*45
181 12 21 27 Nan Nan Nan 0 0 0 1101100 10 0 1101100 10 0 1101101001 1010110100 1011100100 1111110100 10000100110 1100101010 1100010111 1100100111 1100010100 25.063 47.158 999.59 182269 16 7 11 58 51 4 $GNGGA,122127.00,,,,,0,00,99.9,,,,,,*44
182 12 21 28 Nan Nan Nan 0 0 0 1101100 10 0 1101100 10 0 1101101010 1010110100 1011100100 1111110011 10000100100 1100101101 1100011101 1100101100 1100010100 25.125 47.104 999.59 183270 15 7 11 60 51 3 $GNGGA,122128.00,,,,,0,00,99.9,,,,,,*4B
183 12 21 29 Nan Nan Nan 0 0 0 1101100 10 0 1101100 10 0 1101101010 1010110010 1011100100 1111101110 10000100011 1100101100 1100011010 1100101000 1100010100 25.125 47.082 999.59 184268 16 7 11 59 51 3 $GNGGA,122129.00,,,,,0,00,99.9,,,,,,*4A
184 12 21 30 Nan Nan Nan 0 0 0 1101100 10 0 1101100 10 0 1101101001 1010110011 1011100101 1111101010 10000100100 1100101010 1100011001 1100100111 1100010101 25.125 47.135 999.60 185268 15 7 11 59 52 3 $GNGGA,122130.00,,,,,0,00,99.9,,,,,,*42
185 12 21 31 Nan Nan Nan 0 0 0 1101100 10 0 1101100 10 0 1101101001 1010110100 1011100111 1111110011 10000100110 1100101001 1100010111 1100100111 1100010101 25.125 47.226 999.59 186268 16 7 11 60 51 3 $GNGGA,122131.00,,,,,0,00,99.9,,,,,,*43
186 12 21 32 Nan Nan Nan 0 0 0 1101100 10 0 1101100 10 0 1101101001 1010110110 1011100110 1111101101 10000100100 1100101101 1100010110 1100101001 1100011010 25.125 47.326 999.60 187266 16 8 10 58 51 5 $GNGGA,122132.00,,,,,0,00,99.9,,,,,,*40
187 12 21 33 Nan Nan Nan 0 0 0 1101100 10 0 1101100 10 0 1101101001 1010101111 1011100100 1111101110 10000100111 1100101001 1100011000 1100101011 1100001101 25.125 47.326 999.60 188265 16 7 11 60 51 3 $GNGGA,122133.00,,,,,0,00,99.9,,,,,,*41
188 12 21 34 Nan Nan Nan 0 0 0 1101100 10 0 1101100 10 0 1101101001 1010110000 1011011110 1111101010 10000100101 1100100011 1100010011 1100101010 1100010100 25.188 47.310 999.60 189263 15 6 12 59 50 4 $GNGGA,122134.00,,,,,0,00,99.9,,,,,,*46
189 12 21 35 Nan Nan Nan 0 0 0 1101100 10 0 1101100 10 0 1101101001 1010110011 1011100110 1111101100 10000100100 1100100111 1100010110 1100110000 1100011011 25.125 47.326 999.61 190262 16 7 10 59 52 4 $GNGGA,122135.00,,,,,0,00,99.9,,,,,,*47
190 12 21 36 Nan Nan Nan 0 0 0 1101100 10 0 1101100 10 0 1101101010 1010110110 1011100110 1111110001 10000101000 1100100110 1100010111 1100101001 1100010110 25.125 47.272 999.61 191261 17 7 10 60 50 4 $GNGGA,122136.00,,,,,0,00,99.9,,,,,,*44
191 12 21 37 Nan Nan Nan 0 0 0 1101100 10 0 1101100 10 0 1101101001 1010110111 1011100101 1111101000 10000100101 1100101101 1100011011 1100101110 1100011011 25.125 47.249 999.60 192261 15 8 11 59 51 4 $GNGGA,122137.00,,,,,0,00,99.9,,,,,,*45
192 12 21 38 Nan Nan Nan 0 0 0 1101100 10 0 1101100 10 0 1101101001 1010110110 1011101000 1111110001 10000100101 1100100101 1100010101 1100101011 1100011100 25.188 47.288 999.60 193257 17 7 10 59 51 4 $GNGGA,122138.00,,,,,0,00,99.9,,,,,,*4A
193 12 21 39 Nan Nan Nan 0 0 0 1101100 10 0 1101100 10 0 1101101001 1010110110 1011100110 1111101010 10000100010 1100100100 1100010111 1100101000 1100010011 25.125 47.234 999.59 194258 15 7 12 59 51 3 $GNGGA,122139.00,,,,,0,00,99.9,,,,,,*4B
194 12 21 40 Nan Nan Nan 0 0 0 1101100 10 0 1101100 10 0 1101101010 1010110100 1011100110 1111110000 10000100110 1100101111 1100010111 1100100011 1100001011 25.125 47.181 999.59 195258 15 7 11 60 51 3 $GNGGA,122140.00,,,,,0,00,99.9,,,,,,*45
195 12 21 41 Nan Nan Nan 0 0 0 1101100 10 0 1101100 10 0 1101101001 1010110111 1011100101 1111110001 10000100101 1100101010 1100011010 1100101001 1100011000 25.188 47.150 999.58 196256 16 7 11 59 51 3 $GNGGA,122141.00,,,,,0,00,99.9,,,,,,*44
196 12 21 42 Nan Nan Nan 0 0 0 1101100 10 0 1101100 10 0 1101101001 1010110011 1011100011 1111101010 10000100011 1100100101 1100010110 1100100011 1100001101 25.125 47.135 999.61 197256 15 7 11 59 52 3 $GNGGA,122142.00,,,,,0,00,99.9,,,,,,*47
197 12 21 43 Nan Nan Nan 0 0 0 1101100 10 0 1101100 10 0 1101101010 1010110110 1011100101 1111101011 10000100101 1100101001 1100011010 1100100110 1100010000 25.125 47.104 999.61 198254 16 7 11 60 51 3 $GNGGA,122143.00,,,,,0,00,99.9,,,,,,*46
198 12 21 44 Nan Nan Nan 0 0 0 1101100 10 0 1101100 10 0 1101101001 1010110100 1011100100 1111101110 10000100101 1100100110 1100010101 1100100101 1100001010 25.188 47.097 999.61 199254 16 8 11 58 51 4 $GNGGA,122144.00,,,,,0,00,99.9,,,,,,*41
