id HH MM SS longitude latitude altitude adc_1_ch0 adc_1_ch1 adc_1_ch2 adc_1_ch3 adc_1_ch4 adc_1_ch5 adc_1_ch6 adc_1_ch7 adc_1_ch8 adc_2_ch0 adc_2_ch1 adc_2_ch2 adc_2_ch3 adc_2_ch4 adc_2_ch5 adc_2_ch6 adc_2_ch7 adc_2_ch8 temp hum pres t_prog t_gps t_split t_adc t_temp t_hum t_pres trame_gga
1 12 22 32 Nan Nan Nan 1101100 10 0 1101100 10 0 1101100 10 0 1101101001 1010111000 1011100111 1111110001 10000100110 1100101010 1100010110 1100101011 1100011111 25.125 46.982 795.83 3056 17 7 11 60 51 3 $GNGGA,122232.00,,,,,0,00,8.10,,,,,,*43
2 12 22 33 Nan Nan Nan 0 0 0 1101100 10 0 1101100 10 0 1101101001 1010110110 1011101000 1111101111 10000100110 1100101010 1100011001 1100101010 1100011001 25.125 46.967 999.58 4056 15 8 12 59 50 4 $GNGGA,122233.00,,,,,0,00,8.09,,,,,,*4A
3 12 22 34 Nan Nan Nan 0 0 0 1101100 10 0 1101100 10 0 1101101010 1010110000 1011100001 1111110010 10000100111 1100100110 1100011001 1100101000 1100010100 25.125 46.914 999.59 5055 17 7 11 60 51 3 $GNGGA,122234.00,,,,,0,00,8.09,,,,,,*4D
4 12 22 35 Nan Nan Nan 0 0 0 1101100 10 0 1101100 10 0 1101101010 1010110010 1011100011 1111111000 10000101000 1100100011 1100010111 1100100100 1100001110 25.188 46.876 999.58 6053 15 7 12 59 51 3 $GNGGA,122235.00,,,,,0,00,8.09,,,,,,*4C
5 12 22 36 Nan Nan Nan 0 0 0 1101100 10 0 1101100 10 0 1101101010 1010110011 1011100110 1111110111 10000100110 1100101000 1100010110 1100100101 1100010001 25.125 46.837 999.59 7051 16 7 10 58 52 4 $GNGGA,122236.00,,,,,0,00,8.09,,,,,,*4F
6 12 22 37 Nan Nan Nan 0 0 0 1101100 10 0 1101100 10 0 1101101010 1010110111 1011100101 1111110011 10000100110 1100100100 1100011000 1100101011 1100011110 25.188 46.784 999.59 8052 17 7 11 59 51 3 $GNGGA,122237.00,,,,,0,00,8.09,,,,,,*4E
7 12 22 38 Nan Nan Nan 0 0 0 1101100 10 0 1101100 10 0 1101101001 1010110010 1011100100 1111110011 10000100110 1100101001 1100011100 1100101100 1100011010 25.188 46.738 999.60 9052 15 8 11 59 52 3 $GNGGA,122238.00,,,,,0,00,8.08,,,,,,*40
8 12 22 39 Nan Nan Nan 0 0 0 1101100 10 0 1101100 10 0 1101101001 1010110010 1011100010 1111111010 10000101001 1100101000 1100010010 1100101110 1100011101 25.188 46.692 999.60 10050 16 7 11 60 51 3 $GNGGA,122239.00,,,,,0,00,8.08,,,,,,*41
9 12 22 40 Nan Nan Nan 0 0 0 1101100 10 0 1101100 10 0 1101101001 1010110100 1011100100 1111110100 10000100111 1100101000 1100011010 1100101001 1100011000 25.188 46.670 999.60 11049 15 7 12 59 51 3 $GNGGA,122240.00,,,,,0,00,9.51,,,,,,*42
10 12 22 41 Nan Nan Nan 0 0 0 1101100 10 0 1101100 10 0 1101101001 1010110000 1011100100 1111101110 10000100111 1100100111 1100011000 1100101001 1100010110 25.250 46.685 999.61 12048 16 7 10 59 51 4 $GNGGA,122241.00,,,,,0,00,5.71,,,,,,*4D
11 12 22 42 4333.7902200128.82337165.5ó 00128.82337 165.5 0 0 0 1101100 10 0 1101100 10 0 1101101001 1010110110 1011100110 1111110011 10000100111 1100101011 1100011100 1100101110 1100011100 25.125 46.700 999.60 13060 15 15 13 58 51 5 $GNGGA,122242.00,4333.79022,N,00128.82337,E,1,05,1.83,165.5,M,53.7,M,,*41
12 12 22 43 4333.7843800128.81836164.5ó 00128.81836 164.5 0 0 0 1101100 10 0 1101100 10 0 1101101001 1010110010 1011100010 1111110010 10000101000 1100101001 1100010100 1100100111 1100010100 25.188 46.677 999.60 14058 17 14 13 60 50 4 $GNGGA,122243.00,4333.78438,N,00128.81836,E,1,04,9.49,164.5,M,53.7,M,,*49
13 12 22 44 4333.7778500128.81342163.7ó 00128.81342 163.7 0 0 0 1101100 10 0 1101100 10 0 1101101010 1010110100 1011100100 1111101101 10000100110 1100101010 1100010110 1100100010 1100010010 25.188 46.685 999.61 15056 16 14 14 59 50 4 $GNGGA,122244.00,4333.77785,N,00128.81342,E,1,04,9.49,163.7,M,53.7,M,,*49
14 12 22 45 4333.7734500128.80904162.7ó 00128.80904 162.7 0 0 0 1101100 10 0 1101100 10 0 1101101010 1010110111 1011100101 1111101101 10000100101 1100100010 1100010011 1100101100 1100010101 25.250 46.685 999.60 16056 16 15 13 60 50 4 $GNGGA,122245.00,4333.77345,N,00128.80904,E,1,04,9.48,162.7,M,53.7,M,,*49
15 12 22 46 4333.7686900128.80490162.1ó 00128.80490 162.1 0 0 0 1101100 10 0 1101100 10 0 1101101001 1010110101 1011100100 1111101111 10000100101 1100100110 1100010100 1100100110 1100010100 25.188 46.670 999.61 17055 15 14 15 59 51 3 $GNGGA,122246.00,4333.76869,N,00128.80490,E,1,04,9.48,162.1,M,53.7,M,,*48
16 12 22 47 4333.7644100128.80041161.5ó 00128.80041 161.5 0 0 0 1101100 10 0 1101100 10 0 1101101001 1010110110 1011100111 1111110010 10000100110 1100100111 1100010101 1100101110 1100011110 25.125 46.670 999.61 18052 15 16 14 59 51 4 $GNGGA,122247.00,4333.76441,N,00128.80041,E,1,03,8.07,161.5,M,53.7,M,,*4D
17 12 22 48 4333.7609100128.79733161.0ó 00128.79733 161.0 0 0 0 1101100 10 0 1101100 10 0 1101101010 1010110010 1011100011 1111110001 10000100101 1100101001 1100011001 1100101010 1100011001 25.188 46.685 999.61 19053 16 15 14 60 51 3 $GNGGA,122248.00,4333.76091,N,00128.79733,E,1,04,9.47,161.0,M,53.7,M,,*48
18 12 22 49 4333.7530300128.79520160.2ó 00128.79520 160.2 0 0 0 1101100 10 0 1101100 10 0 1101101001 1010110110 1011101000 1111101011 10000100100 1100101001 1100011000 1100110001 1100011101 25.188 46.685 999.61 20051 15 14 14 59 51 4 $GNGGA,122249.00,4333.75303,N,00128.79520,E,1,04,9.46,160.2,M,53.7,M,,*40
19 12 22 50 4333.7467400128.79180159.5ó 00128.79180 159.5 0 0 0 1101100 10 0 1101100 10 0 1101101010 1010110101 1011100110 1111110000 10000100101 1100100110 1100010011 1100101000 1100011000 25.250 46.677 999.60 21051 17 14 13 60 50 4 $GNGGA,122250.00,4333.74674,N,00128.79180,E,1,04,9.46,159.5,M,53.7,M,,*4F
20 12 22 51 4333.7469800128.79218158.5ó 00128.79218 158.5 0 0 0 1101100 10 0 1101100 10 0 1101101001 1010110101 1011100110 1111110100 10000100111 1100100011 1100010000 1100101100 1100011000 25.188 46.677 999.60 22050 16 15 14 59 50 4 $GNGGA,122251.00,4333.74698,N,00128.79218,E,1,04,4.71,158.5,M,53.7,M,,*46
21 12 22 52 4333.7448900128.79012158.1ó 00128.79012 158.1 0 0 0 1101100 10 0 1101100 10 0 1101101001 1010110100 1011100011 1111110011 10000100111 1100101011 1100010101 1100100101 1100011001 25.125 46.685 999.60 23048 16 15 13 58 52 4 $GNGGA,122252.00,4333.74489,N,00128.79012,E,1,03,8.05,158.1,M,53.7,M,,*43
22 12 22 53 4333.7423500128.78825157.8ó 00128.78825 157.8 0 0 0 1101100 10 0 1101100 10 0 1101101010 1010110011 1011100110 1111110000 10000100101 1100100110 1100010010 1100100100 1100011000 25.125 46.692 999.60 24047 16 14 14 60 51 3 $GNGGA,122253.00,4333.74235,N,00128.78825,E,1,03,8.05,157.8,M,53.7,M,,*48
23 12 22 54 4333.7361600128.78581157.6ó 00128.78581 157.6 0 0 0 1101100 10 0 1101100 10 0 1101101010 1010110001 1011100101 1111110000 10000100110 1100101000 1100011000 1100100110 1100010010 25.125 46.715 999.61 25047 15 16 15 59 51 3 $GNGGA,122254.00,4333.73616,N,00128.78581,E,1,05,1.83,157.6,M,53.7,M,,*41
24 12 22 55 4333.7322500128.78204157.7ó 00128.78204 157.7 0 0 0 1101100 10 0 1101100 10 0 1101101010 1010110110 1011100110 1111101111 10000100010 1100101010 1100010111 1100100001 1100010010 25.188 46.723 999.60 26046 16 14 13 59 51 4 $GNGGA,122255.00,4333.73225,N,00128.78204,E,1,05,1.83,157.7,M,53.7,M,,*4F
25 12 22 56 4333.7287700128.77941157.7ó 00128.77941 157.7 0 0 0 1101100 10 0 1101100 10 0 1101101001 1010110011 1011100100 1111110001 10000100111 1100101010 1100010101 1100100110 1100010111 25.125 46.738 999.60 27045 15 14 14 58 51 4 $GNGGA,122256.00,4333.72877,N,00128.77941,E,1,05,1.83,157.7,M,53.7,M,,*45
26 12 22 57 4333.7248600128.77716157.6ó 00128.77716 157.6 0 0 0 1101100 10 0 1101100 10 0 1101101010 1010110110 1011100110 1111101110 10000100111 1100100110 1100010010 1100101100 1100100010 25.125 46.738 999.61 28044 15 15 14 59 52 3 $GNGGA,122257.00,4333.72486,N,00128.77716,E,1,05,1.83,157.6,M,53.7,M,,*4B
27 12 22 58 4333.7213500128.77462157.3ó 00128.77462 157.3 0 0 0 1101100 10 0 1101100 10 0 1101101001 1010110100 1011100111 1111110111 10000101000 1100101100 1100011000 1100100101 1100010100 25.188 46.715 999.61 29040 17 14 13 60 50 4 $GNGGA,122258.00,4333.72135,N,00128.77462,E,1,05,1.83,157.3,M,53.7,M,,*4C
28 12 22 59 4333.7174300128.77275157.1ó 00128.77275 157.1 0 0 0 1101100 10 0 1101100 10 0 1101101010 1010110001 1011100101 1111110100 10000100111 1100100011 1100010110 1100101101 1100011101 25.188 46.860 999.60 30042 15 16 14 59 51 4 $GNGGA,122259.00,4333.71743,N,00128.77275,E,1,05,1.83,157.1,M,53.7,M,,*4B
29 12 23 00 4333.7147000128.77171157.0ó 00128.77171 157.0 0 0 0 1101100 10 0 1101100 10 0 1101101010 1010110010 1011100100 1111110100 10000100101 1100100111 1100010000 1100101100 1100010110 25.188 46.891 999.60 31041 16 14 14 60 51 3 $GNGGA,122300.00,4333.71470,N,00128.77171,E,1,05,1.83,157.0,M,53.7,M,,*43
30 12 23 01 4333.7120300128.76944156.8ó 00128.76944 156.8 0 0 0 1101100 10 0 1101100 10 0 1101101010 1010110010 1011100101 1111110011 10000100111 1100100101 1100010110 1100100111 1100001110 25.188 46.807 999.61 32039 16 14 14 59 50 4 $GNGGA,122301.00,4333.71203,N,00128.76944,E,1,05,1.83,156.8,M,53.7,M,,*46
31 12 23 02 4333.7098100128.76897156.6ó 00128.76897 156.6 0 0 0 1101100 10 0 1101100 10 0 1101101010 1010110110 1011101000 1111110010 10000100110 1100100000 1100010011 1100101100 1100010110 25.188 46.753 999.60 33039 15 14 14 60 51 3 $GNGGA,122302.00,4333.70981,N,00128.76897,E,1,05,1.83,156.6,M,53.7,M,,*44
32 12 23 03 4333.7073100128.76841156.3ó 00128.76841 156.3 0 0 0 1101100 10 0 1101100 10 0 1101101001 1010110011 1011100100 1111110011 10000101000 1100100110 1100010110 1100101110 1100010100 25.125 46.715 999.60 34036 16 14 14 59 50 4 $GNGGA,122303.00,4333.70731,N,00128.76841,E,1,05,1.83,156.3,M,53.8,M,,*41
33 12 23 04 4333.7069200128.76813156.1ó 00128.76813 156.1 0 0 0 1101100 10 0 1101100 10 0 1101101001 1010110101 1011100111 1111101111 10000100111 1100101000 1100010101 1100100001 1100001011 25.125 46.708 999.60 35035 16 15 13 59 50 5 $GNGGA,122304.00,4333.70692,N,00128.76813,E,1,05,1.83,156.1,M,53.8,M,,*4B
34 12 23 05 4333.7052300128.76659155.9ó 00128.76659 155.9 0 0 0 1101100 10 0 1101100 10 0 1101101001 1010110011 1011100011 1111101101 10000100110 1100100110 1100010110 1100101010 1100010101 25.063 46.692 999.59 36033 16 15 14 60 51 3 $GNGGA,122305.00,4333.70523,N,00128.76659,E,1,05,1.83,155.9,M,53.8,M,,*48
35 12 23 06 4333.7047700128.76622155.7ó 00128.76622 155.7 0 0 0 1101100 10 0 1101100 10 0 1101101010 1010111000 1011100111 1111101101 10000100110 1100100101 1100010110 1100101110 1100011001 25.125 46.685 999.59 37033 16 14 14 58 51 4 $GNGGA,122306.00,4333.70477,N,00128.76622,E,1,05,1.83,155.7,M,53.8,M,,*49
36 12 23 07 4333.7033300128.76551155.3ó 00128.76551 155.3 0 0 0 1101100 10 0 1101100 10 0 1101101001 1010110101 1011100111 1111101110 10000100110 1100101010 1100011010 1100101010 1100010101 25.125 46.723 999.60 38032 17 14 13 59 51 4 $GNGGA,122307.00,4333.70333,N,00128.76551,E,1,05,1.83,155.3,M,53.8,M,,*4C
37 12 23 08 4333.7028000128.76461154.8ó 00128.76461 154.8 0 0 0 1101100 10 0 1101100 10 0 1101101001 1010110010 1011100100 1111110100 10000100111 1100100100 1100011011 1100101010 1100010110 25.125 46.776 999.60 39031 15 15 15 59 51 3 $GNGGA,122308.00,4333.70280,N,00128.76461,E,1,05,1.83,154.8,M,53.8,M,,*42
38 12 23 09 4333.7011700128.76375154.5ó 00128.76375 154.5 0 0 0 1101100 10 0 1101100 10 0 1101101010 1010110110 1011100111 1111110001 10000100110 1100101010 1100011110 1100101000 1100001110 25.125 46.814 999.59 40030 16 15 13 58 52 4 $GNGGA,122309.00,4333.70117,N,00128.76375,E,1,05,1.83,154.5,M,53.8,M,,*41
39 12 23 10 4333.7007700128.76313154.1ó 00128.76313 154.1 0 0 0 1101100 10 0 1101100 10 0 1101101001 1010111000 1011101001 1111110111 10000100110 1100101000 1100010110 1100100100 1100001111 25.125 46.845 999.59 41029 16 15 14 60 51 3 $GNGGA,122310.00,4333.70077,N,00128.76313,E,1,04,9.37,154.1,M,53.8,M,,*4C
40 12 23 11 4333.6999000128.76264153.4ó 00128.76264 153.4 0 0 0 1101100 10 0 1101100 10 0 1101101001 1010110100 1011100100 1111111100 10000101001 1100110000 1100011110 1100101000 1100010010 25.125 46.845 999.59 42028 15 16 15 59 51 3 $GNGGA,122311.00,4333.69990,N,00128.76264,E,1,04,9.37,153.4,M,53.8,M,,*46
41 12 23 12 4333.6990400128.76212152.8ó 00128.76212 152.8 0 0 0 1101100 10 0 1101100 10 0 1101101001 1010110110 1011100101 1111110101 10000100101 1100101101 1100010111 1100101100 1100010111 25.188 46.830 999.58 43028 16 15 14 60 51 3 $GNGGA,122312.00,4333.69904,N,00128.76212,E,1,04,9.36,152.8,M,53.8,M,,*45
42 12 23 13 4333.6988800128.76152152.2ó 00128.76152 152.2 0 0 0 1101100 10 0 1101100 10 0 1101101001 1010110111 1011100110 1111110100 10000100111 1100100111 1100010100 1100101001 1100011001 25.188 46.799 999.59 44026 16 14 14 58 51 4 $GNGGA,122313.00,4333.69888,N,00128.76152,E,1,04,9.36,152.2,M,53.8,M,,*4C
43 12 23 14 4333.6984200128.76114151.6ó 00128.76114 151.6 0 0 0 1101100 10 0 1101100 10 0 1101101001 1010110111 1011100110 1111110110 10000100111 1100101011 1100011000 1100100011 1100011000 25.188 46.784 999.59 45025 16 15 13 59 51 4 $GNGGA,122314.00,4333.69842,N,00128.76114,E,1,04,9.35,151.6,M,53.8,M,,*4B
44 12 23 15 4333.6981200128.76028151.1ó 00128.76028 151.1 0 0 0 1101100 10 0 1101100 10 0 1101101010 1010110011 1011100001 1111110100 10000101001 1100101010 1100010101 1100100101 1100010010 25.188 46.792 999.60 46024 16 15 14 60 51 3 $GNGGA,122315.00,4333.69812,N,00128.76028,E,1,04,9.35,151.1,M,53.8,M,,*46
45 12 23 16 4333.6951200128.75653150.3ó 00128.75653 150.3 0 0 0 1101100 10 0 1101100 10 0 1101101001 1010101111 1011100001 1111110001 10000100101 1100101100 1100011000 1100101001 1100010011 25.125 46.784 999.61 47021 16 15 13 59 50 5 $GNGGA,122316.00,4333.69512,N,00128.75653,E,1,05,1.83,150.3,M,53.8,M,,*46
46 12 23 17 4333.6928600128.75354149.7ó 00128.75354 149.7 0 0 0 1101100 10 0 1101100 10 0 1101101001 1010110010 1011100110 1111110010 10000100110 1100101000 1100010100 1100101011 1100011011 25.125 46.753 999.60 48022 16 15 14 60 51 3 $GNGGA,122317.00,4333.69286,N,00128.75354,E,1,05,1.83,149.7,M,53.8,M,,*43
47 12 23 18 4333.6900000128.75137149.1ó 00128.75137 149.1 0 0 0 1101100 10 0 1101100 10 0 1101101010 1010110001 1011100100 1111110010 10000100110 1100100101 1100010001 1100101101 1100010001 25.125 46.723 999.59 49022 15 15 15 59 51 3 $GNGGA,122318.00,4333.69000,N,00128.75137,E,1,05,1.83,149.1,M,53.8,M,,*41
48 12 23 19 4333.6880400128.75038148.6ó 00128.75038 148.6 0 0 0 1101100 10 0 1101100 10 0 1101101001 1010110011 1011100110 1111110101 10000100100 1100101110 1100011110 1100100101 1100010110 25.188 46.685 999.60 50021 17 14 13 60 50 4 $GNGGA,122319.00,4333.68804,N,00128.75038,E,1,05,1.83,148.6,M,53.8,M,,*45
49 12 23 20 4333.6861100128.75029148.1ó 00128.75029 148.1 0 0 0 1101100 10 0 1101100 10 0 1101101010 1010110011 1011100101 1111101111 10000100110 1100100111 1100010011 1100100101 1100001111 25.188 46.677 999.60 51019 16 14 14 59 50 4 $GNGGA,122320.00,4333.68611,N,00128.75029,E,1,05,1.83,148.1,M,53.8,M,,*42
50 12 23 21 4333.6859400128.74907147.9ó 00128.74907 147.9 0 0 0 1101100 10 0 1101100 10 0 1101101001 1010110010 1011100100 1111101010 10000100100 1100101001 1100010110 1100101010 1100011000 25.125 46.723 999.60 52019 16 15 13 58 52 4 $GNGGA,122321.00,4333.68594,N,00128.74907,E,1,05,1.83,147.9,M,53.8,M,,*4E
51 12 23 22 4333.6848500128.74853147.6ó 00128.74853 147.6 0 0 0 1101100 10 0 1101100 10 0 1101101010 1010110011 1011100111 1111110001 10000100111 1100101001 1100010100 1100100110 1100010110 25.125 46.784 999.59 53017 17 14 13 59 51 4 $GNGGA,122322.00,4333.68485,N,00128.74853,E,1,05,1.83,147.6,M,53.8,M,,*43
52 12 23 23 4333.6841400128.74750147.3ó 00128.74750 147.3 0 0 0 1101100 10 0 1101100 10 0 1101101001 1010110011 1011100101 1111110001 10000100111 1100101010 1100011010 1100101000 1100010110 25.125 46.814 999.60 54016 15 16 15 59 51 3 $GNGGA,122323.00,4333.68414,N,00128.74750,E,1,05,1.83,147.3,M,53.8,M,,*43
53 12 23 24 4333.6823100128.74628147.0ó 00128.74628 147.0 0 0 0 1101100 10 0 1101100 10 0 1101101001 1010110010 1011100111 1111110010 10000100101 1100101010 1100010101 1100101000 1100010100 25.125 46.845 999.61 55015 17 14 13 60 50 4 $GNGGA,122324.00,4333.68231,N,00128.74628,E,1,05,1.83,147.0,M,53.8,M,,*48
54 12 23 25 4333.6811700128.74521146.9ó 00128.74521 146.9 0 0 0 1101100 10 0 1101100 10 0 1101101010 1010110010 1011100011 1111110110 10000100111 1100100111 1100011001 1100101011 1100010011 25.188 46.837 999.60 56013 16 14 14 58 51 4 $GNGGA,122325.00,4333.68117,N,00128.74521,E,1,05,1.83,146.9,M,53.8,M,,*4C
55 12 23 26 4333.6801100128.74460146.6ó 00128.74460 146.6 0 0 0 1101100 10 0 1101100 10 0 1101101001 1010110011 1011100110 1111110101 10000100110 1100100111 1100010100 1100100111 1100010010 25.125 46.814 999.60 57013 15 16 14 59 52 3 $GNGGA,122326.00,4333.68011,N,00128.74460,E,1,04,9.30,146.6,M,53.8,M,,*42
56 12 23 27 4333.6793200128.74455146.6ó 00128.74455 146.6 0 0 0 1101100 10 0 1101100 10 0 1101101010 1010110101 1011100100 1111110101 10000100111 1100100111 1100011000 1100100100 1100001110 25.125 46.784 999.59 58010 16 15 14 60 51 3 $GNGGA,122327.00,4333.67932,N,00128.74455,E,1,04,9.30,146.6,M,53.8,M,,*42
57 12 23 28 4333.6786100128.74394146.4ó 00128.74394 146.4 0 0 0 1101100 10 0 1101100 10 0 1101101001 1010110010 1011100011 1111110000 10000100110 1100101101 1100011001 1100100011 1100010100 25.125 46.769 999.60 59011 15 16 14 59 51 4 $GNGGA,122328.00,4333.67861,N,00128.74394,E,1,04,9.29,146.4,M,53.8,M,,*4A
58 12 23 29 4333.6783100128.74281146.2ó 00128.74281 146.2 0 0 0 1101100 10 0 1101100 10 0 1101101001 1010110100 1011100110 1111101101 10000101000 1100101001 1100011001 1100100111 1100010110 25.188 46.761 999.61 60010 16 15 14 60 51 3 $GNGGA,122329.00,4333.67831,N,00128.74281,E,1,04,9.29,146.2,M,53.8,M,,*4D
59 12 23 30 4333.6777600128.74202145.9ó 00128.74202 145.9 0 0 0 1101100 10 0 1101100 10 0 1101101001 1010110011 1011100110 1111110001 10000100110 1100101010 1100010110 1100101010 1100010110 25.125 46.715 999.61 61008 15 15 15 59 51 3 $GNGGA,122330.00,4333.67776,N,00128.74202,E,1,04,9.29,145.9,M,53.8,M,,*4A
60 12 23 31 4333.6826700128.74581146.8ó 00128.74581 146.8 0 0 0 1101100 10 0 1101100 10 0 1101101001 1010110001 1011100101 1111101010 10000100101 1100101011 1100010100 1100100011 1100010100 25.125 46.677 999.61 62010 16 15 13 60 50 4 $GNGGA,122331.00,4333.68267,N,00128.74581,E,1,05,4.21,146.8,M,53.8,M,,*4B
61 12 23 32 4333.6833500128.74621146.8ó 00128.74621 146.8 0 0 0 1101100 10 0 1101100 10 0 1101101010 1010110100 1011100110 1111110100 10000100110 1100101000 1100011010 1100101001 1100010110 25.188 46.685 999.63 63007 15 15 15 59 51 3 $GNGGA,122332.00,4333.68335,N,00128.74621,E,1,05,4.21,146.8,M,53.8,M,,*47
62 12 23 33 4333.6834800128.74621146.8ó 00128.74621 146.8 0 0 0 1101100 10 0 1101100 10 0 1101101010 1010110100 1011100110 1111110100 10000100111 1100011110 1100010011 1100101101 1100011011 25.188 46.753 999.62 64007 16 16 13 59 51 4 $GNGGA,122333.00,4333.68348,N,00128.74621,E,1,05,4.20,146.8,M,53.8,M,,*4D
63 12 23 34 4333.6839800128.74671146.8ó 00128.74671 146.8 0 0 0 1101100 10 0 1101100 10 0 1101101001 1010110100 1011100110 1111101100 10000100110 1100101011 1100011100 1100100011 1100010011 25.188 46.799 999.62 65004 16 15 14 60 51 3 $GNGGA,122334.00,4333.68398,N,00128.74671,E,1,05,4.20,146.8,M,53.8,M,,*42
64 12 23 35 4333.6840200128.74719146.6ó 00128.74719 146.6 0 0 0 1101100 10 0 1101100 10 0 1101101010 1010110011 1011100011 1111101010 10000100100 1100101110 1100011011 1100100111 1100010011 25.125 46.784 999.62 66003 15 15 15 59 51 3 $GNGGA,122335.00,4333.68402,N,00128.74719,E,1,05,4.20,146.6,M,53.8,M,,*46
65 12 23 36 4333.6840700128.74684146.7ó 00128.74684 146.7 0 0 0 1101100 10 0 1101100 10 0 1101101010 1010110011 1011100101 1111101101 10000100101 1100100101 1100010110 1100101010 1100010001 25.188 46.776 999.62 67003 16 14 13 59 51 4 $GNGGA,122336.00,4333.68407,N,00128.74684,E,1,05,4.20,146.7,M,53.8,M,,*44
66 12 23 37 4333.6842500128.74655146.7ó 00128.74655 146.7 0 0 0 1101100 10 0 1101100 10 0 1101101010 1010110101 1011100110 1111110111 10000100111 1100101101 1100011011 1100101001 1100010010 25.125 46.776 999.62 68001 15 15 15 59 51 3 $GNGGA,122337.00,4333.68425,N,00128.74655,E,1,05,4.20,146.7,M,53.8,M,,*49
67 12 23 38 4333.6842900128.74624146.8ó 00128.74624 146.8 0 0 0 1101100 10 0 1101100 10 0 1101101010 1010110011 1011100101 1111110000 10000100101 1100100110 1100010011 1100101101 1100011011 25.125 46.792 999.62 68999 15 15 14 58 52 3 $GNGGA,122338.00,4333.68429,N,00128.74624,E,1,05,4.20,146.8,M,53.8,M,,*43
