id HH MM SS longitude latitude altitude adc_1_ch0 adc_1_ch1 adc_1_ch2 adc_1_ch3 adc_1_ch4 adc_1_ch5 adc_1_ch6 adc_1_ch7 adc_1_ch8 adc_2_ch0 adc_2_ch1 adc_2_ch2 adc_2_ch3 adc_2_ch4 adc_2_ch5 adc_2_ch6 adc_2_ch7 adc_2_ch8 temp hum pres t_prog t_gps t_split t_adc t_temp t_hum t_pres trame_gga
1 12 27 58 4333.6938200128.74498143.5ó 00128.74498 143.5 110110 1110111 11111111 110110 1110111 11111111 110110 1110111 11111111 1101101011 1100000010 1011101101 10010001011 10000101100 1100001000 1100011100 1101011000 1100010101 24.813 47.684 795.83 2516 21 15 15 59 51 3 $GNGGA,122758.00,4333.69382,N,00128.74498,E,1,03,2.77,143.5,M,53.8,M,,*49
2 12 27 59 4333.6937300128.74421143.4ó 00128.74421 143.4 0 10111 11111111 110110 1110111 11111111 110110 1110111 11111111 1101101011 1100000000 1011101001 10010010101 10000101110 1100001010 1100011001 1101011100 1100010101 24.813 47.684 999.74 3515 22 14 13 59 51 4 $GNGGA,122759.00,4333.69373,N,00128.74421,E,1,03,2.77,143.4,M,53.8,M,,*45
3 12 28 00 4333.6931800128.74386143.3ó 00128.74386 143.3 0 10111 11111111 110110 1110111 11111111 110110 1110111 11111111 1101101011 1011111101 1011101001 10010010100 10000101100 1100001011 1100011001 1101011001 1100010100 24.813 47.684 999.73 4514 21 14 14 58 51 4 $GNGGA,122800.00,4333.69318,N,00128.74386,E,1,03,2.77,143.3,M,53.8,M,,*46
4 12 28 01 4333.6931600128.74372143.2ó 00128.74372 143.2 0 10111 11111111 110110 1110111 11111111 110110 1110111 11111111 1101101100 1011111110 1011101001 10010010010 10000101110 1100001010 1100100000 1101011110 1100010111 24.813 47.699 999.72 5513 22 16 13 59 51 4 $GNGGA,122801.00,4333.69316,N,00128.74372,E,1,03,2.77,143.2,M,53.8,M,,*43
5 12 28 02 4333.6933300128.74416143.2ó 00128.74416 143.2 0 10111 11111111 110110 1110111 11111111 110110 1110111 11111111 1101101100 1011111110 1011101001 10010010011 10000101101 1100001000 1100011010 1101010111 1100001111 24.813 47.692 999.72 6511 22 14 13 59 51 4 $GNGGA,122802.00,4333.69333,N,00128.74416,E,1,03,2.77,143.2,M,53.8,M,,*42
6 12 28 03 4333.6928000128.74394143.2ó 00128.74394 143.2 0 10111 11111111 110110 1110111 11111111 110110 1110111 11111111 1101101011 1100000000 1011101001 10010001111 10000101011 1100001001 1100011101 1101100000 1100010000 24.813 47.684 999.71 7510 21 16 15 59 51 3 $GNGGA,122803.00,4333.69280,N,00128.74394,E,1,03,2.77,143.2,M,53.8,M,,*47
7 12 28 04 4333.6925500128.74490143.3ó 00128.74490 143.3 0 10111 11111111 110110 1110111 11111111 110110 1110111 11111111 1101101100 1100000001 1011101001 10010001000 10000101011 1100001100 1100011001 1101100110 1100010101 24.813 47.692 999.71 8510 23 14 13 60 50 4 $GNGGA,122804.00,4333.69255,N,00128.74490,E,1,03,2.77,143.3,M,53.8,M,,*4A
8 12 28 05 4333.6924400128.74491143.2ó 00128.74491 143.2 0 10111 11111111 110110 1110111 11111111 110110 1110111 11111111 1101101011 1011111111 1011101010 10010010110 10000101101 1100001000 1100011010 1101010111 1100010110 24.813 47.677 999.71 9509 21 15 15 59 51 3 $GNGGA,122805.00,4333.69244,N,00128.74491,E,1,03,2.77,143.2,M,53.8,M,,*4B
9 12 28 06 4333.6923900128.74505143.2ó 00128.74505 143.2 0 10111 11111111 110110 1110111 11111111 110110 1110111 11111111 1101101011 1011111111 1011101010 10010010100 10000101110 1100000111 1100011110 1101010100 1100010000 24.813 47.684 999.71 10508 23 15 13 59 51 4 $GNGGA,122806.00,4333.69239,N,00128.74505,E,1,03,2.77,143.2,M,53.8,M,,*4E
10 12 28 07 4333.6914700128.74569143.1ó 00128.74569 143.1 0 10111 11111111 110110 1110111 11111111 110110 1110111 11111111 1101101011 1011111111 1011101010 10010001101 10000101100 1100001001 1100011010 1101011001 1100011100 24.813 47.677 999.71 11506 22 15 14 60 51 3 $GNGGA,122807.00,4333.69147,N,00128.74569,E,1,03,2.77,143.1,M,53.8,M,,*4C
11 12 28 08 4333.6914700128.74573143.0ó 00128.74573 143.0 0 10111 11111111 110110 1110111 11111111 110110 1110111 11111111 1101101100 1011111110 1011101000 10010011000 10000110000 1100001011 1100100010 1101010110 1100001101 24.813 47.638 999.70 12506 22 15 13 59 50 5 $GNGGA,122808.00,4333.69147,N,00128.74573,E,1,03,2.78,143.0,M,53.8,M,,*46
12 12 28 09 4333.6915200128.74544143.3ó 00128.74544 143.3 0 10111 11111111 110110 1110111 11111111 110110 1110111 11111111 1101101011 1100000000 1011101000 10010010111 10000101101 1100001001 1100011110 1101001110 1100001001 24.813 47.585 999.68 13505 23 14 13 60 50 4 $GNGGA,122809.00,4333.69152,N,00128.74544,E,1,03,2.78,143.3,M,53.8,M,,*44
13 12 28 10 4333.6913300128.74665143.2ó 00128.74665 143.2 0 10111 11111111 110110 1110111 11111111 110110 1110111 11111111 1101101100 1011111101 1011101001 10010010001 10000101011 1100001110 1100100010 1101010110 1100010101 24.875 47.577 999.68 14503 21 15 15 59 51 3 $GNGGA,122810.00,4333.69133,N,00128.74665,E,1,03,2.78,143.2,M,53.8,M,,*4A
14 12 28 11 4333.6914400128.74587142.8ó 00128.74587 142.8 0 10111 11111111 110110 1110111 11111111 110110 1110111 11111111 1101101100 1100000000 1011101001 10010010001 10000101100 1100001000 1100011011 1101010011 1100001111 24.813 47.570 999.68 15503 23 14 13 59 51 4 $GNGGA,122811.00,4333.69144,N,00128.74587,E,1,03,2.78,142.8,M,53.8,M,,*4F
15 12 28 12 4333.6915000128.74612142.5ó 00128.74612 142.5 0 10111 11111111 110110 1110111 11111111 110110 1100000 0 1101101100 1011111111 1011101000 10010010000 10000101011 1100001110 1100011101 1101011010 1100001111 24.813 47.547 999.67 16502 21 15 15 59 51 3 $GNGGA,122812.00,4333.69150,N,00128.74612,E,1,03,2.78,142.5,M,53.8,M,,*4B
16 12 28 13 4333.6911700128.74657142.6ó 00128.74657 142.6 0 10111 11111111 110110 1110111 11111111 110110 1110111 11111111 1101101011 1011111111 1011101011 10010010001 10000101100 1100001001 1100011101 1101010111 1100010011 24.813 47.516 999.68 17502 22 16 13 59 51 4 $GNGGA,122813.00,4333.69117,N,00128.74657,E,1,03,2.78,142.6,M,53.8,M,,*4B
17 12 28 14 4333.6913000128.74644143.0ó 00128.74644 143.0 0 10111 11111111 110110 1110111 11111111 110110 1110111 11111111 1101101011 1011111101 1011100110 10010001101 10000101100 1100001100 1100011011 1101010111 1100001011 24.813 47.524 999.68 18499 22 15 14 60 51 3 $GNGGA,122814.00,4333.69130,N,00128.74644,E,1,03,2.78,143.0,M,53.8,M,,*4C
18 12 28 15 4333.6910400128.74761143.7ó 00128.74761 143.7 0 10111 11111111 110110 1110111 11111111 110110 1110111 11111111 1101101011 1011111100 1011100110 10010001101 10000101100 1100001011 1100011010 1101010010 1100001000 24.875 47.555 999.67 19500 21 16 15 59 51 3 $GNGGA,122815.00,4333.69104,N,00128.74761,E,1,04,1.63,143.7,M,53.8,M,,*45
19 12 28 16 4333.6911200128.74859144.0ó 00128.74859 144.0 0 10111 11111111 110110 1110111 11111111 110110 1110111 11111111 1101101011 1011111111 1011101001 10010001000 10000101010 1100001100 1100011000 1101010110 1100001100 24.875 47.600 999.69 20499 22 15 14 60 51 3 $GNGGA,122816.00,4333.69112,N,00128.74859,E,1,04,1.63,144.0,M,53.8,M,,*45
20 12 28 17 4333.6902900128.74955144.4ó 00128.74955 144.4 0 10111 11111111 110110 1110111 11111111 110110 1110111 11111111 1101101011 1100000011 1011101100 10010010011 10000101110 1100001011 1100011010 1101011100 1100010001 24.875 47.684 999.70 21497 21 14 14 58 51 4 $GNGGA,122817.00,4333.69029,N,00128.74955,E,1,04,1.63,144.4,M,53.8,M,,*44
21 12 28 18 4333.6906000128.74924144.6ó 00128.74924 144.6 0 10111 11111111 110110 1110111 11111111 110110 1110111 11111111 1101101100 1011111111 1011101001 10010010001 10000101010 1100001011 1100011010 1101011001 1100001111 24.813 47.730 999.71 22498 22 16 14 59 52 3 $GNGGA,122818.00,4333.69060,N,00128.74924,E,1,04,1.63,144.6,M,53.8,M,,*42
22 12 28 19 4333.6902700128.74846144.8ó 00128.74846 144.8 0 10111 11111111 110110 1110111 11111111 110110 1110111 11111111 1101101011 1011111011 1011100111 10010001101 10000101010 1100001010 1100010111 1101011000 1100010100 24.750 47.699 999.70 23495 23 14 13 60 50 4 $GNGGA,122819.00,4333.69027,N,00128.74846,E,1,04,1.63,144.8,M,53.8,M,,*4B
23 12 28 20 4333.6908300128.74800145.0ó 00128.74800 145.0 0 10111 11111111 110110 1110111 11111111 110110 1100000 0 1101101011 1011111100 1011101000 10010001000 10000101010 1100001001 1100011001 1101010011 1100001000 24.750 47.631 999.68 24496 21 15 13 58 51 5 $GNGGA,122820.00,4333.69083,N,00128.74800,E,1,04,1.63,145.0,M,53.8,M,,*44
24 12 28 21 4333.6908800128.74663144.6ó 00128.74663 144.6 0 10111 11111111 110110 1110111 11111111 110110 1110111 11111111 1101101011 1011111100 1011100111 10010001111 10000101100 1100000111 1100011010 1101011111 1100010000 24.750 47.577 999.69 25493 22 15 14 60 51 3 $GNGGA,122821.00,4333.69088,N,00128.74663,E,1,04,1.63,144.6,M,53.8,M,,*42
25 12 28 22 4333.6915000128.74631145.0ó 00128.74631 145.0 0 10111 11111111 110110 1110111 11111111 110110 1110111 11111111 1101101100 1011111010 1011100110 10010001110 10000101110 1100001001 1100011001 1101010101 1100001011 24.813 47.600 999.69 26494 21 14 15 59 51 3 $GNGGA,122822.00,4333.69150,N,00128.74631,E,1,05,1.47,145.0,M,53.8,M,,*42
26 12 28 23 4333.6910900128.74595145.0ó 00128.74595 145.0 0 10111 11111111 110110 1110111 11111111 110110 1110111 11111111 1101101100 1011111101 1011101000 10010001001 10000101011 1100001100 1100011010 1101011001 1100001011 24.750 47.646 999.69 27493 22 14 14 60 51 3 $GNGGA,122823.00,4333.69109,N,00128.74595,E,1,05,1.47,145.0,M,53.8,M,,*42
27 12 28 24 4333.6913800128.74535144.8ó 00128.74535 144.8 0 10111 11111111 110110 1110111 11111111 110110 1110111 11111111 1101101100 1011111011 1011100111 10010000110 10000101010 1100000111 1100011000 1101010001 1100000101 24.813 47.684 999.70 28490 21 14 14 59 50 4 $GNGGA,122824.00,4333.69138,N,00128.74535,E,1,05,1.47,144.8,M,53.8,M,,*44
28 12 28 25 4333.6912500128.74465144.5ó 00128.74465 144.5 0 10111 11111111 110110 1110111 11111111 110110 1110111 11111111 1101101011 1011111011 1011100110 10010000100 10000101011 1100010011 1100011101 1101011100 1100001101 24.813 47.761 999.71 29490 21 16 14 59 52 3 $GNGGA,122825.00,4333.69125,N,00128.74465,E,1,05,1.47,144.5,M,53.8,M,,*40
29 12 28 26 4333.6911300128.74504144.5ó 00128.74504 144.5 0 10111 11111111 110110 1110111 11111111 110110 1110111 11111111 1101101011 1100000001 1011101011 10010001100 10000101010 1100001100 1100011011 1101001101 1100001011 24.813 47.814 999.70 30489 22 15 14 60 51 3 $GNGGA,122826.00,4333.69113,N,00128.74504,E,1,05,1.47,144.5,M,53.8,M,,*40
30 12 28 27 4333.6916000128.74543144.3ó 00128.74543 144.3 0 10111 11111111 110110 1110111 11111111 110110 1110111 11111111 1101101011 1011111010 1011101000 10010001000 10000101100 1100010010 1100011000 1101010011 1100010111 24.813 47.852 999.70 31488 22 15 14 59 50 4 $GNGGA,122827.00,4333.69160,N,00128.74543,E,1,05,1.47,144.3,M,53.8,M,,*40
31 12 28 28 4333.6914600128.74544144.3ó 00128.74544 144.3 0 10111 11111111 110110 1110111 11111111 110110 1110111 11111111 1101101100 1011111010 1011100101 10010000010 10000101010 1100001100 1100011011 1101011010 1100010010 24.813 47.875 999.70 32488 23 15 13 60 50 4 $GNGGA,122828.00,4333.69146,N,00128.74544,E,1,05,1.47,144.3,M,53.8,M,,*4C
32 12 28 29 4333.6914500128.74509144.3ó 00128.74509 144.3 0 10111 11111111 110110 1110111 11111111 110110 1110111 11111111 1101101100 1011111010 1011101001 10010001010 10000101100 1100001011 1100011101 1101011000 1100001011 24.813 47.867 999.71 33485 22 14 14 58 51 4 $GNGGA,122829.00,4333.69145,N,00128.74509,E,1,05,1.47,144.3,M,53.8,M,,*47
33 12 28 30 4333.6913600128.74561144.1ó 00128.74561 144.1 0 10111 11111111 110110 1100000 0 110110 1110111 11111111 1101101011 1011111010 1011100111 10010000010 10000101100 1100010000 1100011001 1101010110 1100010101 24.875 47.867 999.70 34485 22 15 13 58 52 4 $GNGGA,122830.00,4333.69136,N,00128.74561,E,1,05,1.47,144.1,M,53.8,M,,*47
34 12 28 31 4333.6916500128.74685144.3ó 00128.74685 144.3 0 10111 11111111 110110 1110111 11111111 110110 1110111 11111111 1101101011 1011111010 1011100111 10010001000 10000101011 1100001110 1100011000 1101010101 1100010001 24.813 47.905 999.70 35483 23 14 13 60 50 4 $GNGGA,122831.00,4333.69165,N,00128.74685,E,1,05,1.47,144.3,M,53.8,M,,*4B
35 12 28 32 4333.6910400128.74675144.3ó 00128.74675 144.3 0 10111 11111111 110110 1110111 11111111 110110 1110111 11111111 1101101011 1011110111 1011100110 10010000111 10000101011 1100001111 1100011011 1101011001 1100010101 24.813 47.936 999.70 36481 21 15 14 58 51 4 $GNGGA,122832.00,4333.69104,N,00128.74675,E,1,05,1.47,144.3,M,53.8,M,,*40
36 12 28 33 4333.6912400128.74627144.2ó 00128.74627 144.2 0 10111 11111111 110110 1110111 11111111 110110 1110111 11111111 1101101100 1011111011 1011100110 10010000010 10000101011 1100001111 1100011110 1101011010 1100010100 24.813 47.951 999.70 37482 23 15 13 60 50 4 $GNGGA,122833.00,4333.69124,N,00128.74627,E,1,05,1.47,144.2,M,53.8,M,,*45
37 12 28 34 4333.6907900128.74674144.3ó 00128.74674 144.3 0 10111 11111111 110110 1100000 0 110110 1110111 11111111 1101101011 1011110111 1011100111 10001111011 10000101010 1100010010 1100011011 1101010110 1100010000 24.750 47.959 999.71 38480 21 14 14 59 50 4 $GNGGA,122834.00,4333.69079,N,00128.74674,E,1,05,1.47,144.3,M,53.8,M,,*4C
38 12 28 35 4333.6911200128.74696144.2ó 00128.74696 144.2 0 10111 11111111 110110 1110111 11111111 110110 1110111 11111111 1101101011 1011111010 1011100110 10010000101 10000101101 1100001100 1100011000 1101011000 1100001110 24.813 47.974 999.72 39480 22 16 14 59 52 3 $GNGGA,122835.00,4333.69112,N,00128.74696,E,1,05,1.47,144.2,M,53.8,M,,*4C
39 12 28 36 Nan Nan Nan 0 10111 11111111 110110 1110111 11111111 110110 1100000 0 1101101011 1011110101 1011100111 10001111110 10000101100 1100010001 1100011101 1101010110 1100001111 24.813 48.058 999.73 40468 23 7 10 60 50 4 $GNGGA,122836.00,,,,,0,00,16.6,,,,,,*45
40 12 28 37 4333.6909400128.74693144.2ó 00128.74693 144.2 0 10111 11111111 110110 1110111 11111111 110110 1110111 11111111 1101101011 1011111010 1011100111 10010000000 10000101100 1100001110 1100011100 1101010111 1100010100 24.813 48.058 999.72 41478 22 15 13 59 51 4 $GNGGA,122837.00,4333.69094,N,00128.74693,E,1,05,1.47,144.2,M,53.8,M,,*44
41 12 28 38 4333.6907700128.74657144.2ó 00128.74657 144.2 0 10111 11111111 110110 1110111 11111111 110110 1100000 0 1101101100 1011110110 1011100111 10001111000 10000101000 1100010000 1100011011 1101010011 1100001111 24.750 48.020 999.71 42477 23 15 13 60 50 4 $GNGGA,122838.00,4333.69077,N,00128.74657,E,1,05,1.47,144.2,M,53.8,M,,*4E
42 12 28 39 4333.6912300128.74691144.0ó 00128.74691 144.0 0 10111 11111111 110110 1110111 11111111 110110 1110111 11111111 1101101011 1011111010 1011101010 10010000000 10000101110 1100001111 1100011000 1101011000 1100010111 24.750 47.974 999.70 43476 22 15 14 59 50 4 $GNGGA,122839.00,4333.69123,N,00128.74691,E,1,05,1.47,144.0,M,53.8,M,,*47
43 12 28 40 4333.6914200128.74636143.9ó 00128.74636 143.9 0 10111 11111111 110110 1110111 11111111 110110 1110111 11111111 1101101100 1011110011 1011101000 10001110000 10000101001 1100001110 1100011011 1101011001 1100011001 24.813 47.974 999.69 44475 22 15 14 60 51 3 $GNGGA,122840.00,4333.69142,N,00128.74636,E,1,05,1.47,143.9,M,53.8,M,,*4D
44 12 28 41 4333.6909200128.74685143.8ó 00128.74685 143.8 0 10111 11111111 110110 1110111 11111111 110110 1110111 11111111 1101101011 1011110010 1011100111 10001110110 10000101100 1100010011 1100011100 1101011100 1100010101 24.750 47.982 999.69 45474 21 15 15 59 50 4 $GNGGA,122841.00,4333.69092,N,00128.74685,E,1,05,1.47,143.8,M,53.8,M,,*49
45 12 28 42 4333.6909400128.74718143.7ó 00128.74718 143.7 0 10111 11111111 110110 1110111 11111111 110110 1110111 11111111 1101101011 1011101101 1011100110 10001101011 10000101011 1100001100 1100011001 1101010100 1100001101 24.813 47.974 999.70 46473 21 15 13 58 52 4 $GNGGA,122842.00,4333.69094,N,00128.74718,E,1,05,1.47,143.7,M,53.8,M,,*46
46 12 28 43 4333.6908000128.74682143.7ó 00128.74682 143.7 0 10111 11111111 110110 1110111 11111111 110110 1110111 11111111 1101101100 1011101001 1011100101 10001101001 10000101001 1100001000 1100010010 1101010110 1100001000 24.750 47.974 999.71 47471 23 15 13 60 50 4 $GNGGA,122843.00,4333.69080,N,00128.74682,E,1,05,1.47,143.7,M,53.8,M,,*40
47 12 28 44 4333.6907600128.74681143.6ó 00128.74681 143.6 0 10111 11111111 110110 1100000 0 110110 1100000 0 1101101011 1011100100 1011100111 10001010111 10000101000 1100010100 1100011100 1101011000 1100001100 24.813 47.928 999.70 48471 21 15 14 59 50 4 $GNGGA,122844.00,4333.69076,N,00128.74681,E,1,05,1.47,143.6,M,53.8,M,,*4C
48 12 28 45 4333.6906600128.74755143.5ó 00128.74755 143.5 0 10111 11111111 110110 1110111 11111111 110110 1110111 11111111 1101101011 1011010111 1011100110 10001001001 10000101101 1100011010 1100011110 1101010010 1100001010 24.750 47.913 999.70 49470 22 15 14 60 51 3 $GNGGA,122845.00,4333.69066,N,00128.74755,E,1,05,1.47,143.5,M,53.8,M,,*47
49 12 28 46 4333.6914000128.74729143.4ó 00128.74729 143.4 0 10111 11111111 110110 1110111 11111111 110110 1110111 11111111 1101101100 1011001110 1011101010 10000100111 10000101011 1100010101 1100011000 1101010001 1100001010 24.813 47.959 999.69 50468 21 15 15 59 51 3 $GNGGA,122846.00,4333.69140,N,00128.74729,E,1,05,1.47,143.4,M,53.8,M,,*4B
50 12 28 47 4333.6918200128.74738143.2ó 00128.74738 143.2 0 10111 11111111 110110 1110111 11111111 110110 1110111 11111111 1101101100 1011000010 1011101001 10000000101 10000101010 1100011011 1100011010 1101001111 1100001011 24.813 47.959 999.70 51468 23 16 13 59 51 4 $GNGGA,122847.00,4333.69182,N,00128.74738,E,1,05,1.47,143.2,M,53.8,M,,*42
51 12 28 48 4333.6925800128.74724143.1ó 00128.74724 143.1 0 10111 11111111 110110 1110111 11111111 110110 1110111 11111111 1101101100 1010110010 1011100111 1111011110 10000101010 1100010110 1100010000 1101010000 1100001101 24.813 47.967 999.71 52466 22 14 14 60 51 3 $GNGGA,122848.00,4333.69258,N,00128.74724,E,1,05,1.47,143.1,M,53.8,M,,*47
52 12 28 49 4333.6920600128.74670143.1ó 00128.74670 143.1 0 10111 11111111 110110 1110111 11111111 110110 1100000 0 1101101011 1010100111 1011100110 1110110111 10000101001 1100100011 1100011000 1101001111 1100010001 24.750 48.058 999.71 53466 21 15 13 58 51 5 $GNGGA,122849.00,4333.69206,N,00128.74670,E,1,04,4.55,143.1,M,53.8,M,,*4A
53 12 28 50 4333.6921700128.74682143.1ó 00128.74682 143.1 0 10111 11111111 110110 1110111 11111111 110110 1100000 0 1101101011 1010011101 1011100111 1110010000 10000100111 1100101001 1100011011 1101001000 1100010010 24.750 48.111 999.70 54462 22 15 14 60 51 3 $GNGGA,122850.00,4333.69217,N,00128.74682,E,1,04,4.55,143.1,M,53.8,M,,*4F
54 12 28 51 4333.6922700128.74669143.2ó 00128.74669 143.2 0 10111 11111111 110110 1110111 11111111 110110 1100000 0 1101101100 1010011001 1011101000 1101110110 10000101100 1100101001 1100011010 1101000100 1100000110 24.750 48.104 999.69 55463 21 15 15 59 51 3 $GNGGA,122851.00,4333.69227,N,00128.74669,E,1,04,4.55,143.2,M,53.8,M,,*4B
55 12 28 52 4333.6923800128.74638143.2ó 00128.74638 143.2 0 10111 11111111 110110 1110111 11111111 110110 1110111 11111111 1101101011 1010010010 1011100100 1101010111 10000101011 1100101011 1100010111 1101001001 1100000100 24.813 48.111 999.69 56463 22 15 14 60 51 3 $GNGGA,122852.00,4333.69238,N,00128.74638,E,1,05,1.46,143.2,M,53.8,M,,*44
56 12 28 53 4333.6925700128.74595143.3ó 00128.74595 143.3 0 10111 11111111 110110 1110111 11111111 110110 1110111 11111111 1101101011 1010001100 1011100110 1100111111 10000101010 1100101011 1100011001 1101000111 1100000110 24.750 48.104 999.68 57461 21 15 15 59 51 3 $GNGGA,122853.00,4333.69257,N,00128.74595,E,1,05,1.46,143.3,M,53.8,M,,*49
57 12 28 54 4333.6915900128.74592143.4ó 00128.74592 143.4 0 10111 11111111 110110 1110111 11111111 110110 1110111 11111111 1101101100 1010001000 1011100011 1100101001 10000101010 1100101111 1100011000 1101001010 1100010001 24.813 48.066 999.68 58461 21 16 14 59 52 3 $GNGGA,122854.00,4333.69159,N,00128.74592,E,1,05,1.46,143.4,M,53.8,M,,*43
58 12 28 55 4333.6916900128.74543143.5ó 00128.74543 143.5 0 10111 11111111 110110 1110111 11111111 110110 1110111 11111111 1101101011 1010000100 1011100100 1100011000 10000101001 1100110000 1100011111 1101000010 1100001100 24.750 47.967 999.69 59459 22 15 14 60 51 3 $GNGGA,122855.00,4333.69169,N,00128.74543,E,1,05,1.46,143.5,M,53.8,M,,*4C
59 12 28 56 4333.6921800128.74549143.5ó 00128.74549 143.5 0 10111 11111111 110110 1110111 11111111 110110 1110111 11111111 1101101011 1010000011 1011100110 1100010001 10000101011 1100110110 1100011001 1101000011 1100001011 24.813 47.989 999.68 60459 20 16 15 59 51 3 $GNGGA,122856.00,4333.69218,N,00128.74549,E,1,05,1.46,143.5,M,53.8,M,,*40
60 12 28 57 4333.6924800128.74612143.5ó 00128.74612 143.5 0 10111 11111111 110110 1110111 11111111 110110 1100000 0 1101101011 1010000010 1011100101 1100001001 10000101000 1100110111 1100010110 1101000000 1100010010 24.813 48.028 999.69 61458 22 15 14 60 51 3 $GNGGA,122857.00,4333.69248,N,00128.74612,E,1,05,1.46,143.5,M,53.8,M,,*49
61 12 28 58 4333.6919900128.74564143.6ó 00128.74564 143.6 0 10111 11111111 110110 1110111 11111111 110110 1100000 0 1101101011 1001111110 1011100101 1011111100 10000100110 1101000001 1100011011 1100111101 1100001001 24.813 48.012 999.70 62456 21 14 15 59 51 3 $GNGGA,122858.00,4333.69199,N,00128.74564,E,1,05,1.46,143.6,M,53.8,M,,*48
62 12 28 59 4333.6917500128.74576143.6ó 00128.74576 143.6 0 10111 11111111 110110 1110111 11111111 110110 1110111 11111111 1101101011 1001111101 1011100011 1011110011 10000100110 1100111110 1100011001 1100110111 1100001110 24.750 47.967 999.69 63456 23 16 13 59 51 4 $GNGGA,122859.00,4333.69175,N,00128.74576,E,1,05,1.46,143.6,M,53.8,M,,*48
63 12 29 00 4333.6920200128.74591143.7ó 00128.74591 143.7 0 10111 11111111 110110 1110111 11111111 110110 1100000 0 1101101011 1001111100 1011100101 1011110100 10000101001 1101000001 1100011110 1100110111 1100001011 24.750 47.936 999.68 64454 22 14 13 60 50 4 $GNGGA,122900.00,4333.69202,N,00128.74591,E,1,05,1.46,143.7,M,53.8,M,,*4E
64 12 29 01 4333.6920900128.74543143.7ó 00128.74543 143.7 0 10111 11111111 110110 1110111 11111111 110110 1110111 11111111 1101101011 1001111001 1011100100 1011101100 10000100111 1101000101 1100011010 1100110100 1100000111 24.813 47.928 999.68 65452 21 15 14 58 51 4 $GNGGA,122901.00,4333.69209,N,00128.74543,E,1,05,1.46,143.7,M,53.8,M,,*4B
65 12 29 02 4333.6930500128.74483143.8ó 00128.74483 143.8 0 10111 11111111 110110 1110111 11111111 110110 1110111 11111111 1101101011 1001111001 1011100101 1011101001 10000100111 1100111110 1100011000 1100110100 1100001101 24.750 47.928 999.68 66452 22 14 13 59 51 4 $GNGGA,122902.00,4333.69305,N,00128.74483,E,1,05,1.46,143.8,M,53.8,M,,*47
66 12 29 03 4333.6931300128.74425143.9ó 00128.74425 143.9 0 10111 11111111 110110 1110111 11111111 110110 1110111 11111111 1101101100 1001110111 1011100100 1011110000 10000100110 1101000000 1100010111 1100110101 1100001100 24.750 47.944 999.68 67452 22 15 14 59 50 4 $GNGGA,122903.00,4333.69313,N,00128.74425,E,1,05,1.46,143.9,M,53.8,M,,*4C
67 12 29 04 4333.6933100128.74405144.0ó 00128.74405 144.0 0 10111 11111111 110110 1110111 11111111 110110 1110111 11111111 1101101011 1001111100 1011100111 1011110000 10000101000 1101000001 1100011100 1100110001 1100001111 24.750 47.944 999.69 68452 22 16 14 60 51 3 $GNGGA,122904.00,4333.69331,N,00128.74405,E,1,05,1.46,144.0,M,53.8,M,,*47
68 12 29 05 4333.6929000128.74373144.1ó 00128.74373 144.1 0 10111 11111111 110110 1100000 0 110110 1110111 11111111 1101101100 1001111010 1011100101 1011110010 10000100111 1101000101 1100010101 1100110011 1100001101 24.750 47.936 999.70 69449 22 14 13 58 51 4 $GNGGA,122905.00,4333.69290,N,00128.74373,E,1,05,1.46,144.1,M,53.8,M,,*4B
69 12 29 06 4333.6927500128.74338144.2ó 00128.74338 144.2 0 10111 11111111 110110 1110111 11111111 110110 1110111 11111111 1101101011 1001110110 1011100001 1011110101 10000100111 1101000110 1100011100 1100110100 1100010001 24.750 47.928 999.71 70449 21 15 13 58 52 4 $GNGGA,122906.00,4333.69275,N,00128.74338,E,1,05,1.46,144.2,M,53.8,M,,*4F
70 12 29 07 4333.6930600128.74307144.4ó 00128.74307 144.4 0 10111 11111111 110110 1110111 11111111 110110 1110111 11111111 1101101100 1001111010 1011100011 1011110111 10000101000 1101000110 1100010011 1100110001 1100010000 24.750 47.921 999.69 71447 22 14 13 59 51 4 $GNGGA,122907.00,4333.69306,N,00128.74307,E,1,05,1.46,144.4,M,53.8,M,,*41
71 12 29 08 4333.6926200128.74238144.5ó 00128.74238 144.5 0 10111 11111111 110110 1100000 0 110110 1110111 11111111 1101101100 1001111010 1011100100 1011110100 10000100111 1101000011 1100010111 1100110000 1100010001 24.750 47.921 999.69 72445 21 14 14 59 50 4 $GNGGA,122908.00,4333.69262,N,00128.74238,E,1,05,1.46,144.5,M,53.8,M,,*41
72 12 29 09 4333.6925600128.74172144.6ó 00128.74172 144.6 0 10111 11111111 110110 1110111 11111111 110110 1110111 11111111 1101101011 1001110111 1011100101 1011110101 10000100110 1101001000 1100010110 1100110000 1100001111 24.813 47.936 999.69 73445 22 15 14 60 51 3 $GNGGA,122909.00,4333.69256,N,00128.74172,E,1,05,1.46,144.6,M,53.8,M,,*49
73 12 29 10 4333.6923700128.74136144.7ó 00128.74136 144.7 0 10111 11111111 110110 1100000 0 110110 1100000 0 1101101011 1001111000 1011100100 1011110011 10000100111 1101001010 1100011011 1100101110 1100010010 24.813 47.959 999.70 74444 21 14 14 58 51 4 $GNGGA,122910.00,4333.69237,N,00128.74136,E,1,05,1.46,144.7,M,53.8,M,,*47
74 12 29 11 4333.6924700128.74101144.8ó 00128.74101 144.8 0 10111 11111111 110110 1110111 11111111 110110 1110111 11111111 1101101011 1001111011 1011100110 1011111000 10000100111 1101000111 1100011001 1100110000 1100001100 24.750 47.982 999.69 75444 21 16 14 59 52 3 $GNGGA,122911.00,4333.69247,N,00128.74101,E,1,05,1.46,144.8,M,53.8,M,,*4A
75 12 29 12 4333.6927400128.74099144.8ó 00128.74099 144.8 0 10111 11111111 110110 1110111 11111111 110110 1110111 11111111 1101101100 1001111001 1011100100 1011111011 10000100111 1101001101 1100011100 1100101011 1100001111 24.750 47.967 999.70 76440 22 14 13 59 51 4 $GNGGA,122912.00,4333.69274,N,00128.74099,E,1,05,1.46,144.8,M,53.8,M,,*49
76 12 29 13 4333.6927100128.74049144.9ó 00128.74049 144.9 0 10111 11111111 110110 1110111 11111111 110110 1110111 11111111 1101101100 1001111001 1011100000 1011111011 10000100101 1101000110 1100011001 1100100111 1100010011 24.750 47.997 999.70 77442 21 16 15 59 51 3 $GNGGA,122913.00,4333.69271,N,00128.74049,E,1,05,1.46,144.9,M,53.8,M,,*41
77 12 29 14 4333.6927100128.73969145.0ó 00128.73969 145.0 0 10111 11111111 110110 1110111 11111111 110110 1110111 11111111 1101101011 1001111101 1011100100 1011111111 10000100101 1101001101 1100011011 1100100001 1100001010 24.750 47.944 999.71 78440 23 14 13 60 50 4 $GNGGA,122914.00,4333.69271,N,00128.73969,E,1,05,1.46,145.0,M,53.8,M,,*42
78 12 29 15 4333.6927200128.73875145.1ó 00128.73875 145.1 0 10111 11111111 110110 1110111 11111111 110110 1110111 11111111 1101101100 1001111101 1011100000 1100001010 10000100110 1101001000 1100010111 1100100000 1100001010 24.750 47.883 999.70 79439 21 15 15 59 51 3 $GNGGA,122915.00,4333.69272,N,00128.73875,E,1,05,1.46,145.1,M,53.8,M,,*4D
79 12 29 16 4333.6925000128.73872145.2ó 00128.73872 145.2 0 10111 11111111 110110 1100000 0 110110 1110111 11111111 1101101011 1001111111 1011100010 1100010011 10000100110 1101001010 1100010101 1100100000 1100001110 24.750 47.837 999.69 80438 22 16 13 59 51 4 $GNGGA,122916.00,4333.69250,N,00128.73872,E,1,05,1.46,145.2,M,53.8,M,,*4A
80 12 29 17 4333.6936600128.73688145.2ó 00128.73688 145.2 0 10111 11111111 110110 1110111 11111111 110110 1110111 11111111 1101101011 1010000010 1011100011 1100010011 10000100110 1101000111 1100010110 1100110000 1100010001 24.813 47.768 999.67 81437 22 15 14 60 51 3 $GNGGA,122917.00,4333.69366,N,00128.73688,E,1,05,1.46,145.2,M,53.8,M,,*44
81 12 29 18 4333.6937000128.73678145.2ó 00128.73678 145.2 0 10111 11111111 110110 1110111 11111111 110110 1110111 11111111 1101101100 1010000110 1011100110 1100011000 10000100101 1101001110 1100011001 1100100010 1100001010 24.750 47.684 999.68 82437 21 16 14 59 51 4 $GNGGA,122918.00,4333.69370,N,00128.73678,E,1,05,1.46,145.2,M,53.8,M,,*43
82 12 29 19 4333.6937200128.73619145.2ó 00128.73619 145.2 0 10111 11111111 110110 1110111 11111111 110110 1110111 11111111 1101101011 1010000101 1011100100 1100011001 10000100110 1101001101 1100011101 1100100010 1100010000 24.750 47.608 999.69 83434 23 15 13 60 50 4 $GNGGA,122919.00,4333.69372,N,00128.73619,E,1,05,1.46,145.2,M,53.8,M,,*47
83 12 29 20 4333.6940400128.73560145.2ó 00128.73560 145.2 0 10111 11111111 110110 1110111 11111111 110110 1110111 11111111 1101101011 1001111110 1011100011 1100011111 10000100011 1101001010 1100010110 1100100001 1100000100 24.750 47.577 999.68 84433 21 14 14 58 51 4 $GNGGA,122920.00,4333.69404,N,00128.73560,E,1,05,1.46,145.2,M,53.8,M,,*46
84 12 29 21 4333.6938800128.73577145.3ó 00128.73577 145.3 0 10111 11111111 110110 1110111 11111111 110110 1110111 11111111 1101101011 1010000100 1011100110 1100101001 10000100110 1101001101 1100010111 1100100010 1100001011 24.750 47.684 999.67 85433 22 16 14 60 51 3 $GNGGA,122921.00,4333.69388,N,00128.73577,E,1,05,1.46,145.3,M,53.8,M,,*43
85 12 29 22 4333.6947200128.73465145.3ó 00128.73465 145.3 0 10111 11111111 110110 1110111 11111111 110110 1110111 11111111 1101101011 1010000110 1011100001 1100110000 10000101000 1101001100 1100011000 1100100100 1100001101 24.750 47.745 999.67 86431 22 14 14 59 50 4 $GNGGA,122922.00,4333.69472,N,00128.73465,E,1,05,1.46,145.3,M,53.8,M,,*40
86 12 29 23 4333.6944600128.73517145.4ó 00128.73517 145.4 0 10111 11111111 110110 1110111 11111111 110110 1110111 11111111 1101101011 1010001010 1011100101 1100110011 10000100101 1101001001 1100010110 1100100101 1100001101 24.750 47.699 999.67 87430 21 16 14 59 52 3 $GNGGA,122923.00,4333.69446,N,00128.73517,E,1,05,1.46,145.4,M,53.8,M,,*45
87 12 29 24 4333.6946700128.73536145.4ó 00128.73536 145.4 0 10111 11111111 110110 1110111 11111111 110110 1110111 11111111 1101101100 1010001000 1011100011 1100110111 10000100101 1101001011 1100011001 1100100011 1100001110 24.750 47.654 999.66 88430 22 14 13 59 51 4 $GNGGA,122924.00,4333.69467,N,00128.73536,E,1,05,1.46,145.4,M,53.8,M,,*42
88 12 29 25 4333.6947200128.73515145.4ó 00128.73515 145.4 0 10111 11111111 110110 1100000 0 110110 1110111 11111111 1101101100 1010001011 1011100001 1100111000 10000100100 1101001011 1100011101 1100100010 1100001111 24.750 47.638 999.67 89428 21 15 15 59 51 3 $GNGGA,122925.00,4333.69472,N,00128.73515,E,1,05,1.46,145.4,M,53.8,M,,*46
89 12 29 26 4333.6943100128.73385145.4ó 00128.73385 145.4 0 10111 11111111 110110 1110111 11111111 110110 1110111 11111111 1101101100 1010001001 1011100000 1101000000 10000100100 1101001000 1100010100 1100011101 1100001101 24.750 47.677 999.68 90428 23 15 13 60 50 4 $GNGGA,122926.00,4333.69431,N,00128.73385,E,1,05,1.46,145.4,M,53.8,M,,*4D
90 12 29 27 4333.6946200128.73399145.5ó 00128.73399 145.5 0 10111 11111111 110110 1110111 11111111 110110 1110111 11111111 1101101011 1010001111 1011100111 1101001011 10000100100 1101001011 1100010110 1100011111 1100001010 24.813 47.730 999.67 91426 21 14 14 58 51 4 $GNGGA,122927.00,4333.69462,N,00128.73399,E,1,05,1.46,145.5,M,53.8,M,,*46
91 12 29 28 4333.6944000128.73438145.6ó 00128.73438 145.6 0 10111 11111111 110110 1110111 11111111 110110 1100000 0 1101101011 1010001101 1011100101 1101001110 10000100101 1101001000 1100011000 1100011101 1100000110 24.750 47.783 999.67 92426 22 15 13 58 52 4 $GNGGA,122928.00,4333.69440,N,00128.73438,E,1,05,1.46,145.6,M,53.8,M,,*46
92 12 29 29 4333.6937600128.73448145.6ó 00128.73448 145.6 0 10111 11111111 110110 1110111 11111111 110110 1110111 11111111 1101101011 1010010000 1011100101 1101001011 10000100100 1101001101 1100011110 1100011100 1100001010 24.750 47.837 999.67 93424 22 14 13 60 51 4 $GNGGA,122929.00,4333.69376,N,00128.73448,E,1,05,1.46,145.6,M,53.8,M,,*42
93 12 29 30 4333.6938600128.73472145.6ó 00128.73472 145.6 0 10111 11111111 110110 1110111 11111111 110110 1110111 11111111 1101101011 1010001110 1011100100 1101010001 10000100101 1101001100 1100011011 1100100100 1100010000 24.750 47.860 999.67 94422 22 15 14 59 50 4 $GNGGA,122930.00,4333.69386,N,00128.73472,E,1,05,1.46,145.6,M,53.8,M,,*4C
94 12 29 31 4333.6938100128.73464145.6ó 00128.73464 145.6 0 10111 11111111 110110 1110111 11111111 110110 1110111 11111111 1101101100 1010010100 1011100110 1101010101 10000100110 1101010001 1100011100 1100100000 1100001010 24.750 47.875 999.68 95423 22 15 14 60 51 3 $GNGGA,122931.00,4333.69381,N,00128.73464,E,1,05,1.46,145.6,M,53.8,M,,*4D
95 12 29 32 4333.6938800128.73419145.5ó 00128.73419 145.5 0 10111 11111111 110110 1110111 11111111 110110 1100000 0 1101101011 1010010000 1011100101 1101010011 10000100101 1101001101 1100011011 1100100011 1100001001 24.750 47.829 999.69 96421 21 14 15 59 51 3 $GNGGA,122932.00,4333.69388,N,00128.73419,E,1,05,1.46,145.5,M,53.8,M,,*4E
96 12 29 33 4333.6938600128.73460145.3ó 00128.73460 145.3 0 10111 11111111 110110 1110111 11111111 110110 1110111 11111111 1101101011 1010011000 1011100111 1101010100 10000100101 1101010000 1100100100 1100110000 1100011010 24.750 47.753 999.68 97421 23 16 13 59 51 4 $GNGGA,122933.00,4333.69386,N,00128.73460,E,1,05,1.46,145.3,M,53.8,M,,*49
97 12 29 34 4333.6939300128.73422145.1ó 00128.73422 145.1 0 10111 11111111 110110 1110111 11111111 110110 1110111 11111111 1101101011 1010010011 1011100100 1101011110 10000100101 1101011101 1100101000 1100100001 1100001110 24.750 47.707 999.68 98419 22 15 14 60 51 3 $GNGGA,122934.00,4333.69393,N,00128.73422,E,1,05,1.46,145.1,M,53.8,M,,*4E
98 12 29 35 4333.6940500128.73420145.0ó 00128.73420 145.0 0 10111 11111111 110110 1110111 11111111 110110 1110111 11111111 1101101011 1010010001 1011100101 1101100000 10000100011 1101111111 1101011001 1100100001 1100001001 24.750 47.684 999.68 99419 22 16 13 59 50 5 $GNGGA,122935.00,4333.69405,N,00128.73420,E,1,05,1.46,145.0,M,53.8,M,,*44
99 12 29 36 4333.6935800128.73454145.0ó 00128.73454 145.0 0 10111 11111111 110110 1110111 11111111 110110 1110111 11111111 1101101100 1010001101 1011100100 1101100110 10000100110 1101101100 1100111111 1100100000 1100001010 24.750 47.692 999.68 100418 22 15 14 60 51 3 $GNGGA,122936.00,4333.69358,N,00128.73454,E,1,05,1.46,145.0,M,53.8,M,,*4B
100 12 29 37 4333.6933600128.73431145.0ó 00128.73431 145.0 0 10111 11111111 110110 1110111 11111111 110110 1110111 11111111 1101101100 1010010011 1011100101 1101101101 10000100110 1101011011 1100110001 1100011111 1100001010 24.688 47.722 999.69 101417 21 15 15 59 51 3 $GNGGA,122937.00,4333.69336,N,00128.73431,E,1,05,1.46,145.0,M,53.8,M,,*41
101 12 29 38 4333.6932200128.73505144.8ó 00128.73505 144.8 0 10111 11111111 110110 1110111 11111111 110110 1110111 11111111 1101101011 1010011011 1011100101 1101110000 10000100111 1101010110 1100100011 1100100011 1100001010 24.688 47.745 999.70 102416 22 15 14 60 51 3 $GNGGA,122938.00,4333.69322,N,00128.73505,E,1,05,1.46,144.8,M,53.8,M,,*44
102 12 29 39 4333.6933400128.73490144.6ó 00128.73490 144.6 0 10111 11111111 110110 1110111 11111111 110110 1110111 11111111 1101101011 1010011011 1011100011 1101110000 10000100011 1101010000 1100011111 1100011110 1100000110 24.688 47.829 999.70 103414 21 15 15 59 51 3 $GNGGA,122939.00,4333.69334,N,00128.73490,E,1,05,1.46,144.6,M,53.8,M,,*41
103 12 29 40 4333.6933000128.73550144.4ó 00128.73550 144.4 0 10111 11111111 110110 1110111 11111111 110110 1110111 11111111 1101101011 1010011011 1011100101 1101111010 10000100011 1101000101 1100011001 1100101010 1100010111 24.688 48.394 999.70 104413 22 15 13 59 51 4 $GNGGA,122940.00,4333.69330,N,00128.73550,E,1,05,1.46,144.4,M,53.8,M,,*44
104 12 29 41 4333.6927800128.73557144.3ó 00128.73557 144.3 0 10111 11111111 110110 1110111 11111111 110110 1110111 11111111 1101101100 1010011000 1011100101 1110000001 10000100100 1101000011 1100011101 1100100110 1100001101 24.750 48.813 999.70 105410 23 14 13 60 50 4 $GNGGA,122941.00,4333.69278,N,00128.73557,E,1,05,1.46,144.3,M,53.8,M,,*48
105 12 29 42 4333.6927200128.73619144.2ó 00128.73619 144.2 0 10111 11111111 110110 1110111 11111111 110110 1110111 11111111 1101101011 1010011011 1011100011 1110000000 10000100100 1101001000 1100011011 1100100101 1100010000 24.750 48.852 999.68 106411 21 15 14 59 51 4 $GNGGA,122942.00,4333.69272,N,00128.73619,E,1,05,1.46,144.2,M,53.8,M,,*49
106 12 29 43 4333.6927700128.73497144.2ó 00128.73497 144.2 0 10111 11111111 110110 1110111 11111111 110110 1110111 11111111 1101101100 1010011100 1011100010 1101111101 10000100011 1101000100 1100011000 1100101000 1100010100 24.750 48.600 999.68 107411 21 15 14 60 51 3 $GNGGA,122943.00,4333.69277,N,00128.73497,E,1,05,1.46,144.2,M,53.8,M,,*49
107 12 29 44 4333.6932400128.73480144.1ó 00128.73480 144.1 0 10111 11111111 110110 1110111 11111111 110110 1110111 11111111 1101101100 1010010110 1011100001 1110000101 10000100101 1101000101 1100011100 1100101010 1100010111 24.688 48.050 999.70 108409 21 15 15 59 51 3 $GNGGA,122944.00,4333.69324,N,00128.73480,E,1,05,1.46,144.1,M,53.8,M,,*4C
108 12 29 45 4333.6935000128.73482144.0ó 00128.73482 144.0 0 10111 11111111 110110 1110111 11111111 110110 1110111 11111111 1101101100 1010011011 1011100101 1110001010 10000100111 1101001000 1100011010 1100100011 1100001011 24.750 47.669 999.69 109408 22 15 13 58 52 4 $GNGGA,122945.00,4333.69350,N,00128.73482,E,1,05,1.46,144.0,M,53.8,M,,*4D
109 12 29 46 4333.6933400128.73520143.8ó 00128.73520 143.8 0 10111 11111111 110110 1110111 11111111 110110 1110111 11111111 1101101100 1010011001 1011100110 1110000001 10000100010 1101000110 1100011100 1100100100 1100001011 24.750 47.379 999.70 110406 22 14 13 60 50 4 $GNGGA,122946.00,4333.69334,N,00128.73520,E,1,05,1.46,143.8,M,53.8,M,,*4A
110 12 29 47 4333.6938300128.73504143.5ó 00128.73504 143.5 0 10111 11111111 110110 1110111 11111111 110110 1110111 11111111 1101101011 1010011010 1011100101 1110001001 10000100100 1101000011 1100010110 1100100100 1100001111 24.750 47.196 999.70 111406 21 15 14 59 51 4 $GNGGA,122947.00,4333.69383,N,00128.73504,E,1,05,1.46,143.5,M,53.8,M,,*4C
111 12 29 48 4333.6942800128.73462143.0ó 00128.73462 143.0 0 10111 11111111 110110 1110111 11111111 110110 1110111 11111111 1101101100 1010011011 1011100100 1110001011 10000100100 1101001010 1100011001 1100100101 1100000101 24.750 47.066 999.70 112406 22 14 14 60 51 3 $GNGGA,122948.00,4333.69428,N,00128.73462,E,1,05,1.46,143.0,M,53.8,M,,*41
112 12 29 49 4333.6942800128.73678142.7ó 00128.73678 142.7 0 10111 11111111 110110 1110111 11111111 110110 1110111 11111111 1101101011 1010011011 1011100111 1110000110 10000100101 1101000100 1100011001 1100100011 1100000100 24.750 47.028 999.70 113405 21 14 14 58 51 4 $GNGGA,122949.00,4333.69428,N,00128.73678,E,1,05,1.46,142.7,M,53.8,M,,*4F
113 12 29 50 4333.6946100128.73567142.5ó 00128.73567 142.5 0 10111 11111111 110110 1110111 11111111 110110 1110111 11111111 1101101100 1010010110 1011100111 1110000010 10000100101 1101000110 1100011100 1100100001 1100000111 24.813 46.937 999.68 114405 22 15 14 60 51 3 $GNGGA,122950.00,4333.69461,N,00128.73567,E,1,05,1.46,142.5,M,53.8,M,,*45
114 12 29 51 4333.6942800128.73665142.0ó 00128.73665 142.0 0 10111 11111111 110110 1110111 11111111 110110 1110111 11111111 1101101011 1010010111 1011100100 1101110111 10000100010 1101000010 1100010010 1100011111 1100001000 24.750 46.822 999.67 115403 21 14 14 58 51 4 $GNGGA,122951.00,4333.69428,N,00128.73665,E,1,05,1.46,142.0,M,53.8,M,,*4D
115 12 29 52 4333.6940000128.73701141.6ó 00128.73701 141.6 0 10111 11111111 110110 1110111 11111111 110110 1110111 11111111 1101101100 1010011010 1011100100 1101111100 10000100100 1101000010 1100010100 1100100001 1100000100 24.688 46.761 999.68 116400 22 16 13 59 50 5 $GNGGA,122952.00,4333.69400,N,00128.73701,E,1,05,1.46,141.6,M,53.8,M,,*42
116 12 29 53 Nan Nan Nan 0 10111 11111111 110110 1110111 11111111 110110 1110111 11111111 1101101011 1010100011 1011101001 1110000101 10000100110 1101000011 1100011011 1100100101 1100001111 24.750 46.723 999.69 117389 22 7 11 59 52 3 $GNGGA,122953.00,,,,,0,00,16.1,,,,,,*40
117 12 29 54 Nan Nan Nan 0 10111 11111111 110110 1110111 11111111 110110 1110111 11111111 1101101011 1010011100 1011100011 1110001000 10000100011 1101000101 1100011010 1100011100 1100001011 24.750 46.700 999.68 118388 22 7 11 59 50 4 $GNGGA,122954.00,,,,,0,00,16.1,,,,,,*47
118 12 29 55 Nan Nan Nan 0 10111 11111111 110110 1110111 11111111 110110 1100000 0 1101101100 1010011100 1011100011 1110001010 10000100101 1101000100 1100011001 1100011011 1100001111 24.750 46.738 999.68 119388 21 8 11 59 52 3 $GNGGA,122955.00,,,,,0,00,16.1,,,,,,*46
119 12 29 56 Nan Nan Nan 0 10111 11111111 110110 1100000 0 110110 1110111 11111111 1101101011 1010011000 1011101000 1110001001 10000100100 1100111100 1100010100 1100011110 1100001000 24.688 46.784 999.68 120386 22 7 11 60 51 3 $GNGGA,122956.00,,,,,0,00,16.1,,,,,,*45
120 12 29 57 4333.6950100128.73540143.1ó 00128.73540 143.1 0 10111 11111111 110110 1110111 11111111 110110 1110111 11111111 1101101011 1010011000 1011100100 1110001100 10000100111 1101000001 1100010111 1100011011 1100001000 24.750 46.814 999.68 121397 22 16 14 59 52 3 $GNGGA,122957.00,4333.69501,N,00128.73540,E,1,05,5.04,143.1,M,53.8,M,,*47
121 12 29 58 4333.6963900128.73294143.6ó 00128.73294 143.6 0 10111 11111111 110110 1110111 11111111 110110 1110111 11111111 1101101100 1010011000 1011101001 1110001011 10000101000 1101000010 1100011001 1100100101 1100001101 24.750 46.822 999.69 122396 22 14 13 60 50 4 $GNGGA,122958.00,4333.69639,N,00128.73294,E,1,05,5.03,143.6,M,53.8,M,,*4E
122 12 29 59 4333.6991700128.73333143.6ó 00128.73333 143.6 0 10111 11111111 110110 1110111 11111111 110110 1110111 11111111 1101101100 1010010110 1011100110 1110000110 10000100110 1101000101 1100011000 1100100001 1100001101 24.813 46.853 999.70 123394 21 16 15 59 51 3 $GNGGA,122959.00,4333.69917,N,00128.73333,E,1,06,1.45,143.6,M,53.8,M,,*45
123 12 30 00 4333.7004600128.73492143.3ó 00128.73492 143.3 0 10111 11111111 110110 1110111 11111111 110110 1110111 11111111 1101101100 1010010001 1011100001 1110000010 10000100011 1101000111 1100011100 1100011110 1100000110 24.750 46.914 999.70 124394 22 14 13 60 50 4 $GNGGA,123000.00,4333.70046,N,00128.73492,E,1,05,1.46,143.3,M,53.8,M,,*4D
124 12 30 01 4333.7011700128.73597143.2ó 00128.73597 143.2 0 10111 11111111 110110 1110111 11111111 110110 1110111 11111111 1101101100 1010010100 1011100110 1101111011 10000100100 1101001010 1100011000 1100100111 1100010000 24.688 46.967 999.71 125392 21 14 14 58 51 4 $GNGGA,123001.00,4333.70117,N,00128.73597,E,1,05,1.46,143.2,M,53.8,M,,*4C
125 12 30 02 4333.7031300128.73594143.1ó 00128.73594 143.1 0 10111 11111111 110110 1110111 11111111 110110 1110111 11111111 1101101011 1010010110 1011100100 1101111100 10000100101 1101000110 1100011000 1100100011 1100001111 24.813 47.097 999.71 126393 22 14 13 59 51 4 $GNGGA,123002.00,4333.70313,N,00128.73594,E,1,06,1.45,143.1,M,53.8,M,,*49
126 12 30 03 4333.7040100128.73604143.0ó 00128.73604 143.0 0 10111 11111111 110110 1110111 11111111 110110 1110111 11111111 1101101011 1010011000 1011100101 1101111100 10000100101 1101000110 1100011011 1100011110 1100000100 24.813 47.387 999.69 127391 21 14 15 59 51 3 $GNGGA,123003.00,4333.70401,N,00128.73604,E,1,06,1.45,143.0,M,53.8,M,,*47
127 12 30 04 Nan Nan Nan 0 10111 11111111 110110 1110111 11111111 110110 1110111 11111111 1101101100 1010011110 1011100100 1110000101 10000100101 1100111111 1100010110 1100100010 1100001011 24.750 47.547 999.70 128377 22 7 11 59 50 4 $GNGGA,123004.00,,,,,0,00,16.0,,,,,,*4B
128 12 30 05 4333.7043500128.73700143.0ó 00128.73700 143.0 0 10111 11111111 110110 1110111 11111111 110110 1110111 11111111 1101101011 1010100110 1011101000 1110010010 10000100111 1101000010 1100010111 1100100010 1100001100 24.750 47.608 999.69 129388 22 14 13 60 50 4 $GNGGA,123005.00,4333.70435,N,00128.73700,E,1,06,1.32,143.0,M,53.8,M,,*43
129 12 30 06 4333.7042900128.73825143.0ó 00128.73825 143.0 0 10111 11111111 110110 1110111 11111111 110110 1110111 11111111 1101101011 1010100010 1011100100 1110011001 10000100101 1100111111 1100011010 1100100000 1100001100 24.688 47.867 999.69 130387 21 15 15 59 51 3 $GNGGA,123006.00,4333.70429,N,00128.73825,E,1,05,1.46,143.0,M,53.8,M,,*45
130 12 30 07 Nan Nan Nan 0 10111 11111111 110110 1110111 11111111 110110 1110111 11111111 1101101011 1010100100 1011100111 1110011001 10000100111 1101000001 1100011000 1100100011 1100001111 24.750 47.989 999.69 131375 21 8 11 59 51 4 $GNGGA,123007.00,,,,,0,00,16.0,,,,,,*48
131 12 30 08 Nan Nan Nan 0 10111 11111111 110110 1110111 11111111 110110 1110111 11111111 1101101011 1010011101 1011100101 1110011101 10000100101 1101000001 1100010111 1100011111 1100000000 24.750 48.089 999.69 132374 23 7 10 59 51 4 $GNGGA,123008.00,,,,,0,00,16.0,,,,,,*47
132 12 30 09 4333.7031900128.73674142.7ó 00128.73674 142.7 0 10111 11111111 110110 1110111 11111111 110110 1110111 11111111 1101101100 1010011100 1011100100 1110011011 10000100011 1101000000 1100011100 1100011001 1100000011 24.750 48.279 999.70 133385 21 16 14 59 52 3 $GNGGA,123009.00,4333.70319,N,00128.73674,E,1,05,3.64,142.7,M,53.8,M,,*40
133 12 30 10 4333.7029200128.73741142.2ó 00128.73741 142.2 0 10111 11111111 110110 1100000 0 110110 1110111 11111111 1101101011 1010100101 1011100110 1110011011 10000100110 1101000111 1100011100 1100100111 1100010010 24.750 48.203 999.70 134382 22 14 13 59 51 4 $GNGGA,123010.00,4333.70292,N,00128.73741,E,1,06,1.32,142.2,M,53.8,M,,*4A
134 12 30 11 4333.7035200128.73756141.7ó 00128.73756 141.7 0 10111 11111111 110110 1110111 11111111 110110 1110111 11111111 1101101011 1010101010 1011100111 1110011001 10000100011 1100111111 1100010111 1100100111 1100001100 24.688 48.119 999.69 135383 21 16 15 59 51 3 $GNGGA,123011.00,4333.70352,N,00128.73756,E,1,06,1.32,141.7,M,53.8,M,,*46
135 12 30 12 4333.7040000128.73700141.2ó 00128.73700 141.2 0 10111 11111111 110110 1110111 11111111 110110 1110111 11111111 1101101011 1010100101 1011100001 1110100110 10000100011 1100111111 1100011010 1100100011 1100010000 24.750 48.401 999.69 136381 22 14 13 60 50 4 $GNGGA,123012.00,4333.70400,N,00128.73700,E,1,06,1.32,141.2,M,53.8,M,,*43
136 12 30 13 4333.7036100128.73715140.6ó 00128.73715 140.6 0 10111 11111111 110110 1110111 11111111 110110 1110111 11111111 1101101100 1010100000 1011100011 1110100111 10000100101 1101000010 1100011101 1100011111 1100001011 24.750 48.523 999.69 137379 21 14 14 58 51 4 $GNGGA,123013.00,4333.70361,N,00128.73715,E,1,06,1.32,140.6,M,53.8,M,,*43
137 12 30 14 4333.7032200128.73771140.1ó 00128.73771 140.1 0 10111 11111111 110110 1110111 11111111 110110 1110111 11111111 1101101011 1010011110 1011100101 1110100110 10000100101 1101000010 1100011110 1100100110 1100010100 24.750 48.340 999.68 138379 23 16 13 59 51 4 $GNGGA,123014.00,4333.70322,N,00128.73771,E,1,05,1.78,140.1,M,53.8,M,,*4B
138 12 30 15 4333.7028700128.73804139.7ó 00128.73804 139.7 0 10111 11111111 110110 1100000 0 110110 1110111 11111111 1101101011 1010011011 1011100011 1110011100 10000100100 1101000010 1100010111 1100100101 1100010001 24.750 48.173 999.68 139378 22 15 14 60 51 3 $GNGGA,123015.00,4333.70287,N,00128.73804,E,1,06,1.32,139.7,M,53.8,M,,*4C
139 12 30 16 4333.7026400128.73781139.3ó 00128.73781 139.3 0 10111 11111111 110110 1110111 11111111 110110 1110111 11111111 1101101100 1010011010 1011100100 1110011001 10000100101 1101000001 1100011000 1100100011 1100001110 24.750 48.180 999.68 140378 21 16 14 59 51 4 $GNGGA,123016.00,4333.70264,N,00128.73781,E,1,05,3.63,139.3,M,53.8,M,,*41
140 12 30 17 4333.7027100128.73690139.0ó 00128.73690 139.0 0 10111 11111111 110110 1110111 11111111 110110 1110111 11111111 1101101100 1010010111 1011100011 1110010000 10000100101 1101000011 1100011001 1100100000 1100000111 24.750 48.203 999.68 141376 22 15 14 60 51 3 $GNGGA,123017.00,4333.70271,N,00128.73690,E,1,05,3.63,139.0,M,53.8,M,,*46
141 12 30 18 4333.7022300128.73662138.8ó 00128.73662 138.8 0 10111 11111111 110110 1110111 11111111 110110 1110111 11111111 1101101011 1010011101 1011100110 1110001001 10000100100 1100111111 1100011010 1100100001 1100001100 24.750 48.188 999.69 142375 22 15 14 59 50 4 $GNGGA,123018.00,4333.70223,N,00128.73662,E,1,05,3.63,138.8,M,53.8,M,,*4A
142 12 30 19 Nan Nan Nan 0 10111 11111111 110110 1110111 11111111 110110 1110111 11111111 1101101011 1010011101 1011100010 1110001110 10000100111 1101000011 1100011000 1100011111 1100001100 24.688 48.111 999.68 143363 21 8 11 59 51 4 $GNGGA,123019.00,,,,,0,00,19.9,,,,,,*41
143 12 30 20 Nan Nan Nan 0 10111 11111111 110110 1110111 11111111 110110 1110111 11111111 1101101100 1010011011 1011100100 1110000101 10000100100 1100111100 1100011010 1100010111 1100000101 24.750 47.989 999.67 144361 22 7 11 60 51 3 $GNGGA,123020.00,,,,,0,00,19.9,,,,,,*4B
144 12 30 21 Nan Nan Nan 0 10111 11111111 110110 1100000 0 110110 1110111 11111111 1101101011 1010011011 1011101000 1110010000 10000100101 1100111101 1100011000 1100100101 1100001111 24.813 47.959 999.67 145359 21 7 12 59 51 3 $GNGGA,123021.00,,,,,0,00,19.9,,,,,,*4A
145 12 30 22 Nan Nan Nan 0 10111 11111111 110110 1110111 11111111 110110 1110111 11111111 1101101100 1010011010 1011100011 1110001110 10000100101 1100111111 1100011010 1100100000 1100001101 24.750 47.982 999.66 146359 21 7 11 59 52 3 $GNGGA,123022.00,,,,,0,00,19.9,,,,,,*49
146 12 30 23 Nan Nan Nan 0 10111 11111111 110110 1110111 11111111 110110 1110111 11111111 1101101011 1010011100 1011100100 1110001000 10000100101 1101000010 1100011011 1100100001 1100010001 24.750 47.989 999.66 147358 22 7 11 60 51 3 $GNGGA,123023.00,,,,,0,00,19.9,,,,,,*48
147 12 30 24 Nan Nan Nan 0 10111 11111111 110110 1110111 11111111 110110 1110111 11111111 1101101011 1010011010 1011100101 1110010010 10000100110 1101000010 1100011100 1100011110 1100001101 24.750 47.951 999.67 148357 21 8 11 59 51 4 $GNGGA,123024.00,,,,,0,00,19.9,,,,,,*4F
148 12 30 25 4333.7015600128.72982137.5ó 00128.72982 137.5 0 10111 11111111 110110 1110111 11111111 110110 1110111 11111111 1101101011 1010011101 1011100110 1110001011 10000100110 1101000001 1100010110 1100011010 1100001100 24.688 47.905 999.67 149367 22 15 14 59 50 4 $GNGGA,123025.00,4333.70156,N,00128.72982,E,1,05,3.62,137.5,M,53.8,M,,*46
149 12 30 26 4333.7013600128.72852137.4ó 00128.72852 137.4 0 10111 11111111 110110 1110111 11111111 110110 1110111 11111111 1101101011 1010011110 1011100100 1110001101 10000100110 1100111111 1100010100 1100100001 1100001101 24.688 47.867 999.65 150367 20 16 14 59 52 3 $GNGGA,123026.00,4333.70136,N,00128.72852,E,1,05,3.62,137.4,M,53.8,M,,*4E
150 12 30 27 Nan Nan Nan 0 10111 11111111 110110 1100000 0 110110 1110111 11111111 1101101011 1010011110 1011100111 1110001001 10000100101 1101000010 1100011001 1100011101 1100001011 24.750 47.883 999.65 151354 22 7 11 60 51 3 $GNGGA,123027.00,,,,,0,00,19.9,,,,,,*4C
151 12 30 28 Nan Nan Nan 0 10111 11111111 110110 1100000 0 110110 1100000 0 1101101100 1010011011 1011100011 1110010010 10000101000 1100111101 1100010111 1100100010 1100010000 24.750 47.898 999.66 152352 22 7 11 59 51 3 $GNGGA,123028.00,,,,,0,00,19.9,,,,,,*43
152 12 30 29 4333.7009600128.72853137.1ó 00128.72853 137.1 0 10111 11111111 110110 1110111 11111111 110110 1110111 11111111 1101101011 1010100011 1011101000 1110010000 10000100100 1101000101 1100011111 1100100111 1100010100 24.750 47.867 999.66 153364 22 15 14 60 50 4 $GNGGA,123029.00,4333.70096,N,00128.72853,E,1,05,3.62,137.1,M,53.8,M,,*4E
153 12 30 30 4333.7008400128.72854137.0ó 00128.72854 137.0 0 10111 11111111 110110 1110111 11111111 110110 1110111 11111111 1101101011 1010011110 1011100100 1110011100 10000101010 1101000001 1100011011 1100100010 1100010011 24.688 47.844 999.66 154361 21 14 14 58 51 4 $GNGGA,123030.00,4333.70084,N,00128.72854,E,1,05,3.61,137.0,M,53.8,M,,*40
154 12 30 31 4333.7008300128.72816136.9ó 00128.72816 136.9 0 10111 11111111 110110 1110111 11111111 110110 1110111 11111111 1101101011 1010011110 1011100101 1110011011 10000100111 1100111111 1100011110 1100100111 1100011000 24.688 47.852 999.66 155361 22 16 14 59 52 3 $GNGGA,123031.00,4333.70083,N,00128.72816,E,1,05,3.61,136.9,M,53.8,M,,*48
155 12 30 32 4333.7006500128.72706136.9ó 00128.72706 136.9 0 10111 11111111 110110 1110111 11111111 110110 1110111 11111111 1101101011 1010100001 1011100110 1110011001 10000100101 1101001001 1100011100 1100100111 1100010101 24.750 47.860 999.67 156359 22 15 14 60 51 3 $GNGGA,123032.00,4333.70065,N,00128.72706,E,1,05,3.61,136.9,M,53.8,M,,*4D
156 12 30 33 Nan Nan Nan 0 10111 11111111 110110 1110111 11111111 110110 1110111 11111111 1101101100 1010011110 1011100011 1110011010 10000100110 1100111110 1100011101 1100100001 1100010000 24.688 47.890 999.68 157348 21 7 12 59 50 4 $GNGGA,123033.00,,,,,0,00,19.8,,,,,,*48
157 12 30 34 Nan Nan Nan 0 10111 11111111 110110 1110111 11111111 110110 1110111 11111111 1101101011 1010100001 1011100110 1110011001 10000100110 1100111110 1100010100 1100100100 1100001010 24.688 47.913 999.65 158347 21 7 10 58 52 4 $GNGGA,123034.00,,,,,0,00,19.8,,,,,,*4F
158 12 30 35 Nan Nan Nan 0 10111 11111111 110110 1110111 11111111 110110 1100000 0 1101101011 1010011101 1011100011 1110011101 10000100111 1100111110 1100011100 1100011100 1100001000 24.750 47.951 999.67 159345 22 7 10 59 51 4 $GNGGA,123035.00,,,,,0,00,19.8,,,,,,*4E
159 12 30 36 Nan Nan Nan 0 10111 11111111 110110 1110111 11111111 110110 1110111 11111111 1101101011 1010100000 1011100100 1110011001 10000100100 1100111111 1100011011 1100100100 1100001001 24.688 47.974 999.67 160344 21 7 11 59 50 5 $GNGGA,123036.00,,,,,0,00,19.8,,,,,,*4D
160 12 30 37 Nan Nan Nan 0 10111 11111111 110110 1110111 11111111 110110 1110111 11111111 1101101011 1010011100 1011100010 1110011011 10000100100 1101000001 1100011001 1100100010 1100001100 24.688 47.997 999.66 161343 22 7 10 60 51 4 $GNGGA,123037.00,,,,,0,00,19.8,,,,,,*4C
161 12 30 38 4333.6995800128.72807136.6ó 00128.72807 136.6 0 10111 11111111 110110 1110111 11111111 110110 1110111 11111111 1101101011 1010100010 1011100111 1110011000 10000100110 1100111100 1100010111 1100011101 1100000101 24.750 47.944 999.67 162354 21 16 14 59 51 4 $GNGGA,123038.00,4333.69958,N,00128.72807,E,1,05,3.61,136.6,M,53.8,M,,*49
162 12 30 39 4333.6993600128.72857136.5ó 00128.72857 136.5 0 10111 11111111 110110 1110111 11111111 110110 1110111 11111111 1101101011 1010100011 1011100101 1110011110 10000100110 1100111011 1100011000 1100011101 1100010000 24.688 47.860 999.65 163351 22 15 14 60 51 3 $GNGGA,123039.00,4333.69936,N,00128.72857,E,1,05,3.60,136.5,M,53.8,M,,*47
163 12 30 40 4333.6992800128.72850136.5ó 00128.72850 136.5 0 10111 11111111 110110 1110111 11111111 110110 1110111 11111111 1101101011 1010100011 1011100100 1110011010 10000100101 1100111110 1100011000 1100101001 1100011000 24.750 47.799 999.65 164354 21 16 15 59 51 3 $GNGGA,123040.00,4333.69928,N,00128.72850,E,1,05,3.60,136.5,M,53.8,M,,*41
164 12 30 41 Nan Nan Nan 0 10111 11111111 110110 1110111 11111111 110110 1110111 11111111 1101101011 1010100010 1011100100 1110100101 10000101000 1101000000 1100011000 1100101000 1100010001 24.750 47.715 999.65 165340 21 8 11 59 52 3 $GNGGA,123041.00,,,,,0,00,19.8,,,,,,*4D
165 12 30 42 Nan Nan Nan 0 10111 11111111 110110 1110111 11111111 110110 1110111 11111111 1101101011 1010100000 1011101000 1110100110 10000100111 1100110110 1100010101 1100100000 1100001101 24.813 47.623 999.66 166338 22 7 11 60 51 3 $GNGGA,123042.00,,,,,0,00,19.7,,,,,,*41
166 12 30 43 Nan Nan Nan 0 10111 11111111 110110 1110111 11111111 110110 1110111 11111111 1101101011 1010100000 1011100011 1110100110 10000100101 1100111101 1100010111 1100011111 1100001110 24.750 47.577 999.66 167336 22 7 11 58 51 4 $GNGGA,123043.00,,,,,0,00,19.7,,,,,,*40
167 12 30 44 Nan Nan Nan 0 10111 11111111 110110 1110111 11111111 110110 1100000 0 1101101011 1010100000 1011100101 1110100110 10000100111 1100111100 1100011000 1100100101 1100010011 24.813 47.555 999.66 168336 22 6 11 60 50 4 $GNGGA,123044.00,,,,,0,00,19.7,,,,,,*47
168 12 30 45 4333.6985400128.72823136.6ó 00128.72823 136.6 0 10111 11111111 110110 1110111 11111111 110110 1100000 0 1101101011 1010100110 1011101001 1110100100 10000100111 1100111101 1100011011 1100011100 1100001101 24.813 47.539 999.64 169346 21 16 15 59 51 3 $GNGGA,123045.00,4333.69854,N,00128.72823,E,1,03,5.15,136.6,M,53.8,M,,*4B
169 12 30 46 4333.6979800128.72856136.6ó 00128.72856 136.6 0 10111 11111111 110110 1110111 11111111 110110 1110111 11111111 1101101011 1010100010 1011100100 1110101101 10000101000 1100111010 1100011001 1100011110 1100001011 24.813 47.532 999.63 170345 22 15 14 60 51 3 $GNGGA,123046.00,4333.69798,N,00128.72856,E,1,03,5.15,136.6,M,53.8,M,,*45
170 12 30 47 4333.6976100128.72904136.6ó 00128.72904 136.6 0 10111 11111111 110110 1110111 11111111 110110 1100000 0 1101101011 1010100010 1011100011 1110101001 10000100111 1100111111 1100011001 1100011100 1100001001 24.813 47.593 999.62 171344 21 15 15 59 51 3 $GNGGA,123047.00,4333.69761,N,00128.72904,E,1,03,5.15,136.6,M,53.8,M,,*44
171 12 30 48 4333.6971000128.73003136.6ó 00128.73003 136.6 0 10111 11111111 110110 1110111 11111111 110110 1100000 0 1101101011 1010100000 1011100111 1110101000 10000100110 1100110111 1100010100 1100011110 1100001101 24.813 47.654 999.64 172343 22 16 13 59 51 4 $GNGGA,123048.00,4333.69710,N,00128.73003,E,1,03,5.15,136.6,M,53.8,M,,*42
172 12 30 49 Nan Nan Nan 0 10111 11111111 110110 1110111 11111111 110110 1110111 11111111 1101101011 1010100011 1011100110 1110101010 10000100111 1100110111 1100010101 1100100011 1100001001 24.813 47.585 999.65 173331 22 7 10 59 51 4 $GNGGA,123049.00,,,,,0,00,19.7,,,,,,*4A
173 12 30 50 Nan Nan Nan 0 10111 11111111 110110 1110111 11111111 110110 1110111 11111111 1101101011 1010100100 1011100100 1110100111 10000100110 1100111000 1100010011 1100100011 1100001100 24.750 47.532 999.65 174327 21 6 12 59 50 4 $GNGGA,123050.00,,,,,0,00,19.7,,,,,,*42
174 12 30 51 Nan Nan Nan 0 10111 11111111 110110 1110111 11111111 110110 1110111 11111111 1101101011 1010100011 1011101000 1110101100 10000100111 1100111001 1100010010 1100100011 1100010010 24.813 47.516 999.65 175328 21 6 11 59 51 4 $GNGGA,123051.00,,,,,0,00,19.7,,,,,,*43
175 12 30 52 Nan Nan Nan 0 10111 11111111 110110 1110111 11111111 110110 1100000 0 1101101100 1010100110 1011100110 1110101110 10000100110 1101000000 1100100000 1100100010 1100001011 24.813 47.501 999.64 176326 22 6 11 60 50 4 $GNGGA,123052.00,,,,,0,00,19.7,,,,,,*40
176 12 30 53 Nan Nan Nan 0 10111 11111111 110110 1110111 11111111 110110 1110111 11111111 1101101011 1010100101 1011100111 1110101110 10000101000 1100111101 1100011000 1100100100 1100010001 24.750 47.463 999.63 177327 22 8 10 58 51 5 $GNGGA,123053.00,,,,,0,00,19.7,,,,,,*41
177 12 30 54 Nan Nan Nan 0 10111 11111111 110110 1110111 11111111 110110 1110111 11111111 1101101100 1010101000 1011100110 1110101111 10000101000 1100110010 1100010110 1100100001 1100001011 24.813 47.425 999.63 178326 22 7 11 60 51 3 $GNGGA,123054.00,,,,,0,00,19.7,,,,,,*46
178 12 30 55 Nan Nan Nan 0 10111 11111111 110110 1110111 11111111 110110 1110111 11111111 1101101011 1010100101 1011100101 1110110111 10000101001 1100111001 1100011001 1100011111 1100001101 24.750 47.402 999.63 179324 21 7 12 59 51 3 $GNGGA,123055.00,,,,,0,00,19.7,,,,,,*47
179 12 30 56 Nan Nan Nan 0 10111 11111111 110110 1100000 0 110110 1110111 11111111 1101101011 1010101001 1011100111 1110110011 10000100111 1100110110 1100011000 1100100010 1100000011 24.750 47.371 999.63 180323 22 7 10 60 50 4 $GNGGA,123056.00,,,,,0,00,19.6,,,,,,*45
180 12 30 57 Nan Nan Nan 0 10111 11111111 110110 1110111 11111111 110110 1110111 11111111 1101101011 1010100111 1011100111 1110110100 10000101000 1101000011 1100011101 1100010110 1100001100 24.750 47.379 999.63 181321 22 7 10 58 51 4 $GNGGA,123057.00,,,,,0,00,19.6,,,,,,*44
