id HH MM SS longitude latitude altitude adc_1_ch0 adc_1_ch1 adc_1_ch2 adc_1_ch3 adc_1_ch4 adc_1_ch5 adc_1_ch6 adc_1_ch7 adc_1_ch8 adc_2_ch0 adc_2_ch1 adc_2_ch2 adc_2_ch3 adc_2_ch4 adc_2_ch5 adc_2_ch6 adc_2_ch7 adc_2_ch8 temp hum pres t_prog t_gps t_split t_adc t_temp t_hum t_pres trame_gga
1 12 37 24 4333.7071400128.74096118.0ó 00128.74096 118.0 110110 1110111 11111111 110110 1110111 11111111 110110 1110111 11111111 1101101011 1010110010 1011101011 1111011101 10000101100 1100101001 1100010010 1100100001 1100010101 24.750 47.486 795.83 3336 22 15 13 59 51 4 $GNGGA,123724.00,4333.70714,N,00128.74096,E,1,05,1.44,118.0,M,53.8,M,,*44
2 12 37 25 Nan Nan Nan 0 10111 11111111 110110 1100000 0 110110 1110111 11111111 1101101011 1010110101 1011101100 1111011100 10000101011 1100101101 1100010101 1100100001 1100001111 24.750 47.432 999.59 4323 22 7 10 58 52 4 $GNGGA,123725.00,,,,,0,00,13.4,,,,,,*4E
3 12 37 26 Nan Nan Nan 0 10111 11111111 110110 1110111 11111111 110110 1110111 11111111 1101101011 1010110011 1011101011 1111011110 10000101100 1100101101 1100011000 1100100100 1100010010 24.688 47.463 999.59 5321 22 7 11 60 51 3 $GNGGA,123726.00,,,,,0,00,13.4,,,,,,*4D
4 12 37 27 Nan Nan Nan 0 10111 11111111 110110 1110111 11111111 110110 1100000 0 1101101011 1010110010 1011101001 1111100000 10000101010 1100101100 1100010111 1100101000 1100011000 24.750 47.448 999.59 6321 21 8 11 59 50 5 $GNGGA,123727.00,,,,,0,00,13.4,,,,,,*4C
5 12 37 28 Nan Nan Nan 0 10111 11111111 110110 1110111 11111111 110110 1110111 11111111 1101101011 1010110011 1011101101 1111011111 10000101011 1100101110 1100011010 1100101001 1100010100 24.750 47.432 999.58 7320 22 7 11 60 51 3 $GNGGA,123728.00,,,,,0,00,13.3,,,,,,*44
6 12 37 29 Nan Nan Nan 0 10111 11111111 110110 1110111 11111111 110110 1110111 11111111 1101101011 1010110100 1011101100 1111100001 10000101010 1100101111 1100011000 1100100110 1100001011 24.750 47.417 999.58 8321 20 8 12 59 51 3 $GNGGA,123729.00,,,,,0,00,13.3,,,,,,*45
7 12 37 30 Nan Nan Nan 0 10111 11111111 110110 1110111 11111111 110110 1110111 11111111 1101101011 1010110000 1011101000 1111100110 10000101110 1100101111 1100011011 1100100101 1100010010 24.750 47.440 999.59 9319 22 7 11 60 51 3 $GNGGA,123730.00,,,,,0,00,13.3,,,,,,*4D
8 12 37 31 Nan Nan Nan 0 10111 11111111 110110 1110111 11111111 110110 1110111 11111111 1101101011 1010101111 1011101010 1111100111 10000101101 1100101101 1100011000 1100100100 1100010011 24.750 47.463 999.60 10317 21 6 12 59 50 4 $GNGGA,123731.00,,,,,0,00,13.3,,,,,,*4C
9 12 37 32 Nan Nan Nan 0 10111 11111111 110110 1110111 11111111 110110 1100000 0 1101101011 1010110011 1011101010 1111101001 10000101110 1100101100 1100010110 1100100101 1100011100 24.750 47.440 999.59 11316 21 7 10 58 52 4 $GNGGA,123732.00,,,,,0,00,13.3,,,,,,*4F
10 12 37 33 Nan Nan Nan 0 10111 11111111 110110 1110111 11111111 110110 1110111 11111111 1101101011 1010110110 1011101000 1111101001 10000101010 1100101101 1100011001 1100100100 1100010010 24.750 47.463 999.58 12313 23 7 10 59 51 4 $GNGGA,123733.00,,,,,0,00,13.3,,,,,,*4E
11 12 37 34 4333.7084800128.73470111.4ó 00128.73470 111.4 0 10111 11111111 110110 1110111 11111111 110110 1110111 11111111 1101101011 1010110110 1011101011 1111100000 10000101010 1100101111 1100011010 1100100000 1100001101 24.688 47.471 999.60 13326 22 16 14 59 52 3 $GNGGA,123734.00,4333.70848,N,00128.73470,E,1,05,1.44,111.4,M,53.8,M,,*45
12 12 37 35 4333.7087000128.73440110.9ó 00128.73440 110.9 0 10111 11111111 110110 1100000 0 110110 1110111 11111111 1101101011 1010111000 1011101100 1111011100 10000101010 1100101100 1100010110 1100100010 1100011100 24.688 47.463 999.60 14324 21 14 14 59 50 4 $GNGGA,123735.00,4333.70870,N,00128.73440,E,1,05,1.44,110.9,M,53.8,M,,*40
13 12 37 36 4333.7092200128.73520110.0ó 00128.73520 110.0 0 10111 11111111 110110 1100000 0 110110 1110111 11111111 1101101011 1010110101 1011101110 1111011011 10000101011 1100101100 1100010110 1100100000 1100001111 24.750 47.486 999.58 15324 21 16 14 59 52 3 $GNGGA,123736.00,4333.70922,N,00128.73520,E,1,05,1.44,110.0,M,53.8,M,,*4B
14 12 37 37 4333.7093400128.73566109.4ó 00128.73566 109.4 0 10111 11111111 110110 1100000 0 110110 1100000 0 1101101011 1010110101 1011101101 1111100000 10000101010 1100110010 1100010010 1100100100 1100001110 24.750 47.509 999.59 16322 22 14 13 60 50 4 $GNGGA,123737.00,4333.70934,N,00128.73566,E,1,05,1.44,109.4,M,53.8,M,,*43
15 12 37 38 4333.7091700128.73517109.4ó 00128.73517 109.4 0 10111 11111111 110110 1110111 11111111 110110 1110111 11111111 1101101011 1010110001 1011101010 1111100010 10000101110 1100101110 1100010101 1100101011 1100010011 24.750 47.532 999.59 17321 21 15 15 59 51 3 $GNGGA,123738.00,4333.70917,N,00128.73517,E,1,05,1.44,109.4,M,53.8,M,,*4B
16 12 37 39 4333.7090700128.73601108.7ó 00128.73601 108.7 0 10111 11111111 110110 1110111 11111111 110110 1110111 11111111 1101101011 1010110010 1011101011 1111100000 10000101010 1100110010 1100011011 1100101011 1100010111 24.750 47.501 999.57 18321 22 15 14 60 51 3 $GNGGA,123739.00,4333.70907,N,00128.73601,E,1,05,1.44,108.7,M,53.8,M,,*4D
17 12 37 40 4333.7092900128.73526108.3ó 00128.73526 108.3 0 10111 11111111 110110 1100000 0 110110 1110111 11111111 1101101011 1010110010 1011101101 1111100110 10000101110 1100100111 1100010111 1100101001 1100010001 24.750 47.471 999.57 19319 21 14 14 59 50 4 $GNGGA,123740.00,4333.70929,N,00128.73526,E,1,05,1.44,108.3,M,53.8,M,,*4D
18 12 37 41 4333.7092100128.73441107.9ó 00128.73441 107.9 0 10111 11111111 110110 1110111 11111111 110110 1110111 11111111 1101101011 1010110000 1011101100 1111100111 10000101101 1100110000 1100011010 1100101001 1100011110 24.750 47.448 999.56 20319 22 15 14 59 52 3 $GNGGA,123741.00,4333.70921,N,00128.73441,E,1,05,1.44,107.9,M,53.8,M,,*41
19 12 37 42 4333.7099100128.73410107.2ó 00128.73410 107.2 0 10111 11111111 110110 1110111 11111111 110110 1110111 11111111 1101101011 1010110001 1011101011 1111100001 10000101011 1100101111 1100011101 1100100101 1100001110 24.750 47.425 999.57 21317 22 14 13 59 51 4 $GNGGA,123742.00,4333.70991,N,00128.73410,E,1,05,1.44,107.2,M,53.8,M,,*46
20 12 37 43 4333.7092400128.73505107.1ó 00128.73505 107.1 0 10111 11111111 110110 1110111 11111111 110110 1110111 11111111 1101101011 1010110101 1011101100 1111011011 10000101010 1100100100 1100010101 1100101011 1100010100 24.750 47.379 999.56 22316 22 15 14 59 50 4 $GNGGA,123743.00,4333.70924,N,00128.73505,E,1,05,1.44,107.1,M,53.8,M,,*4F
21 12 37 44 4333.7090600128.73613106.4ó 00128.73613 106.4 0 10111 11111111 110110 1110111 11111111 110110 1110111 11111111 1101101011 1010110010 1011101011 1111100000 10000101011 1100101101 1100011011 1100100111 1100001011 24.750 47.524 999.57 23314 22 15 14 60 51 3 $GNGGA,123744.00,4333.70906,N,00128.73613,E,1,05,1.44,106.4,M,53.8,M,,*48
22 12 37 45 4333.7093100128.73587105.7ó 00128.73587 105.7 0 10111 11111111 110110 1110111 11111111 110110 1110111 11111111 1101101011 1010110011 1011101000 1111011101 10000101100 1100101000 1100010100 1100101011 1100011010 24.750 47.585 999.57 24314 21 14 14 58 51 4 $GNGGA,123745.00,4333.70931,N,00128.73587,E,1,05,1.44,105.7,M,53.8,M,,*43
23 12 37 46 4333.7092700128.73580105.3ó 00128.73580 105.3 0 10111 11111111 110110 1110111 11111111 110110 1110111 11111111 1101101011 1010110101 1011101100 1111100100 10000101100 1100110001 1100010111 1100101111 1100011001 24.750 47.532 999.57 25313 22 15 13 59 51 4 $GNGGA,123746.00,4333.70927,N,00128.73580,E,1,05,1.44,105.3,M,53.8,M,,*44
24 12 37 47 4333.7091000128.73575104.9ó 00128.73575 104.9 0 10111 11111111 110110 1110111 11111111 110110 1110111 11111111 1101101011 1010110010 1011101000 1111100010 10000101100 1100101010 1100010011 1100101101 1100011000 24.688 47.501 999.58 26312 22 15 14 60 51 3 $GNGGA,123747.00,4333.70910,N,00128.73575,E,1,05,1.44,104.9,M,53.8,M,,*40
25 12 37 48 4333.7092400128.73499104.1ó 00128.73499 104.1 0 10111 11111111 110110 1110111 11111111 110110 1110111 11111111 1101101011 1010111000 1011101100 1111100000 10000101011 1100101001 1100011010 1100100011 1100001100 24.750 47.524 999.59 27312 21 16 14 59 51 4 $GNGGA,123748.00,4333.70924,N,00128.73499,E,1,05,1.44,104.1,M,53.8,M,,*43
26 12 37 49 4333.7091900128.73522103.7ó 00128.73522 103.7 0 10111 11111111 110110 1100000 0 110110 1110111 11111111 1101101011 1010110111 1011101010 1111100100 10000101001 1100110000 1100011100 1100100100 1100011001 24.688 47.562 999.58 28311 21 15 14 60 51 3 $GNGGA,123749.00,4333.70919,N,00128.73522,E,1,05,1.44,103.7,M,53.8,M,,*4C
27 12 37 50 4333.7091600128.73451103.4ó 00128.73451 103.4 0 10111 11111111 110110 1110111 11111111 110110 1110111 11111111 1101101011 1010110100 1011101010 1111101001 10000101011 1100101110 1100011000 1100101001 1100001101 24.750 47.570 999.59 29309 22 14 14 58 51 4 $GNGGA,123750.00,4333.70916,N,00128.73451,E,1,05,1.44,103.4,M,53.8,M,,*4D
28 12 37 51 4333.7093300128.73362103.0ó 00128.73362 103.0 0 10111 11111111 110110 1100000 0 110110 1110111 11111111 1101101011 1010110110 1011101011 1111100010 10000101001 1100110100 1100011100 1100101011 1100010100 24.750 47.524 999.58 30308 22 14 13 60 50 4 $GNGGA,123751.00,4333.70933,N,00128.73362,E,1,05,1.44,103.0,M,53.8,M,,*48
29 12 37 52 4333.7091200128.73393102.5ó 00128.73393 102.5 0 10111 11111111 110110 1100000 0 110110 1110111 11111111 1101101011 1010110001 1011101000 1111100011 10000101100 1100101101 1100011010 1100100110 1100011001 24.750 47.471 999.57 31308 21 15 15 59 50 4 $GNGGA,123752.00,4333.70912,N,00128.73393,E,1,05,1.44,102.5,M,53.8,M,,*42
30 12 37 53 4333.7089800128.73421101.9ó 00128.73421 101.9 0 10111 11111111 110110 1100000 0 110110 1100000 0 1101101011 1010110101 1011101010 1111100011 10000101010 1100101011 1100010111 1100100111 1100010110 24.750 47.440 999.56 32306 21 15 13 58 52 4 $GNGGA,123753.00,4333.70898,N,00128.73421,E,1,04,4.47,101.9,M,53.8,M,,*46
31 12 37 54 4333.7090300128.73420101.6ó 00128.73420 101.6 0 10111 11111111 110110 1110111 11111111 110110 1110111 11111111 1101101011 1010110111 1011110000 1111100110 10000101010 1100101010 1100010011 1100011011 1100001100 24.750 47.425 999.57 33304 22 14 13 59 51 4 $GNGGA,123754.00,4333.70903,N,00128.73420,E,1,04,4.47,101.6,M,53.8,M,,*4C
32 12 37 55 4333.7090000128.73452101.3ó 00128.73452 101.3 0 10111 11111111 110110 1110111 11111111 110110 1100000 0 1101101011 1010110011 1011101010 1111100010 10000101011 1100101001 1100010100 1100100100 1100010100 24.750 47.394 999.59 34301 21 15 15 59 51 3 $GNGGA,123755.00,4333.70900,N,00128.73452,E,1,04,4.47,101.3,M,53.8,M,,*4E
33 12 37 56 4333.7089600128.73427101.1ó 00128.73427 101.1 0 10111 11111111 110110 1100000 0 110110 1110111 11111111 1101101011 1010110101 1011101100 1111100011 10000101101 1100101011 1100011000 1100100001 1100011001 24.750 47.364 999.57 35302 22 14 13 59 51 4 $GNGGA,123756.00,4333.70896,N,00128.73427,E,1,04,4.47,101.1,M,53.8,M,,*43
34 12 37 57 4333.7087200128.73422100.9ó 00128.73422 100.9 0 10111 11111111 110110 1110111 11111111 110110 1100000 0 1101101011 1010110010 1011101011 1111100110 10000101011 1100101101 1100010110 1100100010 1100010011 24.688 47.364 999.56 36301 21 15 14 59 50 4 $GNGGA,123757.00,4333.70872,N,00128.73422,E,1,04,4.47,100.9,M,53.8,M,,*44
35 12 37 58 4333.7088900128.73365100.5ó 00128.73365 100.5 0 10111 11111111 110110 1100000 0 110110 1110111 11111111 1101101011 1010110111 1011101100 1111100100 10000101011 1100101111 1100011010 1100100011 1100010110 24.688 47.356 999.57 37301 22 15 13 59 51 4 $GNGGA,123758.00,4333.70889,N,00128.73365,E,1,04,4.47,100.5,M,53.8,M,,*47
36 12 37 59 4333.7089000128.73410100.5ó 00128.73410 100.5 0 10111 11111111 110110 1100000 0 110110 1110111 11111111 1101101011 1010110100 1011101101 1111011101 10000100111 1100101011 1100010110 1100110000 1100011100 24.750 47.371 999.56 38300 21 15 14 60 51 3 $GNGGA,123759.00,4333.70890,N,00128.73410,E,1,04,4.47,100.5,M,53.8,M,,*4B
37 12 38 00 4333.7090300128.73455100.2ó 00128.73455 100.2 0 10111 11111111 110110 1110111 11111111 110110 1110111 11111111 1101101011 1010110011 1011101100 1111101000 10000101100 1100110001 1100011001 1100100101 1100010101 24.750 47.387 999.56 39300 21 16 13 59 50 5 $GNGGA,123800.00,4333.70903,N,00128.73455,E,1,04,4.47,100.2,M,53.8,M,,*45
38 12 38 01 4333.7082800128.73595100.4ó 00128.73595 100.4 0 10111 11111111 110110 1110111 11111111 110110 1110111 11111111 1101101011 1010110100 1011101100 1111100001 10000101100 1100101111 1100011010 1100100100 1100010101 24.688 47.410 999.58 40298 22 14 13 59 51 4 $GNGGA,123801.00,4333.70828,N,00128.73595,E,1,04,4.47,100.4,M,53.8,M,,*47
39 12 38 02 4333.7082000128.73683100.2ó 00128.73683 100.2 0 10111 11111111 110110 1100000 0 110110 1100000 0 1101101011 1010110011 1011101010 1111011110 10000101010 1100101001 1100010111 1100100100 1100001111 24.750 47.356 999.58 41295 20 14 15 59 51 3 $GNGGA,123802.00,4333.70820,N,00128.73683,E,1,04,4.47,100.2,M,53.8,M,,*4E
40 12 38 03 4333.7084500128.7360099.9 00128.73600 99.9  0 10111 11111111 110110 1110111 11111111 110110 1100000 0 1101101011 1010110000 1011100111 1111100011 10000101001 1100101010 1100010110 1100100010 1100011001 24.750 47.188 999.58 42295 22 15 14 59 52 3 $GNGGA,123803.00,4333.70845,N,00128.73600,E,1,04,4.47,99.9,M,53.8,M,,*7D
41 12 38 04 4333.7076500128.73737101.5ó 00128.73737 101.5 0 10111 11111111 110110 1110111 11111111 110110 1100000 0 1101101010 1010110000 1011101100 1111100101 10000101101 1100110010 1100011000 1100101000 1100011010 24.688 47.043 999.59 43295 21 15 15 59 51 3 $GNGGA,123804.00,4333.70765,N,00128.73737,E,1,05,1.44,101.5,M,53.8,M,,*49
42 12 38 05 4333.7066100128.73916102.8ó 00128.73916 102.8 0 10111 11111111 110110 1110111 11111111 110110 1100000 0 1101101011 1010110001 1011101010 1111011111 10000101011 1100101110 1100010101 1100100100 1100001010 24.750 47.005 999.58 44293 21 15 13 59 50 5 $GNGGA,123805.00,4333.70661,N,00128.73916,E,1,05,1.44,102.8,M,53.8,M,,*4E
43 12 38 06 4333.7062800128.73993102.9ó 00128.73993 102.9 0 10111 11111111 110110 1110111 11111111 110110 1100000 0 1101101011 1010110101 1011101011 1111100001 10000101011 1100101010 1100011010 1100101101 1100011011 24.688 47.036 999.59 45293 22 15 13 60 50 4 $GNGGA,123806.00,4333.70628,N,00128.73993,E,1,04,4.47,102.9,M,53.8,M,,*4B
44 12 38 07 4333.7061500128.73948102.8ó 00128.73948 102.8 0 10111 11111111 110110 1100000 0 110110 1110111 11111111 1101101011 1010110111 1011101011 1111100011 10000101001 1100101100 1100011010 1100100010 1100001110 24.688 47.143 999.60 46291 21 14 14 59 50 4 $GNGGA,123807.00,4333.70615,N,00128.73948,E,1,04,4.47,102.8,M,53.8,M,,*43
45 12 38 08 4333.7056800128.74001103.1ó 00128.74001 103.1 0 10111 11111111 110110 1110111 11111111 110110 1110111 11111111 1101101011 1010110101 1011101100 1111011101 10000101010 1100110001 1100011100 1100100111 1100010011 24.750 47.257 999.60 47291 22 15 14 60 51 3 $GNGGA,123808.00,4333.70568,N,00128.74001,E,1,04,4.47,103.1,M,53.8,M,,*4E
46 12 38 09 4333.7055500128.73881103.1ó 00128.73881 103.1 0 10111 11111111 110110 1100000 0 110110 1110111 11111111 1101101011 1010110101 1011101101 1111100100 10000101100 1100101111 1100011000 1100100111 1100010010 24.688 47.173 999.59 48288 21 14 14 58 51 4 $GNGGA,123809.00,4333.70555,N,00128.73881,E,1,04,4.47,103.1,M,53.8,M,,*46
47 12 38 10 4333.7052300128.73865103.2ó 00128.73865 103.2 0 10111 11111111 110110 1110111 11111111 110110 1110111 11111111 1101101011 1010110010 1011101100 1111011110 10000101000 1100101000 1100010100 1100101010 1100011010 24.688 46.990 999.58 49288 21 16 14 59 52 3 $GNGGA,123810.00,4333.70523,N,00128.73865,E,1,04,4.47,103.2,M,53.8,M,,*46
48 12 38 11 4333.7053000128.73806103.4ó 00128.73806 103.4 0 10111 11111111 110110 1110111 11111111 110110 1100000 0 1101101011 1010101110 1011101011 1111100001 10000101100 1100101001 1100010100 1100101011 1100001111 24.750 46.837 999.58 50286 22 14 13 59 51 4 $GNGGA,123811.00,4333.70530,N,00128.73806,E,1,04,4.47,103.4,M,53.8,M,,*46
49 12 38 12 4333.7052800128.73859103.4ó 00128.73859 103.4 0 10111 11111111 110110 1100000 0 110110 1100000 0 1101101011 1010110110 1011101100 1111011000 10000101000 1100101110 1100010111 1100101000 1100010001 24.750 46.723 999.58 51287 21 16 15 59 51 3 $GNGGA,123812.00,4333.70528,N,00128.73859,E,1,04,4.47,103.4,M,53.8,M,,*46
50 12 38 13 4333.7052800128.73807103.4ó 00128.73807 103.4 0 10111 11111111 110110 1100000 0 110110 1100000 0 1101101011 1010101110 1011101000 1111100001 10000101100 1100101100 1100010111 1100100100 1100010011 24.750 46.677 999.56 52284 21 15 14 60 51 3 $GNGGA,123813.00,4333.70528,N,00128.73807,E,1,04,4.47,103.4,M,53.8,M,,*4C
51 12 38 14 4333.7052200128.73798103.7ó 00128.73798 103.7 0 10111 11111111 110110 1110111 11111111 110110 1100000 0 1101101011 1010110001 1011101011 1111100001 10000101011 1100101111 1100011000 1100101001 1100010100 24.688 46.677 999.57 53284 21 14 14 59 50 4 $GNGGA,123814.00,4333.70522,N,00128.73798,E,1,04,4.47,103.7,M,53.8,M,,*4B
52 12 38 15 4333.7052700128.73662103.6ó 00128.73662 103.6 0 10111 11111111 110110 1110111 11111111 110110 1110111 11111111 1101101011 1010110000 1011100111 1111011011 10000101010 1100101101 1100011000 1100100100 1100001100 24.750 46.647 999.57 54283 22 16 14 59 52 3 $GNGGA,123815.00,4333.70527,N,00128.73662,E,1,04,4.47,103.6,M,53.8,M,,*4A
53 12 38 16 4333.7055300128.73514103.5ó 00128.73514 103.5 0 10111 11111111 110110 1110111 11111111 110110 1100000 0 1101101011 1010110001 1011101001 1111011100 10000101011 1100101100 1100010110 1100101001 1100010010 24.750 46.586 999.56 55282 22 15 14 60 51 3 $GNGGA,123816.00,4333.70553,N,00128.73514,E,1,04,4.47,103.5,M,53.8,M,,*4B
54 12 38 17 4333.7054400128.73420103.6ó 00128.73420 103.6 0 10111 11111111 110110 1110111 11111111 110110 1110111 11111111 1101101011 1010110011 1011101011 1111100010 10000101100 1100101100 1100011001 1100101100 1100011000 24.750 46.540 999.56 56281 21 16 14 59 51 4 $GNGGA,123817.00,4333.70544,N,00128.73420,E,1,04,4.47,103.6,M,53.8,M,,*49
55 12 38 18 4333.7050900128.73404103.8ó 00128.73404 103.8 0 10111 11111111 110110 1110111 11111111 110110 1100000 0 1101101011 1010110010 1011101011 1111011101 10000101100 1100101010 1100010010 1100101100 1100010110 24.750 46.494 999.56 57280 22 15 14 60 51 3 $GNGGA,123818.00,4333.70509,N,00128.73404,E,1,04,4.47,103.8,M,53.8,M,,*47
56 12 38 19 4333.7051300128.73297103.7ó 00128.73297 103.7 0 10111 11111111 110110 1110111 11111111 110110 1110111 11111111 1101101011 1010101111 1011101010 1111011111 10000101011 1100101111 1100011011 1100100101 1100010001 24.688 46.441 999.56 58279 21 14 14 58 51 4 $GNGGA,123819.00,4333.70513,N,00128.73297,E,1,04,4.47,103.7,M,53.8,M,,*4E
57 12 38 20 4333.7048900128.73315103.8ó 00128.73315 103.8 0 10111 11111111 110110 1110111 11111111 110110 1100000 0 1101101011 1010110100 1011101100 1111100001 10000101101 1100101010 1100011001 1100100111 1100010010 24.750 46.380 999.56 59278 22 16 13 59 51 4 $GNGGA,123820.00,4333.70489,N,00128.73315,E,1,04,4.47,103.8,M,53.8,M,,*42
58 12 38 21 4333.7049500128.73314104.0ó 00128.73314 104.0 0 10111 11111111 110110 1100000 0 110110 1110111 11111111 1101101011 1010101111 1011101011 1111100011 10000101010 1100101101 1100010111 1100101110 1100011111 24.750 46.341 999.55 60276 21 14 14 59 50 4 $GNGGA,123821.00,4333.70495,N,00128.73314,E,1,04,4.47,104.0,M,53.8,M,,*40
59 12 38 22 4333.7050900128.73104103.8ó 00128.73104 103.8 0 10111 11111111 110110 1110111 11111111 110110 1100000 0 1101101011 1010110110 1011101100 1111100100 10000101101 1100100100 1100010010 1100101001 1100011110 24.688 46.319 999.57 61276 21 16 14 59 52 3 $GNGGA,123822.00,4333.70509,N,00128.73104,E,1,04,4.47,103.8,M,53.8,M,,*4B
60 12 38 23 4333.7052300128.73031103.9ó 00128.73031 103.9 0 10111 11111111 110110 1100000 0 110110 1110111 11111111 1101101011 1010110110 1011101010 1111011111 10000101100 1100101011 1100011001 1100101011 1100011010 24.688 46.357 999.57 62275 21 15 14 60 51 3 $GNGGA,123823.00,4333.70523,N,00128.73031,E,1,04,4.47,103.9,M,53.8,M,,*44
61 12 38 24 4333.7053700128.73004103.9ó 00128.73004 103.9 0 10111 11111111 110110 1110111 11111111 110110 1100000 0 1101101011 1010110101 1011101010 1111011110 10000101010 1100110010 1100010101 1100101000 1100010011 24.750 46.387 999.56 63271 21 14 14 58 51 4 $GNGGA,123824.00,4333.70537,N,00128.73004,E,1,04,4.47,103.9,M,53.8,M,,*40
62 12 38 25 4333.7054600128.72830103.9ó 00128.72830 103.9 0 10111 11111111 110110 1110111 11111111 110110 1110111 11111111 1101101011 1010110011 1011101011 1111011111 10000101011 1100101011 1100010100 1100101011 1100010000 24.750 46.471 999.56 64273 22 14 13 59 51 4 $GNGGA,123825.00,4333.70546,N,00128.72830,E,1,04,4.47,103.9,M,53.8,M,,*49
63 12 38 26 4333.7051600128.72799104.3ó 00128.72799 104.3 0 10111 11111111 110110 1110111 11111111 110110 1110111 11111111 1101101011 1010110100 1011101011 1111101000 10000101100 1100110000 1100011000 1100011100 1100001011 24.688 46.555 999.57 65272 21 15 15 59 51 3 $GNGGA,123826.00,4333.70516,N,00128.72799,E,1,04,4.47,104.3,M,53.8,M,,*4E
64 12 38 27 4333.7049200128.72877104.6ó 00128.72877 104.6 0 10111 11111111 110110 1110111 11111111 110110 1110111 11111111 1101101011 1010110001 1011101011 1111011011 10000101010 1100101100 1100011011 1100100101 1100010001 24.750 46.593 999.57 66270 22 16 13 59 51 4 $GNGGA,123827.00,4333.70492,N,00128.72877,E,1,04,4.47,104.6,M,53.8,M,,*48
65 12 38 28 4333.7048800128.72822104.7ó 00128.72822 104.7 0 10111 11111111 110110 1110111 11111111 110110 1110111 11111111 1101101011 1010110011 1011100111 1111100001 10000101100 1100101001 1100010110 1100100001 1100010100 24.688 46.616 999.56 67270 22 15 14 60 51 3 $GNGGA,123828.00,4333.70488,N,00128.72822,E,1,04,4.47,104.7,M,53.8,M,,*4D
66 12 38 29 4333.7052400128.72715105.0ó 00128.72715 105.0 0 10111 11111111 110110 1100000 0 110110 1100000 0 1101101011 1010110001 1011101010 1111100100 10000101101 1100101101 1100011100 1100100110 1100011010 24.750 46.647 999.57 68270 21 16 13 59 50 5 $GNGGA,123829.00,4333.70524,N,00128.72715,E,1,04,4.47,105.0,M,53.8,M,,*46
67 12 38 30 4333.7040900128.72905105.6ó 00128.72905 105.6 0 10111 11111111 110110 1110111 11111111 110110 1100000 0 1101101011 1010110100 1011101101 1111100000 10000101010 1100101011 1100010100 1100100101 1100010100 24.688 46.677 999.57 69267 22 14 13 60 50 4 $GNGGA,123830.00,4333.70409,N,00128.72905,E,1,04,4.47,105.6,M,53.8,M,,*49
68 12 38 31 4333.7038900128.73008105.9ó 00128.73008 105.9 0 10111 11111111 110110 1100000 0 110110 1110111 11111111 1101101011 1010110001 1011101011 1111100011 10000101100 1100101101 1100010011 1100100111 1100010110 24.750 46.700 999.57 70265 21 14 14 58 51 4 $GNGGA,123831.00,4333.70389,N,00128.73008,E,1,04,4.47,105.9,M,53.8,M,,*4D
69 12 38 32 4333.7035500128.72968106.1ó 00128.72968 106.1 0 10111 11111111 110110 1110111 11111111 110110 1110111 11111111 1101101011 1010110010 1011101001 1111100000 10000101011 1100101101 1100011001 1100100111 1100001011 24.750 46.731 999.57 71266 22 15 13 58 52 4 $GNGGA,123832.00,4333.70355,N,00128.72968,E,1,04,4.47,106.1,M,53.8,M,,*4A
70 12 38 33 4333.7006200128.73247115.1ó 00128.73247 115.1 0 10111 11111111 110110 1110111 11111111 110110 1110111 11111111 1101101011 1010110000 1011101010 1111100110 10000101101 1100110010 1100010111 1100100011 1100001110 24.750 46.723 999.57 72263 22 14 13 59 51 4 $GNGGA,123833.00,4333.70062,N,00128.73247,E,1,03,5.02,115.1,M,53.8,M,,*4E
71 12 38 34 4333.7004000128.73325115.3ó 00128.73325 115.3 0 10111 11111111 110110 1110111 11111111 110110 1110111 11111111 1101101011 1010110111 1011101101 1111011100 10000101010 1100101101 1100011000 1100101011 1100010101 24.688 46.578 999.56 73263 20 16 14 59 51 4 $GNGGA,123834.00,4333.70040,N,00128.73325,E,1,03,5.02,115.3,M,53.8,M,,*4E
72 12 38 35 4333.6999200128.73349115.5ó 00128.73349 115.5 0 10111 11111111 110110 1110111 11111111 110110 1110111 11111111 1101101011 1010110110 1011101100 1111011110 10000101001 1100100111 1100010000 1100100111 1100010011 24.750 46.433 999.56 74260 22 14 13 60 50 4 $GNGGA,123835.00,4333.69992,N,00128.73349,E,1,03,5.02,115.5,M,53.8,M,,*4D
73 12 38 36 Nan Nan Nan 0 10111 11111111 110110 1100000 0 110110 1110111 11111111 1101101011 1010110011 1011101100 1111100100 10000101101 1100100111 1100010110 1100100111 1100011101 24.750 46.402 999.57 75251 22 7 10 58 51 4 $GNGGA,123836.00,,,,,0,00,13.0,,,,,,*47
74 12 38 37 Nan Nan Nan 0 10111 11111111 110110 1110111 11111111 110110 1100000 0 1101101011 1010110011 1011101100 1111100000 10000101001 1100101010 1100010111 1100101011 1100010101 24.750 46.464 999.56 76251 21 8 11 59 51 4 $GNGGA,123837.00,,,,,0,00,13.0,,,,,,*46
75 12 38 38 Nan Nan Nan 0 10111 11111111 110110 1110111 11111111 110110 1110111 11111111 1101101011 1010110111 1011101100 1111100100 10000101100 1100101100 1100010011 1100101011 1100011001 24.688 46.547 999.54 77249 22 7 11 60 51 3 $GNGGA,123838.00,,,,,0,00,13.0,,,,,,*49
76 12 38 39 Nan Nan Nan 0 10111 11111111 110110 1110111 11111111 110110 1100000 0 1101101011 1010110101 1011101011 1111011001 10000101001 1100100011 1100010100 1100101011 1100010000 24.688 46.586 999.55 78247 21 7 12 59 51 3 $GNGGA,123839.00,,,,,0,00,13.0,,,,,,*48
77 12 38 40 Nan Nan Nan 0 10111 11111111 110110 1100000 0 110110 1110111 11111111 1101101011 1010111000 1011101110 1111100001 10000101100 1100101011 1100011000 1100101011 1100010110 24.750 46.601 999.55 79246 22 7 11 59 52 3 $GNGGA,123840.00,,,,,0,00,13.0,,,,,,*46
78 12 38 41 Nan Nan Nan 0 10111 11111111 110110 1100000 0 110110 1110111 11111111 1101101011 1010110100 1011101010 1111100100 10000101100 1100101011 1100010110 1100100000 1100001101 24.750 46.631 999.56 80246 22 7 11 59 51 3 $GNGGA,123841.00,,,,,0,00,13.0,,,,,,*47
79 12 38 42 Nan Nan Nan 0 10111 11111111 110110 1100000 0 110110 1100000 0 1101101011 1010110011 1011101011 1111100011 10000101101 1100101010 1100010111 1100011110 1100001101 24.750 46.700 999.55 81243 20 8 11 59 50 5 $GNGGA,123842.00,,,,,0,00,12.9,,,,,,*4C
80 12 38 43 Nan Nan Nan 0 10111 11111111 110110 1110111 11111111 110110 1110111 11111111 1101101011 1010111000 1011101101 1111100011 10000101011 1100101011 1100011010 1100100000 1100001100 24.750 46.708 999.55 82243 22 7 11 60 51 3 $GNGGA,123843.00,,,,,0,00,12.9,,,,,,*4D
81 12 38 44 Nan Nan Nan 0 10111 11111111 110110 1110111 11111111 110110 1110111 11111111 1101101011 1010111000 1011101100 1111101010 10000101011 1100101011 1100011000 1100101010 1100010111 24.750 46.746 999.55 83243 21 8 12 59 51 3 $GNGGA,123844.00,,,,,0,00,12.9,,,,,,*4A
82 12 38 45 Nan Nan Nan 0 10111 11111111 110110 1110111 11111111 110110 1110111 11111111 1101101011 1010110111 1011101101 1111110000 10000101100 1100101110 1100010101 1100011001 1100001010 24.750 46.853 999.55 84242 22 7 11 60 51 3 $GNGGA,123845.00,,,,,0,00,12.9,,,,,,*4B
83 12 38 46 Nan Nan Nan 0 10111 11111111 110110 1110111 11111111 110110 1110111 11111111 1101101011 1010110101 1011101101 1111100110 10000101010 1100101100 1100010101 1100100101 1100001111 24.750 46.914 999.56 85239 21 7 12 59 51 3 $GNGGA,123846.00,,,,,0,00,12.9,,,,,,*48
84 12 38 47 Nan Nan Nan 0 10111 11111111 110110 1110111 11111111 110110 1110111 11111111 1101101011 1010110101 1011101011 1111100011 10000101011 1100101110 1100010111 1100100011 1100010010 24.750 46.944 999.56 86239 20 6 11 59 51 4 $GNGGA,123847.00,,,,,0,00,12.9,,,,,,*49
85 12 38 48 Nan Nan Nan 0 10111 11111111 110110 1100000 0 110110 1100000 0 1101101011 1010110111 1011101011 1111100100 10000101011 1100101100 1100011010 1100101001 1100010111 24.750 46.967 999.58 87239 22 7 11 60 51 3 $GNGGA,123848.00,,,,,0,00,12.9,,,,,,*46
86 12 38 49 Nan Nan Nan 0 10111 11111111 110110 1110111 11111111 110110 1110111 11111111 1101101011 1010110100 1011101010 1111100100 10000101010 1100110000 1100010110 1100100100 1100010010 24.688 47.005 999.58 88237 21 8 10 59 51 5 $GNGGA,123849.00,,,,,0,00,12.9,,,,,,*47
87 12 38 50 Nan Nan Nan 0 10111 11111111 110110 1110111 11111111 110110 1100000 0 1101101011 1010110111 1011101010 1111100100 10000101001 1100110001 1100011100 1100101001 1100011010 24.750 46.998 999.58 89236 22 7 10 60 51 4 $GNGGA,123850.00,,,,,0,00,12.9,,,,,,*4F
88 12 38 51 Nan Nan Nan 0 10111 11111111 110110 1110111 11111111 110110 1100000 0 1101101011 1010111000 1011101011 1111101000 10000101110 1100101010 1100011100 1100100010 1100001101 24.750 47.005 999.58 90234 22 7 11 59 50 4 $GNGGA,123851.00,,,,,0,00,12.9,,,,,,*4E
89 12 38 52 Nan Nan Nan 0 10111 11111111 110110 1100000 0 110110 1110111 11111111 1101101011 1010110110 1011101101 1111101111 10000101100 1100101110 1100011000 1100100010 1100010001 24.750 46.990 999.58 91234 22 7 11 59 52 3 $GNGGA,123852.00,,,,,0,00,12.9,,,,,,*4D
90 12 38 53 Nan Nan Nan 0 10111 11111111 110110 1110111 11111111 110110 1110111 11111111 1101101011 1010110110 1011101100 1111100111 10000101100 1100101110 1100010110 1100101100 1100011001 24.750 46.982 999.57 92231 23 7 10 60 50 4 $GNGGA,123853.00,,,,,0,00,12.9,,,,,,*4C
91 12 38 54 Nan Nan Nan 0 10111 11111111 110110 1110111 11111111 110110 1110111 11111111 1101101011 1010110001 1011101001 1111100001 10000101001 1100101110 1100010111 1100101010 1100010111 24.750 46.967 999.57 93233 21 8 10 58 52 4 $GNGGA,123854.00,,,,,0,00,12.9,,,,,,*4B
92 12 38 55 Nan Nan Nan 0 10111 11111111 110110 1110111 11111111 110110 1100000 0 1101101011 1010110100 1011101010 1111100110 10000101010 1100101101 1100010101 1100101010 1100001101 24.750 46.959 999.57 94231 22 7 11 60 51 3 $GNGGA,123855.00,,,,,0,00,12.9,,,,,,*4A
93 12 38 56 Nan Nan Nan 0 10111 11111111 110110 1110111 11111111 110110 1100000 0 1101101011 1010110010 1011101011 1111100001 10000101001 1100101100 1100011001 1100100101 1100010011 24.750 46.891 999.56 95229 21 7 11 59 50 4 $GNGGA,123856.00,,,,,0,00,12.9,,,,,,*49
94 12 38 57 Nan Nan Nan 0 10111 11111111 110110 1110111 11111111 110110 1110111 11111111 1101101011 1010110100 1011101100 1111011011 10000101001 1100101101 1100011000 1100101101 1100011011 24.750 46.830 999.56 96229 22 7 11 60 51 3 $GNGGA,123857.00,,,,,0,00,12.9,,,,,,*48
95 12 38 58 4333.7008300128.73574117.7ó 00128.73574 117.7 0 10111 11111111 110110 1110111 11111111 110110 1100000 0 1101101010 1010110111 1011101100 1111100011 10000101001 1100101001 1100010011 1100101001 1100011010 24.750 46.814 999.55 97239 21 15 14 59 51 4 $GNGGA,123858.00,4333.70083,N,00128.73574,E,1,03,5.02,117.7,M,53.8,M,,*4F
96 12 38 59 Nan Nan Nan 0 10111 11111111 110110 1110111 11111111 110110 1100000 0 1101101011 1010110101 1011101100 1111100101 10000101010 1100101011 1100010101 1100101100 1100011100 24.750 46.807 999.56 98228 21 7 11 59 52 3 $GNGGA,123859.00,,,,,0,00,12.9,,,,,,*46
97 12 39 00 Nan Nan Nan 0 10111 11111111 110110 1110111 11111111 110110 1110111 11111111 1101101011 1010110110 1011101011 1111100110 10000101110 1100110100 1100011100 1100101010 1100001100 24.688 46.807 999.58 99227 22 7 11 60 50 4 $GNGGA,123900.00,,,,,0,00,12.8,,,,,,*4A
98 12 39 01 Nan Nan Nan 0 10111 11111111 110110 1110111 11111111 110110 1110111 11111111 1101101011 1010110110 1011101011 1111101011 10000101011 1100101011 1100010110 1100101010 1100001101 24.750 46.837 999.57 100225 21 7 12 59 50 4 $GNGGA,123901.00,,,,,0,00,12.8,,,,,,*4B
99 12 39 02 Nan Nan Nan 0 10111 11111111 110110 1110111 11111111 110110 1110111 11111111 1101101011 1010110011 1011101011 1111100100 10000101001 1100110000 1100011010 1100101001 1100011000 24.750 46.929 999.57 101225 23 7 10 60 50 4 $GNGGA,123902.00,,,,,0,00,12.8,,,,,,*48
100 12 39 03 4333.7027500128.73322117.4ó 00128.73322 117.4 0 10111 11111111 110110 1110111 11111111 110110 1110111 11111111 1101101011 1010110110 1011101111 1111100111 10000101110 1100101000 1100011100 1100100100 1100001111 24.750 46.975 999.57 102234 22 15 13 59 50 5 $GNGGA,123903.00,4333.70275,N,00128.73322,E,1,04,4.47,117.4,M,53.8,M,,*4A
101 12 39 04 4333.7031800128.73301117.2ó 00128.73301 117.2 0 10111 11111111 110110 1110111 11111111 110110 1100000 0 1101101011 1010110100 1011101011 1111101001 10000101100 1100101011 1100011011 1100101001 1100011011 24.750 46.929 999.58 103232 23 14 13 60 50 4 $GNGGA,123904.00,4333.70318,N,00128.73301,E,1,05,1.73,117.2,M,53.8,M,,*43
102 12 39 05 4333.7032200128.73004117.4ó 00128.73004 117.4 0 10111 11111111 110110 1100000 0 110110 1110111 11111111 1101101011 1010110011 1011101010 1111100111 10000101011 1100110001 1100011011 1100100000 1100011101 24.750 46.853 999.58 104233 21 15 15 59 51 3 $GNGGA,123905.00,4333.70322,N,00128.73004,E,1,05,1.73,117.4,M,53.8,M,,*4B
103 12 39 06 4333.7036900128.72919117.5ó 00128.72919 117.5 0 10111 11111111 110110 1110111 11111111 110110 1110111 11111111 1101101011 1010101111 1011100110 1111100101 10000101010 1100101100 1100011101 1100100100 1100010110 24.750 46.822 999.57 105231 22 15 14 60 51 3 $GNGGA,123906.00,4333.70369,N,00128.72919,E,1,05,1.73,117.5,M,53.8,M,,*42
104 12 39 07 4333.7037900128.72852117.6ó 00128.72852 117.6 0 10111 11111111 110110 1110111 11111111 110110 1110111 11111111 1101101011 1010110101 1011101100 1111101101 10000101101 1100101110 1100011010 1100100010 1100001111 24.750 46.814 999.57 106230 22 14 14 58 51 4 $GNGGA,123907.00,4333.70379,N,00128.72852,E,1,05,1.73,117.6,M,53.8,M,,*4F
105 12 39 08 4333.7045000128.72839117.6ó 00128.72839 117.6 0 10111 11111111 110110 1100000 0 110110 1110111 11111111 1101101011 1010110011 1011101001 1111100100 10000101010 1100101110 1100011010 1100100111 1100010101 24.750 46.822 999.58 107230 20 16 14 59 52 3 $GNGGA,123908.00,4333.70450,N,00128.72839,E,1,05,1.73,117.6,M,53.8,M,,*41
106 12 39 09 4333.7049100128.72862117.7ó 00128.72862 117.7 0 10111 11111111 110110 1100000 0 110110 1110111 11111111 1101101011 1010110111 1011101101 1111101111 10000101101 1100101011 1100010011 1100011110 1100001110 24.750 46.814 999.57 108228 22 15 14 60 51 3 $GNGGA,123909.00,4333.70491,N,00128.72862,E,1,05,1.73,117.7,M,53.8,M,,*42
107 12 39 10 4333.7066900128.72636118.1ó 00128.72636 118.1 0 10111 11111111 110110 1110111 11111111 110110 1110111 11111111 1101101011 1010110111 1011101100 1111100101 10000101011 1100101001 1100011010 1100100101 1100010100 24.750 46.837 999.57 109228 21 15 14 59 51 4 $GNGGA,123910.00,4333.70669,N,00128.72636,E,1,05,1.73,118.1,M,53.8,M,,*49
108 12 39 11 4333.7071800128.72709118.4ó 00128.72709 118.4 0 10111 11111111 110110 1100000 0 110110 1110111 11111111 1101101011 1010110110 1011101101 1111100010 10000101011 1100101001 1100010110 1100100010 1100001110 24.750 46.860 999.58 110224 22 15 14 60 51 3 $GNGGA,123911.00,4333.70718,N,00128.72709,E,1,05,1.73,118.4,M,53.8,M,,*47
109 12 39 12 4333.7063800128.72733118.5ó 00128.72733 118.5 0 10111 11111111 110110 1110111 11111111 110110 1100000 0 1101101011 1010110111 1011101101 1111101010 10000101101 1100110100 1100011011 1100100011 1100001010 24.750 46.906 999.57 111225 21 15 15 59 51 3 $GNGGA,123912.00,4333.70638,N,00128.72733,E,1,05,1.73,118.5,M,53.8,M,,*4F
110 12 39 13 4333.7060200128.72819118.6ó 00128.72819 118.6 0 10111 11111111 110110 1100000 0 110110 1110111 11111111 1101101011 1010111000 1011101101 1111100111 10000101010 1100101101 1100011001 1100100010 1100001011 24.813 46.975 999.56 112224 22 15 13 59 51 4 $GNGGA,123913.00,4333.70602,N,00128.72819,E,1,05,1.73,118.6,M,53.8,M,,*43
111 12 39 14 4333.7060400128.72894118.7ó 00128.72894 118.7 0 10111 11111111 110110 1100000 0 110110 1100000 0 1101101011 1010110111 1011101100 1111100011 10000101100 1100101000 1100010000 1100100001 1100001101 24.813 46.998 999.58 113222 22 14 13 59 51 4 $GNGGA,123914.00,4333.70604,N,00128.72894,E,1,04,4.47,118.7,M,53.8,M,,*45
112 12 39 15 4333.7062800128.72891118.8ó 00128.72891 118.8 0 10111 11111111 110110 1100000 0 110110 1110111 11111111 1101101011 1010110100 1011101011 1111100011 10000101011 1100101101 1100010011 1100101001 1100010101 24.750 47.005 999.58 114220 21 15 14 59 50 4 $GNGGA,123915.00,4333.70628,N,00128.72891,E,1,04,4.47,118.8,M,53.8,M,,*40
113 12 39 16 4333.7062800128.73033118.8ó 00128.73033 118.8 0 10111 11111111 110110 1110111 11111111 110110 1100000 0 1101101011 1010110111 1011101011 1111100100 10000101011 1100101011 1100010111 1100101111 1100010111 24.813 47.036 999.58 115221 22 15 14 60 51 3 $GNGGA,123916.00,4333.70628,N,00128.73033,E,1,04,4.47,118.8,M,53.8,M,,*42
114 12 39 17 4333.7055600128.72978118.9ó 00128.72978 118.9 0 10111 11111111 110110 1110111 11111111 110110 1110111 11111111 1101101011 1010110011 1011101010 1111101001 10000101110 1100101010 1100010010 1100100101 1100010100 24.813 47.043 999.56 116219 21 15 15 59 51 3 $GNGGA,123917.00,4333.70556,N,00128.72978,E,1,04,4.47,118.9,M,53.8,M,,*4F
115 12 39 18 4333.7051400128.72951118.9ó 00128.72951 118.9 0 10111 11111111 110110 1110111 11111111 110110 1100000 0 1101101011 1010111001 1011101101 1111100010 10000101010 1100101011 1100010100 1100101011 1100011001 24.750 47.043 999.56 117218 22 15 13 59 51 4 $GNGGA,123918.00,4333.70514,N,00128.72951,E,1,04,4.47,118.9,M,53.8,M,,*4D
116 12 39 19 4333.7048400128.72923118.9ó 00128.72923 118.9 0 10111 11111111 110110 1110111 11111111 110110 1110111 11111111 1101101011 1010111000 1011101100 1111100001 10000101011 1100101110 1100011101 1100100001 1100001110 24.750 47.051 999.56 118217 23 14 13 59 50 4 $GNGGA,123919.00,4333.70484,N,00128.72923,E,1,04,4.47,118.9,M,53.8,M,,*41
117 12 39 20 4333.7040300128.72868118.9ó 00128.72868 118.9 0 10111 11111111 110110 1110111 11111111 110110 1100000 0 1101101011 1010110011 1011101011 1111101100 10000101100 1100101110 1100011011 1100100100 1100010000 24.813 47.082 999.57 119218 21 16 14 59 52 3 $GNGGA,123920.00,4333.70403,N,00128.72868,E,1,04,4.47,118.9,M,53.8,M,,*4A
118 12 39 21 4333.7033800128.72890119.1ó 00128.72890 119.1 0 10111 11111111 110110 1100000 0 110110 1110111 11111111 1101101011 1010110101 1011101101 1111011110 10000101010 1100101000 1100010100 1100100110 1100011011 24.813 47.204 999.56 120217 22 14 13 60 50 4 $GNGGA,123921.00,4333.70338,N,00128.72890,E,1,05,1.73,119.1,M,53.8,M,,*49
119 12 39 22 4333.7028800128.73023119.3ó 00128.73023 119.3 0 10111 11111111 110110 1110111 11111111 110110 1110111 11111111 1101101011 1010110011 1011101100 1111100111 10000101101 1100101101 1100011010 1100100101 1100010101 24.750 47.326 999.57 121214 21 15 15 59 50 4 $GNGGA,123922.00,4333.70288,N,00128.73023,E,1,05,1.73,119.3,M,53.8,M,,*43
120 12 39 23 4333.7029600128.73049119.4ó 00128.73049 119.4 0 10111 11111111 110110 1110111 11111111 110110 1110111 11111111 1101101011 1010110111 1011101011 1111100000 10000101011 1100101011 1100010110 1100100101 1100011001 24.750 47.432 999.57 122215 23 15 13 60 50 4 $GNGGA,123923.00,4333.70296,N,00128.73049,E,1,05,1.73,119.4,M,53.8,M,,*46
121 12 39 24 4333.7030700128.73086119.4ó 00128.73086 119.4 0 10111 11111111 110110 1100000 0 110110 1110111 11111111 1101101011 1010110101 1011101011 1111100001 10000101001 1100101101 1100011011 1100100011 1100010001 24.750 47.509 999.58 123212 21 15 15 59 51 3 $GNGGA,123924.00,4333.70307,N,00128.73086,E,1,05,1.73,119.4,M,53.8,M,,*4B
122 12 39 25 4333.7035700128.73136119.4ó 00128.73136 119.4 0 10111 11111111 110110 1110111 11111111 110110 1110111 11111111 1101101011 1010110010 1011101000 1111100101 10000101010 1100101100 1100011000 1100100111 1100011010 24.813 47.562 999.57 124212 21 16 14 59 52 3 $GNGGA,123925.00,4333.70357,N,00128.73136,E,1,05,1.73,119.4,M,53.8,M,,*45
123 12 39 26 4333.7037400128.73205119.5ó 00128.73205 119.5 0 10111 11111111 110110 1100000 0 110110 1110111 11111111 1101101011 1010110100 1011101100 1111100111 10000101100 1100101011 1100010111 1100100101 1100010001 24.750 47.600 999.58 125210 22 14 13 60 50 4 $GNGGA,123926.00,4333.70374,N,00128.73205,E,1,05,1.73,119.5,M,53.8,M,,*45
124 12 39 27 4333.7037300128.73276119.7ó 00128.73276 119.7 0 10111 11111111 110110 1100000 0 110110 1110111 11111111 1101101011 1010110101 1011101010 1111100110 10000101101 1100101100 1100011011 1100100111 1100010101 24.750 47.593 999.58 126209 21 15 14 58 51 4 $GNGGA,123927.00,4333.70373,N,00128.73276,E,1,05,1.73,119.7,M,53.8,M,,*45
125 12 39 28 4333.7027500128.73355119.7ó 00128.73355 119.7 0 10111 11111111 110110 1100000 0 110110 1110111 11111111 1101101011 1010111001 1011101110 1111101100 10000101100 1100101101 1100010111 1100100011 1100010001 24.750 47.600 999.56 127209 22 15 14 60 51 3 $GNGGA,123928.00,4333.70275,N,00128.73355,E,1,05,1.73,119.7,M,53.8,M,,*4D
126 12 39 29 4333.7030600128.73407119.7ó 00128.73407 119.7 0 10111 11111111 110110 1110111 11111111 110110 1100000 0 1101101011 1010111001 1011101100 1111100111 10000101010 1100101111 1100011001 1100100111 1100010111 24.813 47.616 999.56 128208 21 15 15 59 51 3 $GNGGA,123929.00,4333.70306,N,00128.73407,E,1,05,1.73,119.7,M,53.8,M,,*49
127 12 39 30 4333.7028600128.73516119.7ó 00128.73516 119.7 0 10111 11111111 110110 1110111 11111111 110110 1110111 11111111 1101101011 1010110100 1011101010 1111101010 10000101011 1100101100 1100010110 1100101001 1100010011 24.750 47.631 999.57 129206 22 15 13 59 51 4 $GNGGA,123930.00,4333.70286,N,00128.73516,E,1,05,1.73,119.7,M,53.8,M,,*49
128 12 39 31 4333.7022200128.73607119.6ó 00128.73607 119.6 0 10111 11111111 110110 1110111 11111111 110110 1110111 11111111 1101101011 1010110010 1011101010 1111101111 10000101101 1100101011 1100010011 1100101000 1100010101 24.750 47.646 999.56 130204 23 14 13 60 50 4 $GNGGA,123931.00,4333.70222,N,00128.73607,E,1,05,1.73,119.6,M,53.8,M,,*44
129 12 39 32 4333.7020800128.73634119.7ó 00128.73634 119.7 0 10111 11111111 110110 1110111 11111111 110110 1110111 11111111 1101101011 1010110110 1011101100 1111100010 10000101011 1100101111 1100011011 1100100010 1100010110 24.750 47.631 999.56 131205 21 15 13 58 51 5 $GNGGA,123932.00,4333.70208,N,00128.73634,E,1,05,1.73,119.7,M,53.8,M,,*4E
130 12 39 33 4333.7018400128.73733119.7ó 00128.73733 119.7 0 10111 11111111 110110 1110111 11111111 110110 1110111 11111111 1101101011 1010110101 1011101011 1111100111 10000101010 1100110000 1100011000 1100101000 1100010110 24.750 47.539 999.57 132202 22 15 14 60 51 3 $GNGGA,123933.00,4333.70184,N,00128.73733,E,1,05,1.73,119.7,M,53.8,M,,*4E
131 12 39 34 4333.7011600128.73725119.7ó 00128.73725 119.7 0 10111 11111111 110110 1110111 11111111 110110 1110111 11111111 1101101011 1010110101 1011101011 1111101010 10000101100 1100101001 1100010110 1100100000 1100010000 24.813 47.486 999.56 133203 21 15 15 59 51 3 $GNGGA,123934.00,4333.70116,N,00128.73725,E,1,05,1.73,119.7,M,53.8,M,,*45
132 12 39 35 4333.7015600128.73777119.9ó 00128.73777 119.9 0 10111 11111111 110110 1110111 11111111 110110 1100000 0 1101101011 1010110011 1011101011 1111101001 10000101100 1100101100 1100011111 1100100011 1100010011 24.750 47.509 999.56 134202 22 15 14 60 51 3 $GNGGA,123935.00,4333.70156,N,00128.73777,E,1,05,1.73,119.9,M,53.8,M,,*49
133 12 39 36 4333.7006900128.73474120.2ó 00128.73474 120.2 0 10111 11111111 110110 1100000 0 110110 1110111 11111111 1101101011 1010110011 1011101011 1111100001 10000101010 1100101010 1100010111 1100100010 1100001101 24.750 47.524 999.56 135200 21 15 15 59 51 3 $GNGGA,123936.00,4333.70069,N,00128.73474,E,1,05,1.73,120.2,M,53.8,M,,*46
134 12 39 37 Nan Nan Nan 0 10111 11111111 110110 1110111 11111111 110110 1110111 11111111 1101101011 1010110111 1011101100 1111100010 10000101110 1100100101 1100010111 1100100001 1100010101 24.750 47.547 999.55 136187 21 7 12 59 51 3 $GNGGA,123937.00,,,,,0,00,16.8,,,,,,*4A
135 12 39 38 Nan Nan Nan 0 10111 11111111 110110 1100000 0 110110 1110111 11111111 1101101011 1010110101 1011101011 1111100101 10000101100 1100101011 1100011100 1100100111 1100010111 24.750 47.532 999.55 137188 22 7 11 60 50 4 $GNGGA,123938.00,,,,,0,00,16.8,,,,,,*45
136 12 39 39 Nan Nan Nan 0 10111 11111111 110110 1110111 11111111 110110 1110111 11111111 1101101011 1010111000 1011101100 1111101001 10000101101 1100101000 1100010101 1100100110 1100010101 24.750 47.547 999.56 138186 21 6 11 59 50 4 $GNGGA,123939.00,,,,,0,00,16.8,,,,,,*44
137 12 39 40 Nan Nan Nan 0 10111 11111111 110110 1110111 11111111 110110 1110111 11111111 1101101011 1010110110 1011101011 1111100010 10000101011 1100101100 1100011010 1100100101 1100010100 24.750 47.562 999.56 139185 21 8 11 59 52 3 $GNGGA,123940.00,,,,,0,00,16.8,,,,,,*4A
138 12 39 41 Nan Nan Nan 0 10111 11111111 110110 1100000 0 110110 1110111 11111111 1101101011 1010110100 1011101010 1111101000 10000101100 1100101100 1100010111 1100100111 1100010010 24.750 47.570 999.56 140184 22 7 10 60 50 4 $GNGGA,123941.00,,,,,0,00,16.8,,,,,,*4B
139 12 39 42 Nan Nan Nan 0 10111 11111111 110110 1110111 11111111 110110 1100000 0 1101101011 1010110110 1011101100 1111100101 10000101100 1100101010 1100011011 1100100100 1100001101 24.750 47.562 999.56 141182 21 6 12 59 50 4 $GNGGA,123942.00,,,,,0,00,16.8,,,,,,*48
140 12 39 43 Nan Nan Nan 0 10111 11111111 110110 1110111 11111111 110110 1110111 11111111 1101101011 1010110001 1011101000 1111101001 10000101110 1100110000 1100010101 1100100111 1100010110 24.750 47.555 999.55 142181 21 6 11 60 50 4 $GNGGA,123943.00,,,,,0,00,16.8,,,,,,*49
141 12 39 44 Nan Nan Nan 0 10111 11111111 110110 1100000 0 110110 1100000 0 1101101010 1010110010 1011101101 1111100011 10000101101 1100100110 1100010110 1100101010 1100011010 24.750 47.562 999.56 143179 21 7 11 59 51 3 $GNGGA,123944.00,,,,,0,00,16.8,,,,,,*4E
142 12 39 45 Nan Nan Nan 0 10111 11111111 110110 1110111 11111111 110110 1110111 11111111 1101101011 1010110111 1011101001 1111100011 10000101011 1100100111 1100010100 1100100001 1100001101 24.750 47.516 999.56 144181 21 7 11 59 51 4 $GNGGA,123945.00,,,,,0,00,16.8,,,,,,*4F
143 12 39 46 Nan Nan Nan 0 10111 11111111 110110 1110111 11111111 110110 1110111 11111111 1101101011 1010110101 1011101010 1111100000 10000101010 1100101011 1100010100 1100100100 1100010010 24.750 47.486 999.55 145179 22 7 11 60 51 3 $GNGGA,123946.00,,,,,0,00,16.7,,,,,,*43
144 12 39 47 Nan Nan Nan 0 10111 11111111 110110 1100000 0 110110 1110111 11111111 1101101011 1010110101 1011101010 1111100110 10000101011 1100101000 1100010110 1100100110 1100001111 24.813 47.555 999.56 146178 21 8 12 59 51 3 $GNGGA,123947.00,,,,,0,00,16.7,,,,,,*42
145 12 39 48 Nan Nan Nan 0 10111 11111111 110110 1100000 0 110110 1110111 11111111 1101101011 1010111001 1011101011 1111101101 10000101110 1100110000 1100011101 1100101101 1100010110 24.813 47.669 999.56 147177 22 7 11 60 51 3 $GNGGA,123948.00,,,,,0,00,16.7,,,,,,*4D
146 12 39 49 Nan Nan Nan 0 10111 11111111 110110 1110111 11111111 110110 1110111 11111111 1101101011 1010111010 1011101100 1111100101 10000101010 1100101011 1100011001 1100100110 1100010011 24.750 47.692 999.55 148175 21 7 11 58 51 4 $GNGGA,123949.00,,,,,0,00,16.7,,,,,,*4C
147 12 39 50 Nan Nan Nan 0 10111 11111111 110110 1110111 11111111 110110 1110111 11111111 1101101011 1010110110 1011101010 1111101011 10000101100 1100101010 1100011001 1100100000 1100001011 24.750 47.654 999.54 149175 21 7 11 59 51 4 $GNGGA,123950.00,,,,,0,00,16.7,,,,,,*44
148 12 39 51 Nan Nan Nan 0 10111 11111111 110110 1100000 0 110110 1110111 11111111 1101101011 1010110110 1011101010 1111101010 10000101010 1100101011 1100010110 1100101010 1100010100 24.750 47.608 999.56 150171 22 7 11 60 51 3 $GNGGA,123951.00,,,,,0,00,16.7,,,,,,*45
149 12 39 52 Nan Nan Nan 0 10111 11111111 110110 1110111 11111111 110110 1110111 11111111 1101101011 1010110110 1011101100 1111101101 10000101101 1100110010 1100011110 1100100110 1100010001 24.750 47.509 999.55 151173 22 8 10 59 50 5 $GNGGA,123952.00,,,,,0,00,16.7,,,,,,*46
150 12 39 53 Nan Nan Nan 0 10111 11111111 110110 1100000 0 110110 1110111 11111111 1101101011 1010110100 1011101010 1111101110 10000101101 1100100110 1100010000 1100101101 1100011001 24.750 47.501 999.55 152172 21 7 11 60 50 4 $GNGGA,123953.00,,,,,0,00,16.7,,,,,,*47
151 12 39 54 Nan Nan Nan 0 10111 11111111 110110 1100000 0 110110 1110111 11111111 1101101011 1010110100 1011101010 1111101010 10000101100 1100101111 1100011101 1100101011 1100010011 24.750 47.547 999.55 153170 21 7 11 58 51 4 $GNGGA,123954.00,,,,,0,00,16.7,,,,,,*40
152 12 39 55 Nan Nan Nan 0 10111 11111111 110110 1110111 11111111 110110 1110111 11111111 1101101011 1010110011 1011101001 1111101111 10000101101 1100101111 1100011001 1100100110 1100010101 24.813 47.463 999.55 154169 23 7 10 59 51 4 $GNGGA,123955.00,,,,,0,00,16.7,,,,,,*41
153 12 39 56 Nan Nan Nan 0 10111 11111111 110110 1110111 11111111 110110 1110111 11111111 1101101011 1010111010 1011101110 1111100011 10000101001 1100100111 1100010100 1100100001 1100001010 24.813 47.410 999.55 155168 22 6 11 59 50 4 $GNGGA,123956.00,,,,,0,00,16.7,,,,,,*42
154 12 39 57 Nan Nan Nan 0 10111 11111111 110110 1100000 0 110110 1110111 11111111 1101101011 1010110101 1011101010 1111100011 10000101101 1100101000 1100010110 1100100001 1100001110 24.813 47.410 999.55 156168 20 7 11 59 51 4 $GNGGA,123957.00,,,,,0,00,16.7,,,,,,*43
155 12 39 58 Nan Nan Nan 0 10111 11111111 110110 1110111 11111111 110110 1110111 11111111 1101101011 1010110011 1011101100 1111100111 10000101011 1100101100 1100011010 1100101010 1100010100 24.750 47.455 999.54 157167 22 7 10 60 51 4 $GNGGA,123958.00,,,,,0,00,16.7,,,,,,*4C
156 12 39 59 Nan Nan Nan 0 10111 11111111 110110 1100000 0 110110 1110111 11111111 1101101011 1010110011 1011101001 1111100111 10000101001 1100101100 1100011011 1100011100 1100001101 24.750 47.432 999.54 158166 21 7 12 59 50 4 $GNGGA,123959.00,,,,,0,00,16.7,,,,,,*4D
157 12 40 00 Nan Nan Nan 0 10111 11111111 110110 1110111 11111111 110110 1110111 11111111 1101101011 1010111000 1011101011 1111100110 10000101100 1100101010 1100010101 1100100110 1100001111 24.750 47.379 999.55 159164 22 7 10 60 50 4 $GNGGA,124000.00,,,,,0,00,16.7,,,,,,*4F
158 12 40 01 Nan Nan Nan 0 10111 11111111 110110 1110111 11111111 110110 1100000 0 1101101011 1010110010 1011101100 1111101000 10000101110 1100101101 1100010101 1100100101 1100010110 24.750 47.318 999.54 160164 21 7 12 59 50 4 $GNGGA,124001.00,,,,,0,00,16.7,,,,,,*4E
159 12 40 02 Nan Nan Nan 0 10111 11111111 110110 1100000 0 110110 1110111 11111111 1101101011 1010110101 1011101100 1111101001 10000101110 1100101110 1100011010 1100101000 1100010100 24.750 47.295 999.54 161162 21 7 11 59 51 4 $GNGGA,124002.00,,,,,0,00,16.7,,,,,,*4D
160 12 40 03 Nan Nan Nan 0 10111 11111111 110110 1110111 11111111 110110 1110111 11111111 1101101011 1010110111 1011101100 1111100110 10000101101 1100101011 1100010110 1100101000 1100010111 24.750 47.493 999.54 162162 22 6 11 60 50 4 $GNGGA,124003.00,,,,,0,00,16.7,,,,,,*4C
161 12 40 04 Nan Nan Nan 0 10111 11111111 110110 1110111 11111111 110110 1100000 0 1101101011 1010110010 1011101011 1111100110 10000101100 1100101101 1100011011 1100100001 1100001011 24.750 47.532 999.54 163162 21 8 10 59 50 5 $GNGGA,124004.00,,,,,0,00,16.7,,,,,,*4B
162 12 40 05 Nan Nan Nan 0 10111 11111111 110110 1100000 0 110110 1110111 11111111 1101101011 1010110011 1011101010 1111100100 10000101100 1100101111 1100011000 1100011110 1100001110 24.750 47.486 999.55 164161 22 7 11 60 51 3 $GNGGA,124005.00,,,,,0,00,16.7,,,,,,*4A
163 12 40 06 Nan Nan Nan 0 10111 11111111 110110 1110111 11111111 110110 1100000 0 1101101011 1010110010 1011101010 1111101010 10000101110 1100101100 1100011011 1100101000 1100010110 24.750 47.493 999.55 165159 20 7 12 59 51 3 $GNGGA,124006.00,,,,,0,00,16.7,,,,,,*49
164 12 40 07 4333.6964300128.73685123.8ó 00128.73685 123.8 0 10111 11111111 110110 1100000 0 110110 1100000 0 1101101011 1010111001 1011101100 1111100110 10000101011 1100110000 1100011010 1100100110 1100010001 24.813 47.524 999.54 166169 21 15 14 60 51 3 $GNGGA,124007.00,4333.69643,N,00128.73685,E,1,05,1.73,123.8,M,53.8,M,,*49
165 12 40 08 4333.6956500128.73598124.6ó 00128.73598 124.6 0 10111 11111111 110110 1100000 0 110110 1110111 11111111 1101101011 1010110100 1011101011 1111101000 10000101100 1100101000 1100010011 1100101000 1100010111 24.813 47.555 999.54 167168 21 15 15 59 51 3 $GNGGA,124008.00,4333.69565,N,00128.73598,E,1,05,1.73,124.6,M,53.8,M,,*47
166 12 40 09 Nan Nan Nan 0 10111 11111111 110110 1110111 11111111 110110 1110111 11111111 1101101011 1010110110 1011101100 1111110000 10000101101 1100101111 1100011010 1100100111 1100010101 24.750 47.585 999.54 168155 22 8 10 58 51 5 $GNGGA,124009.00,,,,,0,00,16.7,,,,,,*46
167 12 40 10 Nan Nan Nan 0 10111 11111111 110110 1110111 11111111 110110 1110111 11111111 1101101011 1010110100 1011101010 1111101010 10000101100 1100101001 1100010110 1100011110 1100010010 24.750 47.600 999.55 169155 22 7 11 60 51 3 $GNGGA,124010.00,,,,,0,00,16.7,,,,,,*4E
168 12 40 11 4333.6954900128.73861125.8ó 00128.73861 125.8 0 10111 11111111 110110 1110111 11111111 110110 1100000 0 1101101011 1010110101 1011101010 1111101011 10000101100 1100101110 1100011011 1100101110 1100010111 24.750 47.623 999.55 170166 21 16 14 59 52 3 $GNGGA,124011.00,4333.69549,N,00128.73861,E,1,05,1.73,125.8,M,53.8,M,,*45
169 12 40 12 4333.6953700128.73771126.5ó 00128.73771 126.5 0 10111 11111111 110110 1110111 11111111 110110 1110111 11111111 1101101011 1010110111 1011101001 1111101010 10000101011 1100101111 1100011100 1100101001 1100010011 24.750 47.616 999.54 171164 22 15 14 60 51 3 $GNGGA,124012.00,4333.69537,N,00128.73771,E,1,05,1.73,126.5,M,53.8,M,,*4F
170 12 40 13 Nan Nan Nan 0 10111 11111111 110110 1110111 11111111 110110 1100000 0 1101101011 1010110110 1011101011 1111101011 10000101110 1100101101 1100011001 1100101000 1100010111 24.750 47.600 999.54 172150 22 7 11 59 51 3 $GNGGA,124013.00,,,,,0,00,16.6,,,,,,*4C
171 12 40 14 Nan Nan Nan 0 10111 11111111 110110 1110111 11111111 110110 1110111 11111111 1101101011 1010110111 1011101011 1111110000 10000101110 1100101001 1100010110 1100100110 1100001101 24.750 47.646 999.54 173151 21 7 11 59 52 3 $GNGGA,124014.00,,,,,0,00,16.6,,,,,,*4B
172 12 40 15 Nan Nan Nan 0 10111 11111111 110110 1100000 0 110110 1100000 0 1101101011 1010111000 1011101100 1111111000 10000101101 1100101000 1100010100 1100101001 1100011000 24.750 47.646 999.55 174148 21 6 11 60 50 4 $GNGGA,124015.00,,,,,0,00,16.6,,,,,,*4A
173 12 40 16 Nan Nan Nan 0 10111 11111111 110110 1100000 0 110110 1100000 0 1101101010 1010110101 1011101000 1111110000 10000101011 1100100111 1100011000 1100101100 1100010010 24.750 47.623 999.55 175149 21 8 10 58 51 5 $GNGGA,124016.00,,,,,0,00,16.6,,,,,,*49
174 12 40 17 Nan Nan Nan 0 10111 11111111 110110 1110111 11111111 110110 1100000 0 1101101011 1010110101 1011101010 1111110000 10000101110 1100101101 1100011001 1100100011 1100001011 24.750 47.638 999.55 176147 22 7 10 59 51 4 $GNGGA,124017.00,,,,,0,00,16.6,,,,,,*48
175 12 40 18 Nan Nan Nan 0 10111 11111111 110110 1100000 0 110110 1110111 11111111 1101101011 1010111001 1011101101 1111101011 10000101110 1100101000 1100010110 1100101011 1100011011 24.750 47.654 999.55 177145 22 7 11 59 50 4 $GNGGA,124018.00,,,,,0,00,16.6,,,,,,*47
176 12 40 19 Nan Nan Nan 0 10111 11111111 110110 1110111 11111111 110110 1100000 0 1101101011 1010110001 1011101010 1111101111 10000101010 1100101011 1100010111 1100100110 1100001011 24.750 47.669 999.56 178146 20 7 11 59 52 3 $GNGGA,124019.00,,,,,0,00,16.6,,,,,,*46
177 12 40 20 Nan Nan Nan 0 10111 11111111 110110 1110111 11111111 110110 1100000 0 1101101011 1010110100 1011101100 1111101111 10000101110 1100110000 1100011001 1100100111 1100010101 24.813 47.684 999.56 179142 22 7 11 60 51 3 $GNGGA,124020.00,,,,,0,00,16.6,,,,,,*4C
178 12 40 21 Nan Nan Nan 0 10111 11111111 110110 1110111 11111111 110110 1100000 0 1101101011 1010110101 1011101011 1111101011 10000101011 1100101100 1100010100 1100101001 1100011001 24.750 47.699 999.55 180143 22 8 10 59 50 5 $GNGGA,124021.00,,,,,0,00,16.6,,,,,,*4D
179 12 40 22 Nan Nan Nan 0 10111 11111111 110110 1110111 11111111 110110 1100000 0 1101101011 1010111000 1011101011 1111110011 10000101111 1100100111 1100010110 1100101100 1100011101 24.750 47.707 999.56 181142 23 7 10 60 50 4 $GNGGA,124022.00,,,,,0,00,16.6,,,,,,*4E
180 12 40 23 Nan Nan Nan 0 10111 11111111 110110 1100000 0 110110 1110111 11111111 1101101011 1010110100 1011101100 1111101011 10000101011 1100101100 1100011011 1100100110 1100011101 24.750 47.715 999.56 182140 21 6 12 59 50 4 $GNGGA,124023.00,,,,,0,00,16.6,,,,,,*4F
181 12 40 24 Nan Nan Nan 0 10111 11111111 110110 1110111 11111111 110110 1110111 11111111 1101101011 1010111000 1011101100 1111101001 10000101011 1100100111 1100010100 1100100101 1100010010 24.750 47.730 999.56 183140 22 7 11 60 51 3 $GNGGA,124024.00,,,,,0,00,16.6,,,,,,*48
182 12 40 25 Nan Nan Nan 0 10111 11111111 110110 1110111 11111111 110110 1110111 11111111 1101101011 1010110111 1011101010 1111100110 10000101100 1100101111 1100011010 1100100011 1100010100 24.750 47.745 999.54 184138 22 6 11 59 50 4 $GNGGA,124025.00,,,,,0,00,16.6,,,,,,*49
183 12 40 26 Nan Nan Nan 0 10111 11111111 110110 1100000 0 110110 1100000 0 1101101011 1010111001 1011101011 1111101011 10000101100 1100100110 1100010010 1100100011 1100010000 24.750 47.753 999.54 185138 21 7 10 58 52 4 $GNGGA,124026.00,,,,,0,00,16.6,,,,,,*4A
184 12 40 27 Nan Nan Nan 0 10111 11111111 110110 1100000 0 110110 1100000 0 1101101011 1010110110 1011101010 1111101110 10000101101 1100101000 1100010001 1100011101 1100001101 24.750 47.753 999.54 186137 21 7 11 60 51 3 $GNGGA,124027.00,,,,,0,00,16.6,,,,,,*4B
185 12 40 28 Nan Nan Nan 0 10111 11111111 110110 1100000 0 110110 1110111 11111111 1101101011 1010110111 1011101100 1111101101 10000101100 1100101000 1100011000 1100100111 1100010001 24.750 47.745 999.55 187137 20 8 12 59 51 3 $GNGGA,124028.00,,,,,0,00,16.6,,,,,,*44
186 12 40 29 Nan Nan Nan 0 10111 11111111 110110 1100000 0 110110 1100000 0 1101101011 1010110111 1011101110 1111101000 10000101010 1100101100 1100011011 1100101000 1100001011 24.750 47.753 999.54 188135 22 7 10 60 50 4 $GNGGA,124029.00,,,,,0,00,16.6,,,,,,*45
187 12 40 30 Nan Nan Nan 0 10111 11111111 110110 1100000 0 110110 1110111 11111111 1101101011 1010110111 1011101110 1111101010 10000101010 1100101001 1100011011 1100101110 1100011000 24.750 47.829 999.54 189133 21 7 12 59 51 3 $GNGGA,124030.00,,,,,0,00,16.6,,,,,,*4D
188 12 40 31 Nan Nan Nan 0 10111 11111111 110110 1100000 0 110110 1110111 11111111 1101101011 1010111101 1011101111 1111100110 10000101001 1100101100 1100011100 1100101001 1100010111 24.750 47.883 999.54 190131 21 7 11 59 52 3 $GNGGA,124031.00,,,,,0,00,16.6,,,,,,*4C
189 12 40 32 Nan Nan Nan 0 10111 11111111 110110 1100000 0 110110 1110111 11111111 1101101011 1010110110 1011101011 1111101001 10000101011 1100101000 1100011001 1100100000 1100010001 24.750 47.913 999.54 191131 23 7 10 59 51 4 $GNGGA,124032.00,,,,,0,00,16.6,,,,,,*4F
190 12 40 33 Nan Nan Nan 0 10111 11111111 110110 1110111 11111111 110110 1100000 0 1101101011 1010110101 1011101011 1111101100 10000101011 1100101010 1100011010 1100100011 1100001111 24.750 47.883 999.54 192131 21 8 11 59 51 4 $GNGGA,124033.00,,,,,0,00,16.6,,,,,,*4E
191 12 40 34 Nan Nan Nan 0 10111 11111111 110110 1100000 0 110110 1100000 0 1101101010 1010111011 1011101111 1111110100 10000101101 1100101000 1100010101 1100100011 1100010000 24.750 47.860 999.54 193129 22 7 10 60 50 4 $GNGGA,124034.00,,,,,0,00,16.6,,,,,,*49
192 12 40 35 Nan Nan Nan 0 10111 11111111 110110 1110111 11111111 110110 1110111 11111111 1101101011 1010110110 1011101010 1111110000 10000101101 1100101010 1100011001 1100100101 1100010011 24.688 47.837 999.54 194128 21 7 12 59 51 3 $GNGGA,124035.00,,,,,0,00,16.6,,,,,,*48
193 12 40 36 Nan Nan Nan 0 10111 11111111 110110 1100000 0 110110 1110111 11111111 1101101011 1010111001 1011101110 1111101101 10000101100 1100101001 1100010010 1100100100 1100001101 24.750 47.799 999.54 195128 20 7 11 59 52 3 $GNGGA,124036.00,,,,,0,00,16.6,,,,,,*4B
194 12 40 37 Nan Nan Nan 0 10111 11111111 110110 1100000 0 110110 1100000 0 1101101011 1010110111 1011101100 1111101110 10000101100 1100101010 1100010110 1100101000 1100010001 24.750 47.730 999.54 196126 22 7 10 59 50 4 $GNGGA,124037.00,,,,,0,00,16.6,,,,,,*4A
