id HH MM SS longitude latitude altitude adc_1_ch0 adc_1_ch1 adc_1_ch2 adc_1_ch3 adc_1_ch4 adc_1_ch5 adc_1_ch6 adc_1_ch7 adc_1_ch8 adc_2_ch0 adc_2_ch1 adc_2_ch2 adc_2_ch3 adc_2_ch4 adc_2_ch5 adc_2_ch6 adc_2_ch7 adc_2_ch8 temp hum pres t_prog t_gps t_split t_adc t_temp t_hum t_pres trame_gga
1 12 43 19 Nan Nan Nan 110110 1110111 11111111 110110 1100000 0 110110 1110111 11111111 1101101011 1010110110 1011110011 1111011110 10000101101 1100110011 1100011010 1100100100 1100010001 24.750 47.265 795.83 2444 21 7 11 59 52 3 $GNGGA,124319.00,,,,,0,00,16.0,,,,,,*43
2 12 43 20 Nan Nan Nan 0 10111 11111111 110110 1100000 0 110110 1100000 0 1101101011 1010111000 1011101110 1111100010 10000101011 1100101010 1100010110 1100101010 1100011100 24.750 47.272 999.52 3442 21 7 11 60 50 4 $GNGGA,124320.00,,,,,0,00,16.0,,,,,,*49
3 12 43 21 Nan Nan Nan 0 10111 11111111 110110 1100000 0 110110 1100000 0 1101101010 1010111010 1011101101 1111011111 10000101011 1100101011 1100010110 1100100010 1100011001 24.813 47.234 999.52 4441 21 8 10 58 51 5 $GNGGA,124321.00,,,,,0,00,16.0,,,,,,*48
4 12 43 22 Nan Nan Nan 0 10111 11111111 110110 1100000 0 110110 1100000 0 1101101011 1010110110 1011101110 1111101000 10000101100 1100101110 1100011000 1100011101 1100001101 24.688 47.211 999.51 5440 22 7 10 59 51 4 $GNGGA,124322.00,,,,,0,00,16.0,,,,,,*4B
5 12 43 23 Nan Nan Nan 0 10111 11111111 110110 1110111 11111111 110110 1100000 0 1101101011 1010110001 1011101011 1111100100 10000101011 1100101010 1100010110 1100011101 1100010000 24.750 47.204 999.51 6439 21 7 12 59 51 3 $GNGGA,124323.00,,,,,0,00,16.0,,,,,,*4A
6 12 43 24 Nan Nan Nan 0 10111 11111111 110110 1100000 0 110110 1100000 0 1101101011 1010110000 1011101010 1111100111 10000101101 1100101110 1100010100 1100011111 1100010000 24.688 47.226 999.50 7438 22 7 10 58 52 4 $GNGGA,124324.00,,,,,0,00,16.0,,,,,,*4D
7 12 43 25 Nan Nan Nan 0 10111 11111111 110110 1110111 11111111 110110 1100000 0 1101101011 1010110110 1011101111 1111100100 10000101010 1100101101 1100010111 1100100100 1100010001 24.750 47.272 999.50 8436 22 6 11 59 50 4 $GNGGA,124325.00,,,,,0,00,16.0,,,,,,*4C
8 12 43 26 Nan Nan Nan 0 10111 11111111 110110 1100000 0 110110 1100000 0 1101101011 1010110101 1011101110 1111011111 10000101011 1100101001 1100011001 1100100101 1100010100 24.750 47.280 999.51 9436 20 6 11 59 51 4 $GNGGA,124326.00,,,,,0,00,16.0,,,,,,*4F
9 12 43 27 4333.6942600128.74504126.3ó 00128.74504 126.3 0 10111 11111111 110110 1110111 11111111 110110 1110111 11111111 1101101011 1010110101 1011101101 1111100000 10000101100 1100101100 1100010110 1100100110 1100010111 24.750 47.288 999.50 10446 21 15 14 59 50 4 $GNGGA,124327.00,4333.69426,N,00128.74504,E,1,05,1.72,126.3,M,53.8,M,,*4B
10 12 43 28 4333.6947000128.74507126.6ó 00128.74507 126.6 0 10111 11111111 110110 1110111 11111111 110110 1100000 0 1101101011 1010110111 1011101101 1111100011 10000101100 1100101001 1100010101 1100101010 1100000111 24.750 47.257 999.50 11445 22 15 13 59 51 4 $GNGGA,124328.00,4333.69470,N,00128.74507,E,1,05,1.72,126.6,M,53.8,M,,*41
11 12 43 29 4333.6947400128.74493127.0ó 00128.74493 127.0 0 10111 11111111 110110 1110111 11111111 110110 1110111 11111111 1101101011 1010110100 1011101101 1111100000 10000101100 1100101100 1100011000 1100100111 1100010111 24.750 47.242 999.51 12443 22 14 14 60 51 3 $GNGGA,124329.00,4333.69474,N,00128.74493,E,1,05,1.72,127.0,M,53.8,M,,*4F
12 12 43 30 4333.6951000128.74419127.2ó 00128.74419 127.2 0 10111 11111111 110110 1110111 11111111 110110 1100000 0 1101101011 1010110101 1011101100 1111100010 10000101100 1100101100 1100010100 1100100000 1100010011 24.750 47.234 999.51 13443 21 15 13 59 50 5 $GNGGA,124330.00,4333.69510,N,00128.74419,E,1,05,1.72,127.2,M,53.8,M,,*44
13 12 43 31 4333.6955100128.74347127.5ó 00128.74347 127.5 0 10111 11111111 110110 1100000 0 110110 1100000 0 1101101011 1010110100 1011101010 1111101010 10000101111 1100101101 1100010101 1100101001 1100010110 24.750 47.257 999.52 14443 22 15 14 60 51 3 $GNGGA,124331.00,4333.69551,N,00128.74347,E,1,05,1.72,127.5,M,53.8,M,,*4B
14 12 43 32 4333.6962000128.74250127.7ó 00128.74250 127.7 0 10111 11111111 110110 1100000 0 110110 1100000 0 1101101011 1010111000 1011110000 1111011101 10000101011 1100101100 1100010111 1100100111 1100010011 24.750 47.272 999.53 15441 20 15 15 59 51 3 $GNGGA,124332.00,4333.69620,N,00128.74250,E,1,05,1.72,127.7,M,53.8,M,,*48
15 12 43 33 4333.6959700128.74200128.1ó 00128.74200 128.1 0 10111 11111111 110110 1110111 11111111 110110 1110111 11111111 1101101011 1010111010 1011101111 1111101000 10000101110 1100101110 1100011010 1100101011 1100010100 24.750 47.310 999.52 16440 22 16 14 59 52 3 $GNGGA,124333.00,4333.69597,N,00128.74200,E,1,05,1.72,128.1,M,53.8,M,,*4A
16 12 43 34 4333.6955800128.74170128.5ó 00128.74170 128.5 0 10111 11111111 110110 1100000 0 110110 1110111 11111111 1101101011 1010111001 1011101100 1111100111 10000101101 1100110000 1100011011 1100101011 1100001111 24.750 47.341 999.51 17438 22 14 13 59 50 4 $GNGGA,124334.00,4333.69558,N,00128.74170,E,1,05,1.72,128.5,M,53.8,M,,*4E
17 12 43 35 Nan Nan Nan 0 10111 11111111 110110 1100000 0 110110 1100000 0 1101101011 1010111110 1011101111 1111101001 10000101101 1100101100 1100010111 1100101010 1100011101 24.750 47.356 999.51 18426 21 7 12 59 51 3 $GNGGA,124335.00,,,,,0,00,16.0,,,,,,*4D
18 12 43 36 4333.6961000128.74208128.8ó 00128.74208 128.8 0 10111 11111111 110110 1110111 11111111 110110 1110111 11111111 1101101011 1010111011 1011101100 1111110010 10000101101 1100101110 1100011101 1100100101 1100010110 24.813 47.349 999.50 19437 22 15 14 60 50 4 $GNGGA,124336.00,4333.69610,N,00128.74208,E,1,05,1.72,128.8,M,53.8,M,,*42
19 12 43 37 4333.6955200128.74374129.0ó 00128.74374 129.0 0 10111 11111111 110110 1110111 11111111 110110 1110111 11111111 1101101011 1010111011 1011101111 1111111000 10000101100 1100101011 1100010110 1100100110 1100010000 24.750 47.333 999.49 20435 20 15 15 59 51 3 $GNGGA,124337.00,4333.69552,N,00128.74374,E,1,05,1.72,129.0,M,53.8,M,,*45
20 12 43 38 4333.6953600128.74498129.2ó 00128.74498 129.2 0 10111 11111111 110110 1110111 11111111 110110 1110111 11111111 1101101011 1010111000 1011101101 1111110110 10000101110 1100101001 1100010110 1100100110 1100010100 24.750 47.280 999.50 21435 22 15 14 60 51 3 $GNGGA,124338.00,4333.69536,N,00128.74498,E,1,05,1.72,129.2,M,53.8,M,,*4F
21 12 43 39 4333.6956200128.74411129.4ó 00128.74411 129.4 0 10111 11111111 110110 1100000 0 110110 1110111 11111111 1101101011 1010111001 1011101111 1111110111 10000101101 1100101010 1100010010 1100101010 1100011000 24.750 47.211 999.50 22433 21 14 14 59 50 4 $GNGGA,124339.00,4333.69562,N,00128.74411,E,1,05,1.72,129.4,M,53.8,M,,*48
22 12 43 40 4333.6954000128.74418129.6ó 00128.74418 129.6 0 10111 11111111 110110 1100000 0 110110 1110111 11111111 1101101011 1010110101 1011101111 1111101110 10000101010 1100101000 1100010110 1100100010 1100010000 24.750 47.173 999.50 23432 21 16 13 59 51 4 $GNGGA,124340.00,4333.69540,N,00128.74418,E,1,05,1.72,129.6,M,53.8,M,,*4D
23 12 43 41 4333.6953400128.74443129.9ó 00128.74443 129.9 0 10111 11111111 110110 1100000 0 110110 1110111 11111111 1101101011 1010110110 1011101101 1111101101 10000101100 1100101101 1100011000 1100100011 1100010010 24.750 47.150 999.50 24431 22 14 13 59 51 4 $GNGGA,124341.00,4333.69534,N,00128.74443,E,1,05,1.72,129.9,M,53.8,M,,*4E
24 12 43 42 4333.6948100128.74528130.0ó 00128.74528 130.0 0 10111 11111111 110110 1100000 0 110110 1100000 0 1101101011 1010111010 1011110000 10000000001 10000110011 1100101110 1100011000 1100101001 1100010101 24.750 47.150 999.49 25431 21 15 14 58 51 4 $GNGGA,124342.00,4333.69481,N,00128.74528,E,1,05,1.72,130.0,M,53.8,M,,*4F
25 12 43 43 4333.6946300128.74483130.3ó 00128.74483 130.3 0 10111 11111111 110110 1110111 11111111 110110 1110111 11111111 1101101011 1010111000 1011110001 1111110111 10000101111 1100101111 1100011001 1100101111 1100010111 24.750 47.188 999.49 26429 22 14 13 59 51 4 $GNGGA,124343.00,4333.69463,N,00128.74483,E,1,05,1.72,130.3,M,53.8,M,,*41
26 12 43 44 4333.6946900128.74283130.6ó 00128.74283 130.6 0 10111 11111111 110110 1110111 11111111 110110 1110111 11111111 1101101101 1011000100 1011101101 1111110111 10000101100 1100110001 1100011111 1100101101 1100011101 24.750 47.295 999.49 27429 22 14 14 59 50 4 $GNGGA,124344.00,4333.69469,N,00128.74283,E,1,05,1.72,130.6,M,53.8,M,,*4F
27 12 43 45 Nan Nan Nan 0 10111 11111111 110110 1100000 0 110110 1110111 11111111 1101101111 1011011001 1011101111 10000001111 10000101110 1100100111 1100010010 1100100000 1100010000 24.750 47.402 999.50 28418 21 8 12 59 51 3 $GNGGA,124345.00,,,,,0,00,15.9,,,,,,*40
28 12 43 46 4333.6951800128.74356130.1ó 00128.74356 130.1 0 10111 11111111 110110 1100000 0 110110 1100000 0 1101110001 1011101000 1011101011 10000101110 10000101101 1100100101 1100010011 1100101101 1100010100 24.750 47.478 999.51 29427 22 15 13 60 50 4 $GNGGA,124346.00,4333.69518,N,00128.74356,E,1,03,4.95,130.1,M,53.8,M,,*4E
29 12 43 47 4333.6949300128.74243130.3ó 00128.74243 130.3 0 10111 11111111 110110 1100000 0 110110 1100000 0 1101110011 1011111000 1011101101 10001011010 10000101100 1100011101 1100010000 1100100100 1100001111 24.750 47.532 999.51 30424 20 16 15 59 51 3 $GNGGA,124347.00,4333.69493,N,00128.74243,E,1,04,4.47,130.3,M,53.8,M,,*42
30 12 43 48 4333.6945900128.74135130.6ó 00128.74135 130.6 0 10111 11111111 110110 1110111 11111111 110110 1110111 11111111 1101110101 1100000100 1011101110 10001111101 10000101101 1100100000 1100010110 1100101010 1100010010 24.750 47.555 999.50 31424 21 15 14 60 51 3 $GNGGA,124348.00,4333.69459,N,00128.74135,E,1,04,4.47,130.6,M,53.8,M,,*4C
31 12 43 49 4333.6943500128.74038131.0ó 00128.74038 131.0 0 10111 11111111 110110 1110111 11111111 110110 1110111 11111111 1101110101 1100010010 1011110000 10010100100 10000101100 1100010100 1100010011 1100101011 1100010100 24.750 47.516 999.50 32423 21 14 14 58 51 4 $GNGGA,124349.00,4333.69435,N,00128.74038,E,1,04,4.47,131.0,M,53.8,M,,*4C
32 12 43 50 4333.6938700128.73924131.2ó 00128.73924 131.2 0 10111 11111111 110110 1110111 11111111 110110 1110111 11111111 1101110101 1100010011 1011110001 10011001111 10000101110 1100011000 1100011100 1100110001 1100001111 24.750 47.478 999.49 33422 22 14 14 59 52 3 $GNGGA,124350.00,4333.69387,N,00128.73924,E,1,04,4.47,131.2,M,53.8,M,,*4B
33 12 43 51 4333.6937700128.73786131.4ó 00128.73786 131.4 0 10111 11111111 110110 1100000 0 110110 1100000 0 1101110101 1100010110 1011101111 10011100011 10000101101 1100010111 1100011011 1100101100 1100010101 24.750 47.440 999.49 34421 20 15 15 59 51 3 $GNGGA,124351.00,4333.69377,N,00128.73786,E,1,04,4.47,131.4,M,53.8,M,,*45
34 12 43 52 4333.6938700128.73675131.6ó 00128.73675 131.6 0 10111 11111111 110110 1110111 11111111 110110 1100000 0 1101110100 1100010101 1011110000 10011111100 10000101101 1100010010 1100011100 1100101001 1100001110 24.750 47.432 999.48 35421 21 16 14 59 52 3 $GNGGA,124352.00,4333.69387,N,00128.73675,E,1,04,4.47,131.6,M,53.8,M,,*46
35 12 43 53 4333.6936700128.73650131.9ó 00128.73650 131.9 0 10111 11111111 110110 1110111 11111111 110110 1100000 0 1101110101 1100001101 1011101010 10100001011 10000110000 1100001100 1100010111 1100110110 1100010110 24.750 47.478 999.49 36419 22 14 13 59 51 4 $GNGGA,124353.00,4333.69367,N,00128.73650,E,1,04,4.47,131.9,M,53.8,M,,*41
36 12 43 54 4333.6940600128.73501132.1ó 00128.73501 132.1 0 10111 11111111 110110 1110111 11111111 110110 1110111 11111111 1101110110 1100001111 1011101110 10100010011 10000110001 1100001010 1100010001 1100101100 1100001111 24.750 47.516 999.50 37419 21 16 15 59 51 3 $GNGGA,124354.00,4333.69406,N,00128.73501,E,1,04,4.47,132.1,M,53.8,M,,*4A
37 12 43 55 4333.6940600128.73467132.4ó 00128.73467 132.4 0 10111 11111111 110110 1110111 11111111 110110 1100000 0 1101110110 1100001001 1011110001 10100011010 10000110011 1100010001 1100011101 1100101111 1100010101 24.750 47.539 999.50 38417 22 14 13 59 51 4 $GNGGA,124355.00,4333.69406,N,00128.73467,E,1,04,4.47,132.4,M,53.8,M,,*4F
38 12 43 56 4333.6918600128.73802133.2ó 00128.73802 133.2 0 10111 11111111 110110 1110111 11111111 110110 1100000 0 1101110101 1100000011 1011110001 10100010100 10000110110 1100001110 1100011100 1100110111 1100011000 24.750 47.577 999.50 39417 21 15 15 59 50 4 $GNGGA,124356.00,4333.69186,N,00128.73802,E,1,05,1.72,133.2,M,53.8,M,,*4B
39 12 43 57 4333.6906900128.73819133.7ó 00128.73819 133.7 0 10111 11111111 110110 1110111 11111111 110110 1110111 11111111 1101111001 1011110110 1011101111 10100001101 10000110110 1100001101 1100010000 1100110101 1100010010 24.750 47.608 999.50 40416 22 16 14 59 52 3 $GNGGA,124357.00,4333.69069,N,00128.73819,E,1,05,1.72,133.7,M,53.8,M,,*45
40 12 43 58 4333.6904000128.73758133.9ó 00128.73758 133.9 0 10111 11111111 110110 1110111 11111111 110110 1100000 0 1101111000 1011110000 1011101111 10011111000 10000110011 1100010000 1100010110 1100111000 1100010101 24.813 47.623 999.49 41412 23 14 13 60 50 4 $GNGGA,124358.00,4333.69040,N,00128.73758,E,1,04,4.47,133.9,M,53.8,M,,*47
41 12 43 59 4333.6895800128.73860134.5ó 00128.73860 134.5 0 10111 11111111 110110 1110111 11111111 110110 1110111 11111111 1101111000 1011101000 1011101111 10011010101 10000110001 1100010111 1100011000 1100101110 1100001001 24.750 47.638 999.50 42415 21 16 13 59 50 5 $GNGGA,124359.00,4333.68958,N,00128.73860,E,1,06,1.28,134.5,M,53.8,M,,*46
42 12 44 00 4333.6887800128.73951135.2ó 00128.73951 135.2 0 10111 11111111 110110 1110111 11111111 110110 1110111 11111111 1101110111 1011100001 1011101110 10011010000 10000110101 1100010000 1100010100 1100110100 1100001001 24.813 47.638 999.49 43413 22 14 13 59 51 4 $GNGGA,124400.00,4333.68878,N,00128.73951,E,1,06,1.28,135.2,M,53.8,M,,*4B
43 12 44 01 4333.6885500128.73887135.8ó 00128.73887 135.8 0 10111 11111111 110110 1110111 11111111 110110 1100000 0 1101111010 1011100001 1011101110 10010110111 10000110101 1100011010 1100011010 1100110110 1100010111 24.750 47.585 999.49 44412 20 15 15 59 51 3 $GNGGA,124401.00,4333.68855,N,00128.73887,E,1,05,1.72,135.8,M,53.8,M,,*49
44 12 44 02 4333.6884100128.73798136.4ó 00128.73798 136.4 0 10111 11111111 110110 1100000 0 110110 1100000 0 1101111001 1011011110 1011101110 10010011101 10000110010 1100010111 1100011001 1100111111 1100010011 24.750 47.501 999.50 45412 22 16 13 60 50 4 $GNGGA,124402.00,4333.68841,N,00128.73798,E,1,05,1.72,136.4,M,53.8,M,,*41
45 12 44 03 4333.6883200128.73800137.0ó 00128.73800 137.0 0 10111 11111111 110110 1100000 0 110110 1100000 0 1101111001 1011011111 1011110001 10010010111 10000110110 1100010110 1100010011 1100111111 1100010110 24.750 47.417 999.50 46408 22 14 13 60 50 4 $GNGGA,124403.00,4333.68832,N,00128.73800,E,1,04,2.39,137.0,M,53.8,M,,*42
46 12 44 04 4333.6875900128.73883137.4ó 00128.73883 137.4 0 10111 11111111 110110 1110111 11111111 110110 1110111 11111111 1101110110 1011011010 1011101110 10010000110 10000110100 1100011100 1100010111 1101000000 1100011000 24.750 47.349 999.50 47409 21 16 14 59 52 3 $GNGGA,124404.00,4333.68759,N,00128.73883,E,1,05,1.72,137.4,M,53.8,M,,*45
47 12 44 05 4333.6875700128.73855137.8ó 00128.73855 137.8 0 10111 11111111 110110 1110111 11111111 110110 1100000 0 1101111000 1011011010 1011110001 10010000010 10000110101 1100011111 1100010110 1100110011 1100001110 24.750 47.310 999.49 48407 22 14 13 59 51 4 $GNGGA,124405.00,4333.68757,N,00128.73855,E,1,05,1.72,137.8,M,53.8,M,,*4D
48 12 44 06 4333.6868100128.73972138.3ó 00128.73972 138.3 0 10111 11111111 110110 1100000 0 110110 1110111 11111111 1101111000 1011011001 1011110000 10001110010 10000110100 1100011111 1100011000 1100111110 1100010000 24.750 47.318 999.49 49406 21 15 15 59 51 3 $GNGGA,124406.00,4333.68681,N,00128.73972,E,1,05,1.72,138.3,M,53.8,M,,*44
49 12 44 07 4333.6866800128.73890138.8ó 00128.73890 138.8 0 10111 11111111 110110 1110111 11111111 110110 1110111 11111111 1101110110 1011010011 1011101011 10001100110 10000110000 1100011010 1100011000 1100110011 1100001011 24.813 47.280 999.48 50406 22 15 14 60 51 3 $GNGGA,124407.00,4333.68668,N,00128.73890,E,1,05,1.72,138.8,M,53.8,M,,*44
50 12 44 08 4333.6859500128.73923139.2ó 00128.73923 139.2 0 10111 11111111 110110 1110111 11111111 110110 1100000 0 1101111000 1011010111 1011101101 10001101110 10000110010 1100011011 1100010110 1100101111 1100010000 24.750 47.181 999.48 51404 21 14 15 59 51 3 $GNGGA,124408.00,4333.68595,N,00128.73923,E,1,05,1.72,139.2,M,53.8,M,,*48
51 12 44 09 4333.6861700128.73875139.6ó 00128.73875 139.6 0 10111 11111111 110110 1110111 11111111 110110 1110111 11111111 1101110111 1011011000 1011101110 10001110000 10000110010 1100011000 1100010010 1100110000 1100001000 24.750 47.104 999.49 52401 22 15 13 59 51 4 $GNGGA,124409.00,4333.68617,N,00128.73875,E,1,05,1.72,139.6,M,53.8,M,,*46
52 12 44 10 4333.6859300128.73969140.0ó 00128.73969 140.0 0 10111 11111111 110110 1110111 11111111 110110 1110111 11111111 1101110111 1011001011 1011110000 10001101100 10000110011 1100011110 1100011000 1100111011 1100010100 24.750 47.013 999.48 53402 22 14 13 59 51 4 $GNGGA,124410.00,4333.68593,N,00128.73969,E,1,05,1.72,140.0,M,53.8,M,,*45
53 12 44 11 4333.6858800128.74026140.4ó 00128.74026 140.4 0 10111 11111111 110110 1110111 11111111 110110 1100000 0 1101110110 1010110111 1011101111 10001100001 10000110111 1100011101 1100011000 1100110110 1100001111 24.813 46.845 999.48 54402 21 16 15 59 51 3 $GNGGA,124411.00,4333.68588,N,00128.74026,E,1,05,1.72,140.4,M,53.8,M,,*4F
54 12 44 12 4333.6866500128.73951140.8ó 00128.73951 140.8 0 10111 11111111 110110 1100000 0 110110 1100000 0 1101110110 1010101100 1011110100 10000111111 10000110100 1100011111 1100011010 1100110101 1100001110 24.750 46.807 999.47 55401 21 15 14 60 51 3 $GNGGA,124412.00,4333.68665,N,00128.73951,E,1,05,1.72,140.8,M,53.8,M,,*4E
55 12 44 13 4333.6864300128.74014141.1ó 00128.74014 141.1 0 10111 11111111 110110 1110111 11111111 110110 1110111 11111111 1101110101 1010011011 1011110001 10000100010 10000110101 1100101100 1100011011 1100110011 1100000110 24.750 46.792 999.49 56399 21 14 14 58 51 4 $GNGGA,124413.00,4333.68643,N,00128.74014,E,1,05,1.72,141.1,M,53.8,M,,*4C
56 12 44 14 4333.6866900128.73990141.5ó 00128.73990 141.5 0 10111 11111111 110110 1110111 11111111 110110 1100000 0 1101110101 1010010110 1011110000 1111110010 10000110101 1100101110 1100011010 1100110010 1100001011 24.750 46.746 999.49 57399 21 16 14 59 52 3 $GNGGA,124414.00,4333.68669,N,00128.73990,E,1,05,1.72,141.5,M,53.8,M,,*45
57 12 44 15 4333.6867000128.73997141.8ó 00128.73997 141.8 0 10111 11111111 110110 1110111 11111111 110110 1110111 11111111 1101110100 1010001111 1011101110 1111010101 10000110101 1100101110 1100011011 1100110110 1100010110 24.750 46.608 999.50 58397 22 14 13 59 51 4 $GNGGA,124415.00,4333.68670,N,00128.73997,E,1,05,1.72,141.8,M,53.8,M,,*46
58 12 44 16 4333.6870000128.73893142.1ó 00128.73893 142.1 0 10111 11111111 110110 1100000 0 110110 1110111 11111111 1101110100 1010010001 1011110000 1110111001 10000110110 1100101110 1100010111 1100110000 1100010011 24.750 46.624 999.49 59395 21 15 13 58 51 5 $GNGGA,124416.00,4333.68700,N,00128.73893,E,1,05,1.72,142.1,M,53.8,M,,*4C
59 12 44 17 4333.6867100128.73897142.4ó 00128.73897 142.4 0 10111 11111111 110110 1110111 11111111 110110 1110111 11111111 1101110100 1010010001 1011101101 1110100101 10000110011 1100111010 1100011111 1100101110 1100010000 24.750 46.708 999.49 60395 22 14 13 59 51 4 $GNGGA,124417.00,4333.68671,N,00128.73897,E,1,05,1.72,142.4,M,53.8,M,,*4B
60 12 44 18 4333.6867900128.73915142.7ó 00128.73915 142.7 0 10111 11111111 110110 1110111 11111111 110110 1110111 11111111 1101110011 1010010010 1011110010 1110011011 10000110001 1100111000 1100011111 1100110000 1100001000 24.750 46.746 999.49 61394 22 14 14 59 50 4 $GNGGA,124418.00,4333.68679,N,00128.73915,E,1,05,1.72,142.7,M,53.8,M,,*44
61 12 44 19 4333.6871600128.73857142.9ó 00128.73857 142.9 0 10111 11111111 110110 1100000 0 110110 1110111 11111111 1101110011 1010010100 1011101101 1110010101 10000110010 1100111111 1100100001 1100101100 1100010010 24.813 46.685 999.49 62394 22 15 14 60 51 3 $GNGGA,124419.00,4333.68716,N,00128.73857,E,1,05,1.72,142.9,M,53.8,M,,*44
62 12 44 20 4333.6880500128.73809143.1ó 00128.73809 143.1 0 10111 11111111 110110 1110111 11111111 110110 1100000 0 1101110010 1010011010 1011110011 1110011000 10000111000 1101000010 1100011111 1100101001 1100001110 24.688 46.662 999.48 63391 21 14 15 59 51 3 $GNGGA,124420.00,4333.68805,N,00128.73809,E,1,05,1.72,143.1,M,53.8,M,,*41
63 12 44 21 4333.6887100128.73714143.2ó 00128.73714 143.2 0 10111 11111111 110110 1100000 0 110110 1110111 11111111 1101110010 1010011001 1011110000 1110001111 10000110101 1101000111 1100100001 1100101100 1100001110 24.688 46.654 999.48 64392 21 16 14 59 52 3 $GNGGA,124421.00,4333.68871,N,00128.73714,E,1,05,1.72,143.2,M,53.8,M,,*43
64 12 44 22 4333.6887700128.73826143.3ó 00128.73826 143.3 0 10111 11111111 110110 1100000 0 110110 1100000 0 1101110101 1010101001 1011110000 1110010111 10000110011 1101000000 1100100000 1100101111 1100011001 24.688 46.486 999.48 65390 21 15 14 60 51 3 $GNGGA,124422.00,4333.68877,N,00128.73826,E,1,05,1.72,143.3,M,53.8,M,,*49
65 12 44 23 4333.6893900128.73762143.4ó 00128.73762 143.4 0 10111 11111111 110110 1110111 11111111 110110 1110111 11111111 1101110100 1010111101 1011101111 1110100111 10000110000 1100111011 1100011110 1100101010 1100001101 24.750 46.258 999.49 66390 21 16 14 59 50 4 $GNGGA,124423.00,4333.68939,N,00128.73762,E,1,05,1.72,143.4,M,53.8,M,,*4B
66 12 44 24 4333.6892900128.73709143.6ó 00128.73709 143.6 0 10111 11111111 110110 1110111 11111111 110110 1110111 11111111 1101110001 1011001011 1011110000 1111000001 10000110010 1100111111 1100100001 1100101110 1100011000 24.813 46.418 999.49 67388 22 15 14 60 51 3 $GNGGA,124424.00,4333.68929,N,00128.73709,E,1,04,4.47,143.6,M,53.8,M,,*40
67 12 44 25 4333.6893300128.73743143.7ó 00128.73743 143.7 0 10111 11111111 110110 1110111 11111111 110110 1100000 0 1101110111 1011010110 1011101110 1111011011 10000110000 1100111000 1100100100 1100101111 1100010110 24.688 46.670 999.49 68386 21 14 14 59 50 4 $GNGGA,124425.00,4333.68933,N,00128.73743,E,1,05,1.72,143.7,M,53.8,M,,*47
68 12 44 26 4333.6891700128.73803143.8ó 00128.73803 143.8 0 10111 11111111 110110 1110111 11111111 110110 1110111 11111111 1101111001 1011011111 1011110010 10000000011 10000110011 1100110100 1100011110 1100101010 1100001110 24.750 46.708 999.48 69386 22 15 13 58 52 4 $GNGGA,124426.00,4333.68917,N,00128.73803,E,1,05,1.72,143.8,M,53.8,M,,*46
69 12 44 27 4333.6889900128.73839143.9ó 00128.73839 143.9 0 10111 11111111 110110 1110111 11111111 110110 1100000 0 1101111000 1011100100 1011101111 10000011101 10000101100 1100110001 1100100010 1100101110 1100001111 24.750 46.647 999.48 70383 22 15 14 60 51 3 $GNGGA,124427.00,4333.68899,N,00128.73839,E,1,05,1.72,143.9,M,53.8,M,,*48
70 12 44 28 4333.6891000128.73844144.0ó 00128.73844 144.0 0 10111 11111111 110110 1110111 11111111 110110 1110111 11111111 1101110111 1011100110 1011101101 10000111110 10000110001 1100100111 1100010110 1100101010 1100010100 24.750 46.586 999.48 71385 21 16 14 59 51 4 $GNGGA,124428.00,4333.68910,N,00128.73844,E,1,05,1.72,144.0,M,53.8,M,,*43
71 12 44 29 4333.6880700128.73948144.2ó 00128.73948 144.2 0 10111 11111111 110110 1100000 0 110110 1110111 11111111 1101110111 1011100100 1011101111 10001011010 10000101111 1100100111 1100011111 1100101011 1100001111 24.688 46.273 999.48 72384 22 15 14 60 51 3 $GNGGA,124429.00,4333.68807,N,00128.73948,E,1,05,1.72,144.2,M,53.8,M,,*4A
72 12 44 30 4333.6883700128.73874144.4ó 00128.73874 144.4 0 10111 11111111 110110 1110111 11111111 110110 1110111 11111111 1101110110 1011011100 1011101111 10001101010 10000110000 1100100010 1100011101 1100101010 1100010100 24.750 46.067 999.48 73382 22 15 14 59 50 4 $GNGGA,124430.00,4333.68837,N,00128.73874,E,1,05,1.72,144.4,M,53.8,M,,*49
73 12 44 31 4333.6887800128.73853144.5ó 00128.73853 144.5 0 10111 11111111 110110 1110111 11111111 110110 1110111 11111111 1101110110 1011001101 1011110011 10001101000 10000110010 1100101000 1100011101 1100100110 1100001010 24.813 45.968 999.48 74380 23 15 13 59 51 4 $GNGGA,124431.00,4333.68878,N,00128.73853,E,1,04,4.47,144.5,M,53.8,M,,*45
74 12 44 32 4333.6881800128.73955144.6ó 00128.73955 144.6 0 10111 11111111 110110 1100000 0 110110 1110111 11111111 1101110110 1010110111 1011101101 10001010000 10000110001 1100101100 1100011001 1100101111 1100011010 24.813 45.907 999.48 75379 22 14 13 58 51 4 $GNGGA,124432.00,4333.68818,N,00128.73955,E,1,04,4.47,144.6,M,53.8,M,,*44
75 12 44 33 4333.6890900128.73821144.7ó 00128.73821 144.7 0 10111 11111111 110110 1100000 0 110110 1110111 11111111 1101110101 1010101010 1011101011 10000101001 10000110000 1100110000 1100100000 1100101010 1100001001 24.813 45.922 999.47 76378 21 15 13 58 51 5 $GNGGA,124433.00,4333.68909,N,00128.73821,E,1,04,4.47,144.7,M,53.8,M,,*47
76 12 44 34 4333.6886700128.73928144.8ó 00128.73928 144.8 0 10111 11111111 110110 1110111 11111111 110110 1110111 11111111 1101110101 1010100111 1011110010 10000001001 10000110000 1100101111 1100100000 1100100000 1100000110 24.750 45.975 999.47 77376 23 14 13 60 50 4 $GNGGA,124434.00,4333.68867,N,00128.73928,E,1,04,4.47,144.8,M,53.8,M,,*4E
77 12 44 35 4333.6892700128.73807144.8ó 00128.73807 144.8 0 10111 11111111 110110 1110111 11111111 110110 1110111 11111111 1101110100 1010011010 1011101100 1111101001 10000110010 1100111010 1100100101 1100100111 1100001011 24.813 46.280 999.47 78376 20 15 15 59 50 4 $GNGGA,124435.00,4333.68927,N,00128.73807,E,1,04,4.47,144.8,M,53.8,M,,*46
78 12 44 36 4333.6890900128.73777144.9ó 00128.73777 144.9 0 10111 11111111 110110 1110111 11111111 110110 1100000 0 1101110100 1010011110 1011101110 1111001110 10000110101 1100110100 1100011110 1100101110 1100010100 24.750 46.631 999.47 79375 22 15 14 60 51 3 $GNGGA,124436.00,4333.68909,N,00128.73777,E,1,04,4.47,144.9,M,53.8,M,,*40
79 12 44 37 4333.6878000128.73903145.1ó 00128.73903 145.1 0 10111 11111111 110110 1110111 11111111 110110 1100000 0 1101110011 1010010111 1011101111 1110110111 10000110010 1100110101 1100011100 1100110011 1100011001 24.750 46.822 999.48 80374 22 15 14 59 50 4 $GNGGA,124437.00,4333.68780,N,00128.73903,E,1,04,4.47,145.1,M,53.8,M,,*4A
80 12 44 38 4333.6877700128.73880145.2ó 00128.73880 145.2 0 10111 11111111 110110 1110111 11111111 110110 1100000 0 1101110011 1010011010 1011110010 1110100010 10000101101 1100111100 1100011111 1100100111 1100010101 24.813 46.967 999.48 81371 21 15 13 58 51 5 $GNGGA,124438.00,4333.68777,N,00128.73880,E,1,04,4.47,145.2,M,53.8,M,,*44
81 12 44 39 4333.6887200128.73782145.3ó 00128.73782 145.3 0 10111 11111111 110110 1100000 0 110110 1100000 0 1101110011 1010011100 1011110001 1110010101 10000101101 1100111110 1100011011 1100110000 1100010001 24.750 47.089 999.48 82371 22 14 13 59 51 4 $GNGGA,124439.00,4333.68872,N,00128.73782,E,1,04,4.47,145.3,M,53.8,M,,*43
82 12 44 40 4333.6886300128.73718145.3ó 00128.73718 145.3 0 10111 11111111 110110 1110111 11111111 110110 1100000 0 1101110011 1010011110 1011101101 1110011000 10000110010 1100111110 1100100010 1100101100 1100001101 24.750 46.975 999.49 83371 21 16 15 59 51 3 $GNGGA,124440.00,4333.68863,N,00128.73718,E,1,04,4.47,145.3,M,53.8,M,,*4E
83 12 44 41 4333.6879300128.73769145.5ó 00128.73769 145.5 0 10111 11111111 110110 1110111 11111111 110110 1100000 0 1101110010 1010011101 1011101111 1110010111 10000110010 1101000000 1100011100 1100110000 1100010100 24.750 46.921 999.48 84370 22 15 13 60 50 4 $GNGGA,124441.00,4333.68793,N,00128.73769,E,1,04,4.47,145.5,M,53.8,M,,*4F
84 12 44 42 4333.6885300128.73714145.6ó 00128.73714 145.6 0 10111 11111111 110110 1110111 11111111 110110 1110111 11111111 1101110010 1010011110 1011101111 1110010011 10000110000 1100111010 1100011011 1100101010 1100010110 24.813 46.944 999.48 85368 21 14 14 58 51 4 $GNGGA,124442.00,4333.68853,N,00128.73714,E,1,04,4.47,145.6,M,53.8,M,,*46
85 12 44 43 4333.6888600128.73694145.7ó 00128.73694 145.7 0 10111 11111111 110110 1100000 0 110110 1110111 11111111 1101110010 1010100100 1011101110 1110001011 10000101111 1101000010 1100011110 1100100101 1100010111 24.750 46.967 999.48 86368 22 16 14 59 52 3 $GNGGA,124443.00,4333.68886,N,00128.73694,E,1,04,4.47,145.7,M,53.8,M,,*47
86 12 44 44 4333.6890500128.73625145.8ó 00128.73625 145.8 0 10111 11111111 110110 1110111 11111111 110110 1110111 11111111 1101110010 1010101000 1011110010 1110010100 10000110010 1101000010 1100100001 1100101100 1100010101 24.750 47.059 999.48 87367 21 15 14 60 51 3 $GNGGA,124444.00,4333.68905,N,00128.73625,E,1,04,4.47,145.8,M,53.8,M,,*4F
87 12 44 45 4333.6896600128.73556145.9ó 00128.73556 145.9 0 10111 11111111 110110 1100000 0 110110 1100000 0 1101110001 1010100101 1011101110 1110010011 10000110000 1101000000 1100100010 1100101011 1100001011 24.750 47.135 999.49 88366 21 15 14 59 51 4 $GNGGA,124445.00,4333.68966,N,00128.73556,E,1,04,4.47,145.9,M,53.8,M,,*4D
88 12 44 46 4333.6898300128.73553146.0ó 00128.73553 146.0 0 10111 11111111 110110 1110111 11111111 110110 1110111 11111111 1101110001 1010100101 1011110000 1110010001 10000101111 1100111111 1100100010 1100100100 1100001011 24.750 47.188 999.48 89365 22 14 13 59 51 4 $GNGGA,124446.00,4333.68983,N,00128.73553,E,1,04,4.47,146.0,M,53.8,M,,*4A
89 12 44 47 4333.6894100128.73600146.1ó 00128.73600 146.1 0 10111 11111111 110110 1110111 11111111 110110 1110111 11111111 1101110001 1010100101 1011101110 1110010011 10000101111 1100111010 1100011101 1100100100 1100010100 24.750 47.226 999.48 90363 21 14 14 58 51 4 $GNGGA,124447.00,4333.68941,N,00128.73600,E,1,04,4.47,146.1,M,53.8,M,,*41
90 12 44 48 4333.6890300128.73660146.2ó 00128.73660 146.2 0 10111 11111111 110110 1100000 0 110110 1110111 11111111 1101110000 1010101001 1011101111 1110100011 10000110000 1101000001 1100100100 1100011101 1100001001 24.750 47.242 999.48 91363 22 15 13 58 52 4 $GNGGA,124448.00,4333.68903,N,00128.73660,E,1,04,4.47,146.2,M,53.8,M,,*4D
91 12 44 49 4333.6886000128.73730146.4ó 00128.73730 146.4 0 10111 11111111 110110 1110111 11111111 110110 1100000 0 1101110001 1010101001 1011101111 1110011100 10000101101 1100111010 1100011110 1100011101 1100001000 24.750 47.211 999.48 92360 22 15 14 60 51 3 $GNGGA,124449.00,4333.68860,N,00128.73730,E,1,04,4.47,146.4,M,53.8,M,,*4A
92 12 44 50 4333.6884400128.73791146.6ó 00128.73791 146.6 0 10111 11111111 110110 1100000 0 110110 1110111 11111111 1101110000 1010101010 1011101111 1110100011 10000101111 1100111111 1100100001 1100101100 1100010010 24.750 47.112 999.48 93361 21 15 13 59 51 4 $GNGGA,124450.00,4333.68844,N,00128.73791,E,1,04,4.47,146.6,M,53.8,M,,*4D
93 12 44 51 4333.6877800128.73972146.9ó 00128.73972 146.9 0 10111 11111111 110110 1100000 0 110110 1100000 0 1101110000 1010101011 1011101111 1110100010 10000101110 1101000110 1100100100 1100101100 1100010111 24.813 47.028 999.47 94360 22 15 14 60 51 3 $GNGGA,124451.00,4333.68778,N,00128.73972,E,1,04,4.47,146.9,M,53.8,M,,*40
94 12 44 52 4333.6886500128.73870147.0ó 00128.73870 147.0 0 10111 11111111 110110 1110111 11111111 110110 1100000 0 1101110000 1010101110 1011110000 1110101001 10000101111 1100111100 1100011011 1100100000 1100001011 24.750 46.998 999.47 95358 20 15 15 59 51 3 $GNGGA,124452.00,4333.68865,N,00128.73870,E,1,04,4.47,147.0,M,53.8,M,,*4B
95 12 44 53 4333.6888500128.73892147.2ó 00128.73892 147.2 0 10111 11111111 110110 1110111 11111111 110110 1110111 11111111 1101110000 1010101110 1011110001 1110101001 10000110000 1100111110 1100100001 1100011111 1100010011 24.750 46.998 999.47 96358 23 15 13 60 50 4 $GNGGA,124453.00,4333.68885,N,00128.73892,E,1,04,4.47,147.2,M,53.8,M,,*4A
96 12 44 54 4333.6885200128.73987147.4ó 00128.73987 147.4 0 10111 11111111 110110 1100000 0 110110 1100000 0 1101110000 1010101010 1011101101 1110100100 10000101111 1100111111 1100011111 1100101100 1100010100 24.813 47.005 999.46 97357 21 15 15 59 51 3 $GNGGA,124454.00,4333.68852,N,00128.73987,E,1,04,4.47,147.4,M,53.8,M,,*44
97 12 44 55 4333.6885600128.74070147.6ó 00128.74070 147.6 0 10111 11111111 110110 1100000 0 110110 1110111 11111111 1101110000 1010101001 1011110000 1110101000 10000110001 1101000010 1100100010 1100100101 1100010110 24.750 47.028 999.46 98356 21 15 13 58 52 4 $GNGGA,124455.00,4333.68856,N,00128.74070,E,1,04,4.47,147.6,M,53.8,M,,*45
98 12 44 56 4333.6882600128.74133147.8ó 00128.74133 147.8 0 10111 11111111 110110 1110111 11111111 110110 1110111 11111111 1101110000 1010101000 1011101111 1110100101 10000101111 1100111011 1100011111 1100101000 1100010101 24.750 47.036 999.47 99353 22 15 14 60 51 3 $GNGGA,124456.00,4333.68826,N,00128.74133,E,1,04,4.47,147.8,M,53.8,M,,*49
99 12 44 57 4333.6887200128.74080147.9ó 00128.74080 147.9 0 10111 11111111 110110 1110111 11111111 110110 1110111 11111111 1101110000 1010101010 1011101100 1110100100 10000101111 1101000001 1100100000 1100100000 1100010011 24.813 47.059 999.48 100355 21 15 13 58 51 5 $GNGGA,124457.00,4333.68872,N,00128.74080,E,1,05,1.72,147.9,M,53.8,M,,*43
100 12 44 58 4333.6903100128.73746147.3ó 00128.73746 147.3 0 10111 11111111 110110 1100000 0 110110 1110111 11111111 1101101111 1010110010 1011110001 1110101100 10000110000 1101000001 1100100010 1100101010 1100010100 24.750 47.059 999.48 101354 22 15 14 60 50 4 $GNGGA,124458.00,4333.69031,N,00128.73746,E,1,06,1.28,147.3,M,53.8,M,,*4E
101 12 44 59 4333.6909300128.73705147.2ó 00128.73705 147.2 0 10111 11111111 110110 1110111 11111111 110110 1110111 11111111 1101101111 1010110000 1011110000 1110110100 10000110000 1100111110 1100100000 1100100100 1100010010 24.813 47.059 999.48 102353 21 15 15 59 51 3 $GNGGA,124459.00,4333.69093,N,00128.73705,E,1,06,1.28,147.2,M,53.8,M,,*41
102 12 45 00 4333.6906900128.73751147.3ó 00128.73751 147.3 0 10111 11111111 110110 1110111 11111111 110110 1110111 11111111 1101101111 1010101100 1011101100 1110101011 10000101110 1100111001 1100011101 1100100110 1100010010 24.750 47.051 999.47 103352 22 15 13 58 52 4 $GNGGA,124500.00,4333.69069,N,00128.73751,E,1,06,1.28,147.3,M,53.8,M,,*49
103 12 45 01 4333.6907900128.73822147.4ó 00128.73822 147.4 0 10111 11111111 110110 1100000 0 110110 1110111 11111111 1101101111 1010110110 1011101111 1110101100 10000101110 1100111111 1100100001 1100100001 1100010110 24.813 47.051 999.47 104350 22 14 13 58 51 4 $GNGGA,124501.00,4333.69079,N,00128.73822,E,1,05,1.72,147.4,M,53.8,M,,*49
104 12 45 02 4333.6906800128.73924147.5ó 00128.73924 147.5 0 10111 11111111 110110 1100000 0 110110 1100000 0 1101101111 1010110011 1011101110 1110110000 10000101111 1101000001 1100100001 1100101010 1100011011 24.750 47.059 999.47 105350 21 16 14 59 52 3 $GNGGA,124502.00,4333.69068,N,00128.73924,E,1,05,1.72,147.5,M,53.8,M,,*4C
105 12 45 03 4333.6895200128.74117147.4ó 00128.74117 147.4 0 10111 11111111 110110 1100000 0 110110 1110111 11111111 1101101111 1010110101 1011101111 1110110100 10000110010 1100111111 1100100011 1100101010 1100010100 24.813 47.051 999.48 106349 22 15 14 60 51 3 $GNGGA,124503.00,4333.68952,N,00128.74117,E,1,06,1.28,147.4,M,53.8,M,,*4E
106 12 45 04 4333.6902000128.74041147.4ó 00128.74041 147.4 0 10111 11111111 110110 1100000 0 110110 1110111 11111111 1101101111 1010110100 1011101101 1110110110 10000110000 1100110110 1100011011 1100100001 1100010000 24.813 47.104 999.46 107347 20 15 15 59 51 3 $GNGGA,124504.00,4333.69020,N,00128.74041,E,1,06,1.28,147.4,M,53.8,M,,*46
107 12 45 05 4333.6907100128.73932147.5ó 00128.73932 147.5 0 10111 11111111 110110 1110111 11111111 110110 1100000 0 1101101111 1010110110 1011110000 1110110110 10000101110 1100110101 1100011010 1100100101 1100001110 24.750 47.135 999.47 108347 22 15 14 60 51 3 $GNGGA,124505.00,4333.69071,N,00128.73932,E,1,06,1.28,147.5,M,53.8,M,,*48
108 12 45 06 4333.6906500128.73921147.5ó 00128.73921 147.5 0 10111 11111111 110110 1100000 0 110110 1110111 11111111 1101101111 1010110100 1011101100 1110111001 10000110000 1100111001 1100011000 1100100011 1100010100 24.813 47.120 999.46 109345 21 14 14 58 51 4 $GNGGA,124506.00,4333.69065,N,00128.73921,E,1,06,1.28,147.5,M,53.8,M,,*4C
109 12 45 07 4333.6909100128.73890147.6ó 00128.73890 147.6 0 10111 11111111 110110 1110111 11111111 110110 1110111 11111111 1101101111 1010110011 1011101100 1110111001 10000110010 1100111001 1100100100 1100100111 1100010100 24.750 47.135 999.46 110343 21 15 13 58 52 4 $GNGGA,124507.00,4333.69091,N,00128.73890,E,1,06,1.28,147.6,M,53.8,M,,*4E
110 12 45 08 4333.6912700128.73800147.7ó 00128.73800 147.7 0 10111 11111111 110110 1100000 0 110110 1110111 11111111 1101101111 1010110110 1011101110 1111000010 10000110001 1100111010 1100100010 1100101000 1100010110 24.750 47.143 999.47 111344 22 15 13 60 50 4 $GNGGA,124508.00,4333.69127,N,00128.73800,E,1,06,1.28,147.7,M,53.8,M,,*45
111 12 45 09 4333.6915900128.73702148.0ó 00128.73702 148.0 0 10111 11111111 110110 1100000 0 110110 1110111 11111111 1101101111 1010110101 1011101101 1110111001 10000101111 1100110100 1100011010 1100100010 1100001100 24.750 47.158 999.47 112343 21 16 15 59 51 3 $GNGGA,124509.00,4333.69159,N,00128.73702,E,1,06,1.28,148.0,M,53.8,M,,*48
112 12 45 10 4333.6920100128.73639148.0ó 00128.73639 148.0 0 10111 11111111 110110 1110111 11111111 110110 1100000 0 1101101111 1010111011 1011110001 1111000011 10000110001 1100111011 1100011101 1100100111 1100011000 24.750 47.143 999.47 113342 22 15 13 60 50 4 $GNGGA,124510.00,4333.69201,N,00128.73639,E,1,06,1.28,148.0,M,53.8,M,,*47
113 12 45 11 4333.6926600128.73572148.4ó 00128.73572 148.4 0 10111 11111111 110110 1100000 0 110110 1100000 0 1101101110 1010111000 1011101111 1110110111 10000101110 1100111011 1100100010 1100100111 1100001110 24.750 47.150 999.45 114339 21 14 14 58 51 4 $GNGGA,124511.00,4333.69266,N,00128.73572,E,1,04,4.47,148.4,M,53.8,M,,*41
114 12 45 12 4333.6928400128.73516148.6ó 00128.73516 148.6 0 10111 11111111 110110 1100000 0 110110 1110111 11111111 1101101110 1010110011 1011101011 1111001110 10000110000 1100111010 1100100001 1100100100 1100010100 24.750 47.158 999.45 115340 21 16 14 59 52 3 $GNGGA,124512.00,4333.69284,N,00128.73516,E,1,05,1.72,148.6,M,53.8,M,,*4C
115 12 45 13 4333.6927900128.73509148.6ó 00128.73509 148.6 0 10111 11111111 110110 1100000 0 110110 1110111 11111111 1101101110 1010110110 1011101111 1111000101 10000101110 1100111010 1100100001 1100011011 1100001000 24.750 47.150 999.46 116338 22 15 14 60 51 3 $GNGGA,124513.00,4333.69279,N,00128.73509,E,1,05,1.72,148.6,M,53.8,M,,*41
116 12 45 14 4333.6931400128.73397148.8ó 00128.73397 148.8 0 10111 11111111 110110 1110111 11111111 110110 1110111 11111111 1101101110 1010111000 1011110000 1110111110 10000101110 1100110110 1100011111 1100100100 1100010100 24.813 47.082 999.46 117338 21 15 14 59 51 4 $GNGGA,124514.00,4333.69314,N,00128.73397,E,1,05,1.72,148.8,M,53.8,M,,*43
117 12 45 15 4333.6927900128.73420149.0ó 00128.73420 149.0 0 10111 11111111 110110 1100000 0 110110 1100000 0 1101101110 1010111000 1011101110 1111001100 10000110100 1100110101 1100011011 1100100110 1100010001 24.813 47.097 999.46 118336 22 14 13 59 51 4 $GNGGA,124515.00,4333.69279,N,00128.73420,E,1,05,1.72,149.0,M,53.8,M,,*4A
118 12 45 16 4333.6931200128.73425148.9ó 00128.73425 148.9 0 10111 11111111 110110 1110111 11111111 110110 1110111 11111111 1101101110 1010110110 1011101110 1111000011 10000110000 1100110110 1100011110 1100100110 1100010100 24.750 47.127 999.47 119335 20 15 15 59 50 4 $GNGGA,124516.00,4333.69312,N,00128.73425,E,1,05,1.72,148.9,M,53.8,M,,*48
119 12 45 17 4333.6935100128.73371148.7ó 00128.73371 148.7 0 10111 11111111 110110 1110111 11111111 110110 1100000 0 1101101110 1010110001 1011101010 1111001101 10000110010 1100111101 1100100001 1100100010 1100001101 24.750 47.127 999.47 120334 22 16 14 59 52 3 $GNGGA,124517.00,4333.69351,N,00128.73371,E,1,05,1.72,148.7,M,53.8,M,,*46
120 12 45 18 4333.6940900128.73340148.4ó 00128.73340 148.4 0 10111 11111111 110110 1100000 0 110110 1100000 0 1101101110 1010111010 1011110000 1111000101 10000101101 1100101100 1100011001 1100100100 1100010110 24.750 47.104 999.49 121332 22 15 13 59 50 4 $GNGGA,124518.00,4333.69409,N,00128.73340,E,1,05,1.72,148.4,M,53.8,M,,*42
121 12 45 19 4333.6937700128.73353148.3ó 00128.73353 148.3 0 10111 11111111 110110 1110111 11111111 110110 1100000 0 1101101110 1010111000 1011110001 1111001001 10000110011 1100110010 1100011101 1100100100 1100010001 24.750 47.066 999.48 122333 21 16 14 59 52 3 $GNGGA,124519.00,4333.69377,N,00128.73353,E,1,05,1.72,148.3,M,53.8,M,,*48
122 12 45 20 4333.6939500128.73358148.0ó 00128.73358 148.0 0 10111 11111111 110110 1110111 11111111 110110 1110111 11111111 1101101110 1010110110 1011101101 1111000110 10000101110 1100110110 1100011011 1100101011 1100011001 24.688 47.051 999.47 123330 23 14 13 60 50 4 $GNGGA,124520.00,4333.69395,N,00128.73358,E,1,05,1.72,148.0,M,53.8,M,,*46
123 12 45 21 4333.6942700128.73243147.6ó 00128.73243 147.6 0 10111 11111111 110110 1100000 0 110110 1100000 0 1101101110 1010110011 1011101100 1111001010 10000110011 1100110000 1100010101 1100101001 1100010101 24.750 47.059 999.47 124331 21 16 14 59 50 4 $GNGGA,124521.00,4333.69427,N,00128.73243,E,1,05,1.72,147.6,M,53.8,M,,*4B
124 12 45 22 4333.6948300128.73222147.2ó 00128.73222 147.2 0 10111 11111111 110110 1100000 0 110110 1110111 11111111 1101101110 1010111010 1011101111 1111000110 10000110010 1100101101 1100010111 1100101000 1100010001 24.813 47.059 999.48 125329 22 15 14 60 51 3 $GNGGA,124522.00,4333.69483,N,00128.73222,E,1,05,1.72,147.2,M,53.8,M,,*45
125 12 45 23 4333.6948900128.73267147.0ó 00128.73267 147.0 0 10111 11111111 110110 1100000 0 110110 1110111 11111111 1101101110 1010111000 1011101110 1111001010 10000110010 1100110100 1100011110 1100100111 1100010110 24.750 47.051 999.48 126325 21 14 14 58 51 4 $GNGGA,124523.00,4333.69489,N,00128.73267,E,1,05,1.72,147.0,M,53.8,M,,*4D
126 12 45 24 4333.6954900128.73350146.6ó 00128.73350 146.6 0 10111 11111111 110110 1100000 0 110110 1110111 11111111 1101101110 1010110111 1011101110 1111001001 10000110011 1100110111 1100011110 1100101101 1100010111 24.750 46.990 999.47 127325 21 15 14 59 52 3 $GNGGA,124524.00,4333.69549,N,00128.73350,E,1,05,1.72,146.6,M,53.8,M,,*45
127 12 45 25 4333.6954100128.73391146.4ó 00128.73391 146.4 0 10111 11111111 110110 1100000 0 110110 1100000 0 1101101110 1010110101 1011101110 1111000110 10000110001 1100110110 1100011000 1100101001 1100001110 24.750 46.967 999.46 128322 22 14 13 59 51 4 $GNGGA,124525.00,4333.69541,N,00128.73391,E,1,05,1.72,146.4,M,53.8,M,,*43
128 12 45 26 4333.6951200128.73332146.4ó 00128.73332 146.4 0 10111 11111111 110110 1110111 11111111 110110 1110111 11111111 1101101110 1010111001 1011101111 1111001110 10000110100 1100111001 1100011101 1100100101 1100010000 24.813 46.937 999.46 129324 20 16 15 59 51 3 $GNGGA,124526.00,4333.69512,N,00128.73332,E,1,05,1.72,146.4,M,53.8,M,,*4F
129 12 45 27 4333.6950200128.73374146.2ó 00128.73374 146.2 0 10111 11111111 110110 1110111 11111111 110110 1100000 0 1101101110 1010111101 1011110000 1111000110 10000110000 1100110100 1100011000 1100101001 1100010001 24.750 46.937 999.47 130322 22 14 13 60 50 4 $GNGGA,124527.00,4333.69502,N,00128.73374,E,1,05,1.72,146.2,M,53.8,M,,*4B
130 12 45 28 4333.6942200128.73546146.0ó 00128.73546 146.0 0 10111 11111111 110110 1100000 0 110110 1100000 0 1101101110 1010110111 1011101101 1111000111 10000110001 1100110001 1100011001 1100100100 1100010100 24.813 46.959 999.47 131321 21 15 15 59 51 3 $GNGGA,124528.00,4333.69422,N,00128.73546,E,1,05,1.72,146.0,M,53.8,M,,*42
131 12 45 29 4333.6953200128.73459145.9ó 00128.73459 145.9 0 10111 11111111 110110 1110111 11111111 110110 1100000 0 1101101110 1010110100 1011101101 1111010001 10000110100 1100110000 1100011100 1100101011 1100001101 24.750 46.952 999.47 132318 21 15 13 58 52 4 $GNGGA,124529.00,4333.69532,N,00128.73459,E,1,05,1.72,145.9,M,53.8,M,,*46
132 12 45 30 4333.6946500128.73519145.8ó 00128.73519 145.8 0 10111 11111111 110110 1100000 0 110110 1110111 11111111 1101101110 1010110111 1011101111 1111001011 10000110000 1100110011 1100011010 1100100101 1100010000 24.750 46.982 999.47 133319 22 14 13 59 51 4 $GNGGA,124530.00,4333.69465,N,00128.73519,E,1,05,1.72,145.8,M,53.8,M,,*49
133 12 45 31 4333.6939600128.73642145.8ó 00128.73642 145.8 0 10111 11111111 110110 1110111 11111111 110110 1100000 0 1101101110 1010110101 1011110000 1111001100 10000110011 1100110101 1100011101 1100100000 1100011100 24.688 46.975 999.47 134318 21 16 14 59 51 4 $GNGGA,124531.00,4333.69396,N,00128.73642,E,1,05,1.72,145.8,M,53.8,M,,*4E
134 12 45 32 4333.6937500128.73592145.6ó 00128.73592 145.6 0 10111 11111111 110110 1100000 0 110110 1100000 0 1101101110 1010110111 1011101101 1111001101 10000110010 1100110000 1100011010 1100101000 1100011011 24.750 46.929 999.47 135317 22 14 13 59 51 4 $GNGGA,124532.00,4333.69375,N,00128.73592,E,1,05,1.72,145.6,M,53.8,M,,*40
135 12 45 33 4333.6932800128.73649145.4ó 00128.73649 145.4 0 10111 11111111 110110 1100000 0 110110 1100000 0 1101101110 1010110111 1011101110 1111001000 10000110001 1100110101 1100011011 1100011111 1100001111 24.875 47.005 999.47 136315 20 15 15 59 51 3 $GNGGA,124533.00,4333.69328,N,00128.73649,E,1,04,4.47,145.4,M,53.8,M,,*4C
136 12 45 34 4333.6929400128.73620145.5ó 00128.73620 145.5 0 10111 11111111 110110 1100000 0 110110 1110111 11111111 1101101110 1010110110 1011101100 1111001100 10000110100 1100110101 1100011101 1100100011 1100010100 24.750 47.051 999.47 137314 22 15 14 59 52 3 $GNGGA,124534.00,4333.69294,N,00128.73620,E,1,04,4.47,145.5,M,53.8,M,,*43
137 12 45 35 4333.6929400128.73548145.5ó 00128.73548 145.5 0 10111 11111111 110110 1100000 0 110110 1110111 11111111 1101101101 1010110110 1011101010 1111001001 10000110011 1100110000 1100010111 1100100000 1100010010 24.750 47.074 999.47 138312 22 14 13 59 51 4 $GNGGA,124535.00,4333.69294,N,00128.73548,E,1,04,4.47,145.5,M,53.8,M,,*4F
138 12 45 36 4333.6939300128.73410145.4ó 00128.73410 145.4 0 10111 11111111 110110 1100000 0 110110 1100000 0 1101101101 1010111000 1011101110 1111000010 10000101111 1100110100 1100100011 1100101011 1100010100 24.875 47.089 999.46 139310 21 15 13 59 50 5 $GNGGA,124536.00,4333.69393,N,00128.73410,E,1,04,4.47,145.4,M,53.8,M,,*47
139 12 45 37 4333.6936800128.73406145.5ó 00128.73406 145.5 0 10111 11111111 110110 1100000 0 110110 1100000 0 1101101101 1010110101 1011101101 1111000100 10000101111 1100110000 1100011011 1100101011 1100011011 24.813 47.112 999.46 140311 21 15 14 60 51 3 $GNGGA,124537.00,4333.69368,N,00128.73406,E,1,04,4.47,145.5,M,53.8,M,,*44
140 12 45 38 4333.6932000128.73560145.5ó 00128.73560 145.5 0 10111 11111111 110110 1110111 11111111 110110 1110111 11111111 1101101101 1010111011 1011110000 1111000011 10000110001 1100110011 1100011010 1100100110 1100010110 24.875 47.165 999.46 141310 21 15 15 59 51 3 $GNGGA,124538.00,4333.69320,N,00128.73560,E,1,04,4.47,145.5,M,53.8,M,,*46
141 12 45 39 4333.6928600128.73503145.6ó 00128.73503 145.6 0 10111 11111111 110110 1110111 11111111 110110 1100000 0 1101101101 1010110111 1011110000 1111000100 10000110001 1100110001 1100011000 1100100100 1100010110 24.875 47.173 999.46 142309 22 14 13 60 50 4 $GNGGA,124539.00,4333.69286,N,00128.73503,E,1,04,4.47,145.6,M,53.8,M,,*4C
142 12 45 40 4333.6928900128.73557145.7ó 00128.73557 145.7 0 10111 11111111 110110 1110111 11111111 110110 1100000 0 1101101101 1010111001 1011101111 1110111110 10000101110 1100110010 1100011101 1100100111 1100001101 24.875 47.181 999.47 143308 20 15 15 59 51 3 $GNGGA,124540.00,4333.69289,N,00128.73557,E,1,04,4.47,145.7,M,53.8,M,,*4D
143 12 45 41 4333.6922300128.73730145.8ó 00128.73730 145.8 0 10111 11111111 110110 1100000 0 110110 1110111 11111111 1101101101 1010111000 1011101110 1111000100 10000110001 1100101111 1100010111 1100011111 1100001111 24.750 47.204 999.46 144307 21 15 13 58 52 4 $GNGGA,124541.00,4333.69223,N,00128.73730,E,1,04,4.47,145.8,M,53.8,M,,*40
144 12 45 42 4333.6924000128.73656145.5ó 00128.73656 145.5 0 10111 11111111 110110 1100000 0 110110 1100000 0 1101101101 1010110110 1011101110 1111000110 10000110011 1100111100 1100100000 1100100101 1100011000 24.750 47.226 999.47 145305 22 14 13 59 51 4 $GNGGA,124542.00,4333.69240,N,00128.73656,E,1,04,4.47,145.5,M,53.8,M,,*4A
145 12 45 43 4333.6912200128.73833145.6ó 00128.73833 145.6 0 10111 11111111 110110 1110111 11111111 110110 1110111 11111111 1101101101 1010111001 1011101110 1111001000 10000110001 1100101111 1100011001 1100100100 1100010001 24.750 47.211 999.46 146305 21 15 14 58 51 4 $GNGGA,124543.00,4333.69122,N,00128.73833,E,1,04,4.47,145.6,M,53.8,M,,*42
146 12 45 44 4333.6905600128.74013145.6ó 00128.74013 145.6 0 10111 11111111 110110 1110111 11111111 110110 1100000 0 1101101101 1010111001 1011101101 1111000101 10000110000 1100110110 1100011100 1100100011 1100001110 24.750 47.158 999.46 147304 22 14 14 60 51 3 $GNGGA,124544.00,4333.69056,N,00128.74013,E,1,04,4.47,145.6,M,53.8,M,,*4A
147 12 45 45 4333.6898900128.74080145.7ó 00128.74080 145.7 0 10111 11111111 110110 1110111 11111111 110110 1110111 11111111 1101101101 1010111011 1011110001 1111001010 10000110010 1100110101 1100011010 1100101010 1100010110 24.750 47.127 999.47 148303 20 15 15 59 51 3 $GNGGA,124545.00,4333.68989,N,00128.74080,E,1,04,4.47,145.7,M,53.8,M,,*4A
148 12 45 46 4333.6892400128.74151145.6ó 00128.74151 145.6 0 10111 11111111 110110 1100000 0 110110 1110111 11111111 1101101101 1010111000 1011101110 1111010001 10000110010 1100110010 1100011011 1100100010 1100001110 24.688 47.104 999.48 149302 21 16 14 59 52 3 $GNGGA,124546.00,4333.68924,N,00128.74151,E,1,04,4.47,145.6,M,53.8,M,,*42
149 12 45 47 4333.6892700128.74182145.6ó 00128.74182 145.6 0 10111 11111111 110110 1110111 11111111 110110 1100000 0 1101101101 1010111001 1011110001 1111001110 10000110001 1100101110 1100010111 1100100011 1100010011 24.750 47.089 999.47 150298 22 15 14 60 51 3 $GNGGA,124547.00,4333.68927,N,00128.74182,E,1,04,4.47,145.6,M,53.8,M,,*4E
150 12 45 48 4333.6886300128.74209145.6ó 00128.74209 145.6 0 10111 11111111 110110 1100000 0 110110 1110111 11111111 1101101101 1010111010 1011101110 1111010011 10000110010 1100110000 1100011001 1100101000 1100001110 24.750 47.066 999.47 151299 21 15 13 59 50 5 $GNGGA,124548.00,4333.68863,N,00128.74209,E,1,04,4.47,145.6,M,53.8,M,,*40
151 12 45 49 4333.6879600128.74246145.7ó 00128.74246 145.7 0 10111 11111111 110110 1110111 11111111 110110 1100000 0 1101101101 1010110111 1011101011 1111001101 10000110000 1100110001 1100010010 1100101011 1100010001 24.750 47.036 999.48 152299 22 15 14 60 51 3 $GNGGA,124549.00,4333.68796,N,00128.74246,E,1,04,4.47,145.7,M,53.8,M,,*4E
152 12 45 50 4333.6878000128.74248145.7ó 00128.74248 145.7 0 10111 11111111 110110 1110111 11111111 110110 1110111 11111111 1101101101 1010111000 1011101111 1111001010 10000101111 1100101111 1100010111 1100101001 1100010000 24.750 47.013 999.47 153296 22 14 14 59 50 4 $GNGGA,124550.00,4333.68780,N,00128.74248,E,1,04,4.47,145.7,M,53.8,M,,*4F
153 12 45 51 4333.6878900128.74327145.8ó 00128.74327 145.8 0 10111 11111111 110110 1100000 0 110110 1110111 11111111 1101101101 1010111000 1011101101 1111010011 10000110011 1100110000 1100011011 1100100111 1100010000 24.750 46.998 999.48 154296 22 15 13 58 52 4 $GNGGA,124551.00,4333.68789,N,00128.74327,E,1,04,4.47,145.8,M,53.8,M,,*40
154 12 45 52 4333.6876200128.74366145.8ó 00128.74366 145.8 0 10111 11111111 110110 1110111 11111111 110110 1110111 11111111 1101101101 1010111011 1011110001 1111010001 10000110100 1100101111 1100011011 1100101010 1100011001 24.750 46.998 999.47 155295 22 14 14 59 50 4 $GNGGA,124552.00,4333.68762,N,00128.74366,E,1,04,4.47,145.8,M,53.8,M,,*43
155 12 45 53 4333.6877200128.74296145.7ó 00128.74296 145.7 0 10111 11111111 110110 1100000 0 110110 1110111 11111111 1101101101 1010110110 1011101110 1111001100 10000110000 1100110011 1100011010 1100100110 1100010010 24.750 46.998 999.46 156294 21 15 13 59 51 4 $GNGGA,124553.00,4333.68772,N,00128.74296,E,1,04,4.47,145.7,M,53.8,M,,*42
156 12 45 54 4333.6875000128.74447145.9ó 00128.74447 145.9 0 10111 11111111 110110 1100000 0 110110 1100000 0 1101101101 1010111010 1011110000 1111001110 10000110000 1100101100 1100011000 1100101010 1100010110 24.750 46.990 999.46 157293 22 15 14 60 51 3 $GNGGA,124554.00,4333.68750,N,00128.74447,E,1,04,4.47,145.9,M,53.8,M,,*41
157 12 45 55 4333.6875400128.74438146.0ó 00128.74438 146.0 0 10111 11111111 110110 1110111 11111111 110110 1110111 11111111 1101101101 1010111011 1011110001 1111001111 10000110001 1100101110 1100011011 1100100001 1100010001 24.688 46.982 999.46 158292 21 15 15 59 51 3 $GNGGA,124555.00,4333.68754,N,00128.74438,E,1,04,4.47,146.0,M,53.8,M,,*46
158 12 45 56 4333.6869100128.74404146.1ó 00128.74404 146.1 0 10111 11111111 110110 1110111 11111111 110110 1110111 11111111 1101101101 1010111000 1011101110 1111010101 10000110010 1100110001 1100011001 1100100011 1100011010 24.688 46.982 999.47 159293 22 15 14 60 51 3 $GNGGA,124556.00,4333.68691,N,00128.74404,E,1,04,4.47,146.1,M,53.8,M,,*43
159 12 45 57 4333.6873300128.74404146.2ó 00128.74404 146.2 0 10111 11111111 110110 1100000 0 110110 1110111 11111111 1101101101 1010111000 1011101110 1111010101 10000110011 1100101111 1100011011 1100100011 1100010100 24.750 46.998 999.48 160291 21 15 15 59 51 3 $GNGGA,124557.00,4333.68733,N,00128.74404,E,1,04,4.47,146.2,M,53.8,M,,*48
160 12 45 58 4333.6872800128.74482146.3ó 00128.74482 146.3 0 10111 11111111 110110 1110111 11111111 110110 1110111 11111111 1101101101 1010110101 1011101100 1111010100 10000110000 1100101110 1100011011 1100101000 1100010111 24.750 47.005 999.49 161288 21 15 13 58 52 4 $GNGGA,124558.00,4333.68728,N,00128.74482,E,1,04,4.47,146.3,M,53.8,M,,*42
161 12 45 59 4333.6873800128.74465146.5ó 00128.74465 146.5 0 10111 11111111 110110 1110111 11111111 110110 1100000 0 1101101101 1010111010 1011110000 1111010011 10000110011 1100110000 1100011011 1100100001 1100010011 24.750 46.998 999.48 162288 22 15 14 60 51 3 $GNGGA,124559.00,4333.68738,N,00128.74465,E,1,04,4.47,146.5,M,53.8,M,,*4D
162 12 46 00 4333.6873100128.74442146.6ó 00128.74442 146.6 0 10111 11111111 110110 1110111 11111111 110110 1110111 11111111 1101101101 1010111001 1011101111 1111001111 10000110001 1100101011 1100011100 1100100000 1100001010 24.688 46.990 999.49 163287 21 16 15 59 51 3 $GNGGA,124600.00,4333.68731,N,00128.74442,E,1,04,4.48,146.6,M,53.8,M,,*42
163 12 46 01 4333.6880600128.74362146.6ó 00128.74362 146.6 0 10111 11111111 110110 1110111 11111111 110110 1110111 11111111 1101101101 1010111000 1011110001 1111010010 10000110100 1100101011 1100011000 1100100100 1100001110 24.750 46.982 999.48 164286 21 15 14 60 51 3 $GNGGA,124601.00,4333.68806,N,00128.74362,E,1,04,4.48,146.6,M,53.8,M,,*4D
164 12 46 02 4333.6888600128.74309145.5ó 00128.74309 145.5 0 10111 11111111 110110 1100000 0 110110 1100000 0 1101101101 1010111011 1011110000 1111010011 10000110001 1100101111 1100011010 1100100010 1100010010 24.750 46.990 999.48 165285 21 15 14 59 50 4 $GNGGA,124602.00,4333.68886,N,00128.74309,E,1,03,4.93,145.5,M,53.8,M,,*4A
165 12 46 03 4333.6884000128.74330145.5ó 00128.74330 145.5 0 10111 11111111 110110 1100000 0 110110 1110111 11111111 1101101101 1010110111 1011101111 1111010001 10000110001 1100110100 1100011100 1100011111 1100000111 24.813 46.990 999.47 166283 22 15 13 59 51 4 $GNGGA,124603.00,4333.68840,N,00128.74330,E,1,03,4.93,145.5,M,53.8,M,,*4B
166 12 46 04 4333.6889300128.74167145.5ó 00128.74167 145.5 0 10111 11111111 110110 1110111 11111111 110110 1100000 0 1101101101 1010111000 1011101110 1111010100 10000110011 1100101100 1100011000 1100100100 1100001111 24.750 46.975 999.47 167283 21 15 14 60 51 3 $GNGGA,124604.00,4333.68893,N,00128.74167,E,1,04,4.48,145.5,M,53.8,M,,*43
167 12 46 05 4333.6888800128.74223145.6ó 00128.74223 145.6 0 10111 11111111 110110 1100000 0 110110 1110111 11111111 1101101101 1010111100 1011110010 1111001100 10000101111 1100110110 1100011100 1100100100 1100010100 24.750 46.975 999.47 168281 20 15 13 58 51 5 $GNGGA,124605.00,4333.68888,N,00128.74223,E,1,04,4.48,145.6,M,53.8,M,,*48
168 12 46 06 4333.6888800128.74242145.7ó 00128.74242 145.7 0 10111 11111111 110110 1100000 0 110110 1110111 11111111 1101101101 1010111000 1011110001 1111000110 10000101111 1100101110 1100011011 1100101001 1100010100 24.750 46.990 999.47 169281 23 15 13 60 50 4 $GNGGA,124606.00,4333.68888,N,00128.74242,E,1,04,4.48,145.7,M,53.8,M,,*4D
169 12 46 07 4333.6895900128.74131145.6ó 00128.74131 145.6 0 10111 11111111 110110 1110111 11111111 110110 1100000 0 1101101101 1010110110 1011110000 1111010011 10000110001 1100101110 1100011001 1100101100 1100011001 24.688 47.043 999.46 170279 20 15 15 59 51 3 $GNGGA,124607.00,4333.68959,N,00128.74131,E,1,04,4.48,145.6,M,53.8,M,,*47
170 12 46 08 4333.6906200128.73938145.6ó 00128.73938 145.6 0 10111 11111111 110110 1110111 11111111 110110 1100000 0 1101101101 1010111001 1011101110 1111001110 10000110000 1100101111 1100011000 1100100111 1100010000 24.750 47.089 999.46 171279 22 15 14 60 51 3 $GNGGA,124608.00,4333.69062,N,00128.73938,E,1,04,4.48,145.6,M,53.8,M,,*4E
171 12 46 09 4333.6905900128.73898145.6ó 00128.73898 145.6 0 10111 11111111 110110 1100000 0 110110 1110111 11111111 1101101101 1010110110 1011101110 1111010010 10000110001 1100110100 1100011110 1100100100 1100010110 24.688 47.097 999.47 172277 21 15 15 59 51 3 $GNGGA,124609.00,4333.69059,N,00128.73898,E,1,04,4.48,145.6,M,53.8,M,,*4C
172 12 46 10 4333.6903900128.73822145.6ó 00128.73822 145.6 0 10111 11111111 110110 1110111 11111111 110110 1100000 0 1101101101 1010111010 1011101111 1111010011 10000110010 1100110000 1100011000 1100100100 1100001111 24.688 47.104 999.47 173277 21 15 13 59 51 4 $GNGGA,124610.00,4333.69039,N,00128.73822,E,1,04,4.48,145.6,M,53.8,M,,*43
173 12 46 11 4333.6904900128.73753145.6ó 00128.73753 145.6 0 10111 11111111 110110 1100000 0 110110 1100000 0 1101101101 1010110111 1011101110 1111001111 10000110001 1100101010 1100011000 1100101000 1100010100 24.750 47.120 999.48 174275 22 14 13 60 50 4 $GNGGA,124611.00,4333.69049,N,00128.73753,E,1,04,4.48,145.6,M,53.8,M,,*4C
174 12 46 12 4333.6907400128.73561145.5ó 00128.73561 145.5 0 10111 11111111 110110 1100000 0 110110 1100000 0 1101101101 1010111001 1011101110 1111001101 10000110000 1100101111 1100010110 1100100101 1100010001 24.750 47.104 999.48 175275 21 15 14 58 51 4 $GNGGA,124612.00,4333.69074,N,00128.73561,E,1,04,4.48,145.5,M,53.8,M,,*41
175 12 46 13 4333.6908500128.73384145.5ó 00128.73384 145.5 0 10111 11111111 110110 1110111 11111111 110110 1110111 11111111 1101101101 1010110111 1011101110 1111010011 10000110010 1100110110 1100011110 1100100010 1100001001 24.750 47.005 999.48 176273 22 14 13 60 50 4 $GNGGA,124613.00,4333.69085,N,00128.73384,E,1,04,4.48,145.5,M,53.8,M,,*43
176 12 46 14 4333.6909900128.73309145.5ó 00128.73309 145.5 0 10111 11111111 110110 1100000 0 110110 1110111 11111111 1101101101 1010110111 1011101110 1111010010 10000110001 1100110000 1100011010 1100011111 1100001000 24.813 46.944 999.47 177272 21 14 14 58 51 4 $GNGGA,124614.00,4333.69099,N,00128.73309,E,1,03,4.92,145.5,M,53.8,M,,*4C
177 12 46 15 4333.6904500128.73309145.5ó 00128.73309 145.5 0 10111 11111111 110110 1110111 11111111 110110 1100000 0 1101101100 1010110101 1011101111 1111001110 10000110001 1100110010 1100011001 1100100110 1100001011 24.750 46.906 999.47 178272 21 16 14 59 51 4 $GNGGA,124615.00,4333.69045,N,00128.73309,E,1,03,4.92,145.5,M,53.8,M,,*4C
