id HH MM SS longitude latitude altitude adc_1_ch0 adc_1_ch1 adc_1_ch2 adc_1_ch3 adc_1_ch4 adc_1_ch5 adc_1_ch6 adc_1_ch7 adc_1_ch8 adc_2_ch0 adc_2_ch1 adc_2_ch2 adc_2_ch3 adc_2_ch4 adc_2_ch5 adc_2_ch6 adc_2_ch7 adc_2_ch8 temp hum pres t_prog t_gps t_split t_adc t_temp t_hum t_pres trame_gga
1 12 54 50 4333.6971800128.73446141.5ó 00128.73446 141.5 110110 1110111 11111111 110110 1110111 11111111 110110 1110111 11111111 1101101011 1010111010 1011110000 1111110111 10000101110 1100101111 1100010111 1100100000 1100010110 24.750 45.655 795.83 3177 23 14 13 59 51 4 $GNGGA,125450.00,4333.69718,N,00128.73446,E,1,04,3.05,141.5,M,53.8,M,,*47
2 12 54 51 4333.6973400128.73433142.2ó 00128.73433 142.2 110110 1110111 11111111 110110 1110111 11111111 110110 1110111 11111111 1101101011 1010111111 1011110000 1111111000 10000101110 1100101001 1100010101 1100100110 1100010101 24.688 45.899 999.37 4176 21 14 14 58 51 4 $GNGGA,125451.00,4333.69734,N,00128.73433,E,1,04,3.05,142.2,M,53.8,M,,*4E
3 12 54 52 4333.6972700128.73352143.1ó 00128.73352 143.1 110110 1110111 11111111 110110 1110111 11111111 110110 1110111 11111111 1101101100 1010111011 1011110000 1111110111 10000110000 1100110011 1100010110 1100101000 1100010011 24.750 45.991 999.36 5175 23 15 13 58 52 4 $GNGGA,125452.00,4333.69727,N,00128.73352,E,1,04,3.05,143.1,M,53.8,M,,*4D
4 12 54 53 4333.6977500128.73383143.4ó 00128.73383 143.4 110110 1110111 11111111 110110 1110111 11111111 110110 1110111 11111111 1101101011 1010111010 1011101111 1111101111 10000101110 1100101110 1100011101 1100100101 1100010110 24.688 45.777 999.37 6174 22 14 13 58 51 4 $GNGGA,125453.00,4333.69775,N,00128.73383,E,1,04,3.05,143.4,M,53.8,M,,*42
5 12 54 54 4333.6977700128.73394144.4ó 00128.73394 144.4 110110 1110111 11111111 110110 1110111 11111111 110110 1110111 11111111 1101101011 1010110110 1011101101 1111110100 10000110000 1100101000 1100010011 1100100001 1100001110 24.688 45.586 999.35 7173 21 15 13 58 51 5 $GNGGA,125454.00,4333.69777,N,00128.73394,E,1,04,3.05,144.4,M,53.8,M,,*46
6 12 54 55 4333.6976400128.73365145.6ó 00128.73365 145.6 110110 1110111 11111111 110110 1110111 11111111 110110 1110111 11111111 1101101011 1010111010 1011101110 1111101101 10000101110 1100100011 1100010101 1100100011 1100001111 24.750 45.563 999.36 8172 23 15 13 60 50 4 $GNGGA,125455.00,4333.69764,N,00128.73365,E,1,04,3.05,145.6,M,53.8,M,,*48
7 12 54 56 4333.6981500128.73400146.4ó 00128.73400 146.4 110110 1110111 11111111 110110 1110111 11111111 110110 1110111 11111111 1101101011 1010111100 1011110000 1111110000 10000101101 1100101110 1100011011 1100100000 1100001100 24.750 45.418 999.35 9171 21 15 15 59 51 3 $GNGGA,125456.00,4333.69815,N,00128.73400,E,1,04,3.05,146.4,M,53.8,M,,*47
8 12 54 57 4333.6978800128.73394146.7ó 00128.73394 146.7 110110 1110111 11111111 110110 1110111 11111111 110110 1110111 11111111 1101101011 1010111000 1011101110 1111110001 10000110000 1100101011 1100011101 1100100100 1100010011 24.750 45.311 999.34 10170 22 15 14 60 50 4 $GNGGA,125457.00,4333.69788,N,00128.73394,E,1,04,3.05,146.7,M,53.8,M,,*44
9 12 54 58 4333.6975900128.73285147.3ó 00128.73285 147.3 110110 1110111 11111111 110110 1110111 11111111 110110 1110111 11111111 1101101011 1010111100 1011101101 1111110001 10000101111 1100101000 1100010010 1100100100 1100011001 24.750 45.228 999.33 11169 21 15 15 59 51 3 $GNGGA,125458.00,4333.69759,N,00128.73285,E,1,05,1.49,147.3,M,53.8,M,,*48
10 12 54 59 4333.6976100128.73286147.5ó 00128.73286 147.5 110110 1110111 11111111 110110 1110111 11111111 110110 1110111 11111111 1101101100 1010111000 1011110011 1111110001 10000101111 1100101010 1100010101 1100100110 1100010001 24.750 45.159 999.34 12167 22 16 13 59 51 4 $GNGGA,125459.00,4333.69761,N,00128.73286,E,1,04,3.05,147.5,M,53.8,M,,*4C
11 12 55 00 4333.6976400128.73336147.9ó 00128.73336 147.9 110110 1110111 11111111 110110 1110111 11111111 110110 1110111 11111111 1101101011 1010111100 1011101111 1111110101 10000101111 1100110000 1100011010 1100100110 1100010111 24.750 45.167 999.32 13166 23 14 13 60 50 4 $GNGGA,125500.00,4333.69764,N,00128.73336,E,1,04,3.05,147.9,M,53.8,M,,*42
12 12 55 01 4333.6967300128.73365148.9ó 00128.73365 148.9 110110 1110111 11111111 110110 1110111 11111111 110110 1110111 11111111 1101101011 1010111010 1011101110 1111101110 10000101100 1100110000 1100011100 1100100001 1100001111 24.750 45.189 999.32 14166 21 16 15 59 51 3 $GNGGA,125501.00,4333.69673,N,00128.73365,E,1,04,3.05,148.9,M,53.8,M,,*4D
13 12 55 02 4333.6961900128.73445149.8ó 00128.73445 149.8 110110 1110111 11111111 110110 1110111 11111111 110110 1110111 11111111 1101101011 1010111011 1011110000 1111110111 10000101110 1100101011 1100011010 1100100100 1100010001 24.750 45.189 999.33 15165 23 14 13 60 50 4 $GNGGA,125502.00,4333.69619,N,00128.73445,E,1,04,3.06,149.8,M,53.8,M,,*44
14 12 55 03 4333.6960400128.73499150.4ó 00128.73499 150.4 110110 1110111 11111111 110110 1110111 11111111 110110 1110111 11111111 1101101011 1010111011 1011101110 1111110101 10000101110 1100101101 1100010101 1100100100 1100010011 24.750 45.395 999.33 16163 21 15 15 59 51 3 $GNGGA,125503.00,4333.69604,N,00128.73499,E,1,04,3.06,150.4,M,53.8,M,,*4C
15 12 55 04 4333.6958100128.73590151.5ó 00128.73590 151.5 110110 1110111 11111111 110110 1110111 11111111 110110 1110111 11111111 1101101011 1010111100 1011110001 1111101111 10000101100 1100110001 1100100000 1100101000 1100001110 24.750 45.647 999.32 17163 23 16 13 59 51 4 $GNGGA,125504.00,4333.69581,N,00128.73590,E,1,04,3.06,151.5,M,53.8,M,,*4D
16 12 55 05 4333.6956600128.73535152.6ó 00128.73535 152.6 110110 1110111 11111111 110110 1110111 11111111 110110 1110111 11111111 1101101011 1010111011 1011110000 1111111000 10000101111 1100101111 1100011100 1100100100 1100011010 24.688 45.891 999.32 18161 22 15 14 60 51 3 $GNGGA,125505.00,4333.69566,N,00128.73535,E,1,04,3.06,152.6,M,53.8,M,,*4A
17 12 55 06 4333.6952300128.73664154.1ó 00128.73664 154.1 110110 1110111 11111111 110110 1110111 11111111 110110 1110111 11111111 1101101011 1010111101 1011110010 1111110100 10000101101 1100101100 1100011000 1100100110 1100001101 24.688 45.807 999.32 19161 21 16 14 59 51 4 $GNGGA,125506.00,4333.69523,N,00128.73664,E,1,04,3.06,154.1,M,53.8,M,,*4E
18 12 55 07 4333.6943600128.73640155.2ó 00128.73640 155.2 110110 1110111 11111111 110110 1110111 11111111 110110 1110111 11111111 1101101011 1010111000 1011110001 1111101110 10000101100 1100101011 1100011000 1100100111 1100001111 24.750 45.647 999.32 20159 22 14 14 60 51 3 $GNGGA,125507.00,4333.69436,N,00128.73640,E,1,04,3.06,155.2,M,53.8,M,,*4E
19 12 55 08 4333.6946200128.73612155.8ó 00128.73612 155.8 110110 1110111 11111111 110110 1110111 11111111 110110 1110111 11111111 1101101011 1010111100 1011101111 1111110001 10000101110 1100110010 1100011100 1100100010 1100001001 24.750 45.601 999.33 21158 21 15 15 59 51 3 $GNGGA,125508.00,4333.69462,N,00128.73612,E,1,04,3.06,155.8,M,53.8,M,,*4D
20 12 55 09 4333.6950500128.73663156.0ó 00128.73663 156.0 110110 1110111 11111111 110110 1110111 11111111 110110 1110111 11111111 1101101011 1010111100 1011110001 1111101111 10000101110 1100101011 1100010101 1100100000 1100001101 24.813 45.609 999.34 22157 23 15 13 58 52 4 $GNGGA,125509.00,4333.69505,N,00128.73663,E,1,04,3.06,156.0,M,53.8,M,,*41
21 12 55 10 4333.6947000128.73680156.2ó 00128.73680 156.2 110110 1110111 11111111 110110 1110111 11111111 110110 1110111 11111111 1101101011 1010111000 1011101110 1111110001 10000101111 1100101101 1100011010 1100100011 1100010111 24.813 45.563 999.34 23154 22 14 13 59 51 4 $GNGGA,125510.00,4333.69470,N,00128.73680,E,1,04,3.06,156.2,M,53.8,M,,*45
22 12 55 11 4333.6943800128.73635156.4ó 00128.73635 156.4 110110 1110111 11111111 110110 1110111 11111111 110110 1110111 11111111 1101101011 1010111001 1011101111 1111101111 10000101110 1100100111 1100010110 1100100001 1100010001 24.813 45.548 999.33 24156 21 16 14 59 52 3 $GNGGA,125511.00,4333.69438,N,00128.73635,E,1,04,3.06,156.4,M,53.8,M,,*40
23 12 55 12 4333.6945000128.72953134.3ó 00128.72953 134.3 110110 1110111 11111111 110110 1110111 11111111 110110 1110111 11111111 1101101011 1010111011 1011110000 1111110000 10000101110 1100101000 1100010110 1100100010 1100001111 24.688 45.548 999.33 25155 22 15 14 60 51 3 $GNGGA,125512.00,4333.69450,N,00128.72953,E,1,03,6.21,134.3,M,53.8,M,,*47
24 12 55 13 4333.6944900128.72860134.3ó 00128.72860 134.3 110110 1110111 11111111 110110 1110111 11111111 110110 1110111 11111111 1101101011 1010111010 1011110010 1111101111 10000101110 1100100111 1100010110 1100100001 1100001111 24.750 45.563 999.33 26153 22 14 14 59 50 4 $GNGGA,125513.00,4333.69449,N,00128.72860,E,1,03,6.21,134.3,M,53.8,M,,*4F
25 12 55 14 4333.6944000128.72905134.4ó 00128.72905 134.4 110110 1110111 11111111 110110 1110111 11111111 110110 1110111 11111111 1101101011 1010110101 1011101111 1111101011 10000101110 1100101010 1100011001 1100100100 1100001100 24.688 45.701 999.33 27153 22 15 14 60 51 3 $GNGGA,125514.00,4333.69440,N,00128.72905,E,1,03,6.21,134.4,M,53.8,M,,*44
26 12 55 15 4333.6942300128.72889134.3ó 00128.72889 134.3 110110 1110111 11111111 110110 1110111 11111111 110110 1110111 11111111 1101101011 1010110110 1011110000 1111100011 10000101011 1100101100 1100010101 1100100100 1100010000 24.750 45.876 999.33 28152 22 15 14 59 50 4 $GNGGA,125515.00,4333.69423,N,00128.72889,E,1,04,3.06,134.3,M,53.8,M,,*45
27 12 55 16 4333.6949300128.72910134.2ó 00128.72910 134.2 110110 1110111 11111111 110110 1110111 11111111 110110 1110111 11111111 1101101011 1010110100 1011101101 1111101111 10000101110 1100101001 1100010111 1100101010 1100010111 24.750 45.983 999.32 29152 22 16 14 59 52 3 $GNGGA,125516.00,4333.69493,N,00128.72910,E,1,04,3.06,134.2,M,53.8,M,,*4D
28 12 55 17 4333.6947100128.72918134.2ó 00128.72918 134.2 110110 1110111 11111111 110110 1110111 11111111 110110 1110111 11111111 1101101011 1010111000 1011101110 1111101101 10000101111 1100110001 1100100001 1100100101 1100010001 24.750 46.082 999.33 30147 22 15 14 60 51 3 $GNGGA,125517.00,4333.69471,N,00128.72918,E,1,04,3.06,134.2,M,53.8,M,,*48
29 12 55 18 4333.6943300128.72760134.2ó 00128.72760 134.2 110110 1110111 11111111 110110 1110111 11111111 110110 1110111 11111111 1101101011 1010111001 1011101111 1111101001 10000101110 1100101101 1100011001 1100100111 1100001100 24.750 46.090 999.32 31148 21 16 15 59 51 3 $GNGGA,125518.00,4333.69433,N,00128.72760,E,1,04,3.07,134.2,M,53.8,M,,*41
30 12 55 19 4333.6947200128.72872134.2ó 00128.72872 134.2 110110 1110111 11111111 110110 1110111 11111111 110110 1110111 11111111 1101101011 1011000000 1011110100 1111110010 10000101111 1100101000 1100010110 1100101010 1100011100 24.750 46.013 999.32 32147 22 14 14 59 51 3 $GNGGA,125519.00,4333.69472,N,00128.72872,E,1,04,3.07,134.2,M,53.8,M,,*49
31 12 55 20 4333.6940300128.72708134.4ó 00128.72708 134.4 110110 1110111 11111111 110110 1110111 11111111 110110 1110111 11111111 1101101100 1010111001 1011110001 1111101000 10000101011 1100101001 1100010111 1100110001 1100011011 24.750 45.876 999.32 33145 22 14 14 59 50 4 $GNGGA,125520.00,4333.69403,N,00128.72708,E,1,04,3.07,134.4,M,53.8,M,,*41
32 12 55 21 4333.6931100128.72531134.6ó 00128.72531 134.6 110110 1110111 11111111 110110 1110111 11111111 110110 1110111 11111111 1101101011 1010110111 1011101110 1111100100 10000101011 1100101001 1100011000 1100110000 1100011100 24.750 45.678 999.32 34146 22 15 13 58 52 4 $GNGGA,125521.00,4333.69311,N,00128.72531,E,1,04,3.07,134.6,M,53.8,M,,*4E
33 12 55 22 4333.6936700128.72572134.8ó 00128.72572 134.8 110110 1110111 11111111 110110 1110111 11111111 110110 1110111 11111111 1101101011 1010111000 1011101101 1111101100 10000101110 1100101101 1100011010 1100100110 1100001011 24.750 45.823 999.32 35144 22 15 14 60 51 3 $GNGGA,125522.00,4333.69367,N,00128.72572,E,1,04,3.07,134.8,M,53.8,M,,*45
34 12 55 23 4333.6931400128.72460134.9ó 00128.72460 134.9 110110 1110111 11111111 110110 1110111 11111111 110110 1110111 11111111 1101101011 1010111000 1011101110 1111110000 10000101101 1100101010 1100010010 1100100101 1100011011 24.688 45.655 999.32 36144 22 15 13 59 50 5 $GNGGA,125523.00,4333.69314,N,00128.72460,E,1,04,3.07,134.9,M,53.8,M,,*43
35 12 55 24 4333.6926500128.72486134.9ó 00128.72486 134.9 110110 1110111 11111111 110110 1110111 11111111 110110 1110111 11111111 1101101011 1010111101 1011110000 1111101101 10000101101 1100101101 1100011100 1100101001 1100010110 24.688 45.487 999.32 37142 23 14 13 60 50 4 $GNGGA,125524.00,4333.69265,N,00128.72486,E,1,04,3.07,134.9,M,53.8,M,,*4B
36 12 55 25 4333.6936900128.72572135.3ó 00128.72572 135.3 110110 1110111 11111111 110110 1110111 11111111 110110 1110111 11111111 1101101011 1010111000 1011101101 1111101100 10000101101 1100101101 1100011110 1100100011 1100011010 24.750 45.365 999.32 38142 21 15 15 59 50 4 $GNGGA,125525.00,4333.69369,N,00128.72572,E,1,05,2.50,135.3,M,53.8,M,,*44
37 12 55 26 4333.6933600128.72576135.4ó 00128.72576 135.4 110110 1110111 11111111 110110 1110111 11111111 110110 1110111 11111111 1101101011 1010111011 1011110010 1111101110 10000101110 1100101110 1100011010 1100100001 1100010010 24.750 45.296 999.34 39141 22 15 14 60 51 3 $GNGGA,125526.00,4333.69336,N,00128.72576,E,1,04,5.48,135.4,M,53.8,M,,*41
38 12 55 27 4333.6926500128.72596135.8ó 00128.72596 135.8 110110 1110111 11111111 110110 1110111 11111111 110110 1110111 11111111 1101101011 1010111010 1011101101 1111101011 10000101110 1100101100 1100011110 1100100100 1100010101 24.750 45.266 999.33 40139 21 14 14 58 51 4 $GNGGA,125527.00,4333.69265,N,00128.72596,E,1,04,5.48,135.8,M,53.8,M,,*45
39 12 55 28 4333.6929400128.72597136.2ó 00128.72597 136.2 110110 1110111 11111111 110110 1110111 11111111 110110 1110111 11111111 1101101011 1010111110 1011110010 1111100101 10000101100 1100101101 1100010110 1100100010 1100001111 24.688 45.273 999.32 41138 21 15 13 58 52 4 $GNGGA,125528.00,4333.69294,N,00128.72597,E,1,05,2.54,136.2,M,53.8,M,,*47
40 12 55 29 4333.6931500128.72607136.6ó 00128.72607 136.6 110110 1110111 11111111 110110 1110111 11111111 110110 1110111 11111111 1101101011 1010111111 1011110001 1111110001 10000110001 1100101101 1100010111 1100101100 1100011010 24.750 45.357 999.32 42138 22 15 14 60 51 3 $GNGGA,125529.00,4333.69315,N,00128.72607,E,1,05,2.54,136.6,M,53.8,M,,*40
41 12 55 30 4333.6929700128.72682137.0ó 00128.72682 137.0 110110 1110111 11111111 110110 1110111 11111111 110110 1110111 11111111 1101101011 1010111100 1011110001 1111110000 10000101111 1100101001 1100010101 1100100010 1100001100 24.750 45.510 999.32 43137 22 15 14 59 50 4 $GNGGA,125530.00,4333.69297,N,00128.72682,E,1,05,2.54,137.0,M,53.8,M,,*49
42 12 55 31 4333.6931300128.72718137.3ó 00128.72718 137.3 110110 1110111 11111111 110110 1110111 11111111 110110 1110111 11111111 1101101011 1010111000 1011101011 1111101101 10000101011 1100101111 1100011100 1100100010 1100001111 24.750 45.571 999.32 44136 22 15 14 60 51 3 $GNGGA,125531.00,4333.69313,N,00128.72718,E,1,05,2.54,137.3,M,53.8,M,,*44
43 12 55 32 4333.6935300128.72727137.7ó 00128.72727 137.7 110110 1110111 11111111 110110 1110111 11111111 110110 1110111 11111111 1101101011 1010111100 1011101111 1111101010 10000101101 1100101110 1100011010 1100100000 1100001001 24.688 45.571 999.32 45133 22 14 14 59 50 4 $GNGGA,125532.00,4333.69353,N,00128.72727,E,1,05,2.54,137.7,M,53.8,M,,*4B
44 12 55 33 4333.6938600128.72697138.1ó 00128.72697 138.1 110110 1110111 11111111 110110 1110111 11111111 110110 1110111 11111111 1101101011 1010110101 1011101100 1111110001 10000101110 1100101010 1100011001 1100101000 1100010010 24.750 45.670 999.32 46134 22 16 14 59 52 3 $GNGGA,125533.00,4333.69386,N,00128.72697,E,1,05,2.53,138.1,M,53.8,M,,*46
45 12 55 34 4333.6938200128.72727138.4ó 00128.72727 138.4 110110 1110111 11111111 110110 1110111 11111111 110110 1110111 11111111 1101101011 1010111011 1011110001 1111101100 10000101101 1100101111 1100011100 1100011100 1100000110 24.750 45.746 999.32 47132 22 15 14 60 51 3 $GNGGA,125534.00,4333.69382,N,00128.72727,E,1,05,2.53,138.4,M,53.8,M,,*4A
46 12 55 35 4333.6939400128.72807138.5ó 00128.72807 138.5 110110 1110111 11111111 110110 1110111 11111111 110110 1110111 11111111 1101101011 1010111010 1011101111 1111101010 10000101101 1100101101 1100011011 1100100011 1100001100 24.750 45.701 999.33 48132 21 16 14 59 51 4 $GNGGA,125535.00,4333.69394,N,00128.72807,E,1,05,2.53,138.5,M,53.8,M,,*40
47 12 55 36 4333.6934200128.72848138.8ó 00128.72848 138.8 110110 1110111 11111111 110110 1110111 11111111 110110 1110111 11111111 1101101011 1010111000 1011101111 1111101110 10000101111 1100101101 1100011111 1100100010 1100001000 24.750 45.914 999.32 49130 23 14 13 60 50 4 $GNGGA,125536.00,4333.69342,N,00128.72848,E,1,05,2.53,138.8,M,53.8,M,,*4E
48 12 55 37 4333.6939400128.72894139.0ó 00128.72894 139.0 110110 1110111 11111111 110110 1110111 11111111 110110 1110111 11111111 1101101011 1010111000 1011101111 1111100110 10000101101 1100101100 1100011101 1100101001 1100010010 24.750 46.082 999.33 50129 21 14 14 58 51 4 $GNGGA,125537.00,4333.69394,N,00128.72894,E,1,05,2.53,139.0,M,53.8,M,,*4C
49 12 55 38 4333.6948200128.73074139.0ó 00128.73074 139.0 110110 1110111 11111111 110110 1110111 11111111 110110 1110111 11111111 1101101011 1010111011 1011101110 1111100100 10000101101 1100110011 1100011011 1100101101 1100010110 24.750 46.181 999.33 51128 23 15 13 60 50 4 $GNGGA,125538.00,4333.69482,N,00128.73074,E,1,05,2.53,139.0,M,53.8,M,,*44
50 12 55 39 4333.6949600128.73107139.2ó 00128.73107 139.2 110110 1110111 11111111 110110 1110111 11111111 110110 1110111 11111111 1101101011 1010111011 1011110001 1111101110 10000101110 1100101000 1100010011 1100101110 1100011011 24.688 46.258 999.33 52125 23 14 13 59 51 4 $GNGGA,125539.00,4333.69496,N,00128.73107,E,1,05,2.53,139.2,M,53.8,M,,*47
51 12 55 40 4333.6946800128.73155139.5ó 00128.73155 139.5 110110 1110111 11111111 110110 1110111 11111111 110110 1110111 11111111 1101101011 1010110110 1011101101 1111101011 10000101100 1100110000 1100010101 1100100001 1100001010 24.750 46.250 999.34 53127 21 16 14 59 52 3 $GNGGA,125540.00,4333.69468,N,00128.73155,E,1,05,2.53,139.5,M,53.8,M,,*48
52 12 55 41 4333.6948300128.73188139.6ó 00128.73188 139.6 110110 1110111 11111111 110110 1110111 11111111 110110 1110111 11111111 1101101011 1010111010 1011101111 1111101010 10000101011 1100101011 1100010110 1100011101 1100001111 24.750 46.158 999.34 54125 23 15 13 60 50 4 $GNGGA,125541.00,4333.69483,N,00128.73188,E,1,04,8.93,139.6,M,53.8,M,,*48
53 12 55 42 4333.6957500128.73268139.5ó 00128.73268 139.5 110110 1110111 11111111 110110 1110111 11111111 110110 1110111 11111111 1101101011 1010111011 1011110000 1111110001 10000101111 1100101110 1100011100 1100101001 1100010110 24.750 46.097 999.32 55124 22 15 14 59 50 4 $GNGGA,125542.00,4333.69575,N,00128.73268,E,1,04,8.93,139.5,M,53.8,M,,*4D
54 12 55 43 4333.6960100128.73206139.5ó 00128.73206 139.5 110110 1110111 11111111 110110 1110111 11111111 110110 1110111 11111111 1101101011 1010111010 1011110000 1111110000 10000101111 1100101101 1100011001 1100011101 1100001101 24.688 46.151 999.31 56122 23 14 13 60 50 4 $GNGGA,125543.00,4333.69601,N,00128.73206,E,1,04,8.93,139.5,M,53.8,M,,*44
55 12 55 44 4333.6960100128.73163139.5ó 00128.73163 139.5 110110 1110111 11111111 110110 1110111 11111111 110110 1110111 11111111 1101101100 1010111001 1011101110 1111101011 10000101110 1100101000 1100010111 1100100001 1100001011 24.750 46.189 999.32 57122 21 15 15 59 51 3 $GNGGA,125544.00,4333.69601,N,00128.73163,E,1,04,8.92,139.5,M,53.8,M,,*42
56 12 55 45 4333.6967700128.73314139.3ó 00128.73314 139.3 110110 1110111 11111111 110110 1110111 11111111 110110 1110111 11111111 1101101011 1010111100 1011110011 1111101101 10000110000 1100101010 1100010111 1100011000 1100001000 24.688 46.219 999.32 58121 21 16 14 59 52 3 $GNGGA,125545.00,4333.69677,N,00128.73314,E,1,04,8.92,139.3,M,53.8,M,,*46
57 12 55 46 4333.6964200128.73396139.4ó 00128.73396 139.4 110110 1110111 11111111 110110 1110111 11111111 110110 1110111 11111111 1101101011 1010111001 1011101101 1111110101 10000110001 1100101100 1100011001 1100100011 1100011001 24.688 46.258 999.32 59118 22 15 14 60 51 3 $GNGGA,125546.00,4333.69642,N,00128.73396,E,1,04,8.92,139.4,M,53.8,M,,*4E
58 12 55 47 4333.6960000128.73410139.6ó 00128.73410 139.6 110110 1110111 11111111 110110 1110111 11111111 110110 1110111 11111111 1101101011 1010111000 1011110000 1111101110 10000101111 1100110010 1100011100 1100011111 1100010011 24.688 46.334 999.31 60120 21 16 15 59 51 3 $GNGGA,125547.00,4333.69600,N,00128.73410,E,1,04,8.91,139.6,M,53.8,M,,*41
59 12 55 48 4333.6961800128.73549139.6ó 00128.73549 139.6 110110 1110111 11111111 110110 1110111 11111111 110110 1110111 11111111 1101101011 1010111001 1011110011 1111110000 10000101101 1100110010 1100100000 1100100010 1100010010 24.750 46.227 999.30 61118 23 15 13 60 50 4 $GNGGA,125548.00,4333.69618,N,00128.73549,E,1,04,8.91,139.6,M,53.8,M,,*4A
60 12 55 49 4333.6960900128.73562139.8ó 00128.73562 139.8 110110 1110111 11111111 110110 1110111 11111111 110110 1110111 11111111 1101101011 1010111000 1011101101 1111110000 10000101111 1100101100 1100010111 1100100001 1100001111 24.750 46.044 999.30 62116 21 15 15 59 50 4 $GNGGA,125549.00,4333.69609,N,00128.73562,E,1,04,8.91,139.8,M,53.8,M,,*4C
61 12 55 50 4333.6961400128.73528139.8ó 00128.73528 139.8 110110 1110111 11111111 110110 1110111 11111111 110110 1110111 11111111 1101101011 1010111010 1011101110 1111101011 10000101101 1100101100 1100011011 1100101000 1100011001 24.750 45.914 999.30 63113 23 15 13 59 51 4 $GNGGA,125550.00,4333.69614,N,00128.73528,E,1,04,8.91,139.8,M,53.8,M,,*46
62 12 55 51 4333.6961400128.73549139.8ó 00128.73549 139.8 110110 1110111 11111111 110110 1110111 11111111 110110 1110111 11111111 1101101011 1010111101 1011110000 1111101011 10000101110 1100101100 1100010111 1100100101 1100010010 24.688 45.884 999.30 64115 22 15 14 60 51 3 $GNGGA,125551.00,4333.69614,N,00128.73549,E,1,04,8.90,139.8,M,53.8,M,,*41
63 12 55 52 4333.6957700128.73598139.8ó 00128.73598 139.8 110110 1110111 11111111 110110 1110111 11111111 110110 1110111 11111111 1101101011 1010111001 1011101111 1111100101 10000101111 1100101100 1100011001 1100100010 1100010100 24.750 45.914 999.30 65114 22 16 13 59 50 5 $GNGGA,125552.00,4333.69577,N,00128.73598,E,1,04,8.90,139.8,M,53.8,M,,*48
64 12 55 53 4333.6959900128.73504139.8ó 00128.73504 139.8 110110 1110111 11111111 110110 1110111 11111111 110110 1110111 11111111 1101101011 1010110111 1011110000 1111101001 10000110000 1100101101 1100010111 1100011111 1100001110 24.750 45.876 999.32 66112 22 14 14 60 51 3 $GNGGA,125553.00,4333.69599,N,00128.73504,E,1,04,8.90,139.8,M,53.8,M,,*4C
65 12 55 54 4333.6958400128.73437139.9ó 00128.73437 139.9 110110 1110111 11111111 110110 1110111 11111111 110110 1110111 11111111 1101101011 1010110100 1011101100 1111110011 10000110001 1100101100 1100011011 1100011111 1100001100 24.750 45.846 999.31 67111 22 14 14 59 50 4 $GNGGA,125554.00,4333.69584,N,00128.73437,E,1,04,8.90,139.9,M,53.8,M,,*47
66 12 55 55 4333.6958200128.73454139.6ó 00128.73454 139.6 110110 1100000 0 110110 1110111 11111111 110110 1110111 11111111 1101101011 1010110100 1011101110 1111111001 10000110001 1100101011 1100010100 1100011011 1100001010 24.750 45.884 999.31 68111 22 14 13 59 51 4 $GNGGA,125555.00,4333.69582,N,00128.73454,E,1,04,8.89,139.6,M,53.8,M,,*42
67 12 55 56 4333.6956700128.73459139.5ó 00128.73459 139.5 110110 1110111 11111111 110110 1110111 11111111 110110 1110111 11111111 1101101011 1010110101 1011101101 1111110000 10000101110 1100110100 1100100000 1100100010 1100010010 24.750 46.006 999.32 69110 21 14 14 58 51 4 $GNGGA,125556.00,4333.69567,N,00128.73459,E,1,04,8.89,139.5,M,53.8,M,,*44
68 12 55 57 4333.6954300128.73486139.6ó 00128.73486 139.6 110110 1110111 11111111 110110 1110111 11111111 110110 1110111 11111111 1101101011 1010111001 1011101111 1111101100 10000101110 1100101101 1100010111 1100010111 1100000100 24.750 46.097 999.32 70108 22 15 13 58 52 4 $GNGGA,125557.00,4333.69543,N,00128.73486,E,1,04,8.89,139.6,M,53.8,M,,*42
69 12 55 58 4333.6949700128.73345139.7ó 00128.73345 139.7 110110 1110111 11111111 110110 1110111 11111111 110110 1110111 11111111 1101101011 1010110111 1011101110 1111101001 10000101101 1100101011 1100011001 1100101101 1100010011 24.813 46.135 999.32 71108 22 15 14 60 51 3 $GNGGA,125558.00,4333.69497,N,00128.73345,E,1,04,8.89,139.7,M,53.8,M,,*4C
70 12 55 59 4333.6947900128.73340140.2ó 00128.73340 140.2 110110 1110111 11111111 110110 1110111 11111111 110110 1110111 11111111 1101101011 1010111000 1011101110 1111100111 10000101101 1100101110 1100011011 1100100100 1100001001 24.688 46.197 999.32 72107 22 15 14 59 50 4 $GNGGA,125559.00,4333.69479,N,00128.73340,E,1,05,2.53,140.2,M,53.8,M,,*4F
71 12 56 00 4333.6949400128.73430140.4ó 00128.73430 140.4 110110 1110111 11111111 110110 1110111 11111111 110110 1110111 11111111 1101101100 1010111110 1011110000 1111110000 10000101110 1100101001 1100010011 1100011111 1100001010 24.750 46.288 999.33 73106 22 15 14 60 51 3 $GNGGA,125600.00,4333.69494,N,00128.73430,E,1,05,2.53,140.4,M,53.8,M,,*45
72 12 56 01 4333.6956900128.73505140.6ó 00128.73505 140.6 110110 1110111 11111111 110110 1110111 11111111 110110 1110111 11111111 1101101011 1010111001 1011110001 1111100110 10000101111 1100101101 1100011000 1100100111 1100011001 24.750 46.380 999.33 74105 21 15 15 59 51 3 $GNGGA,125601.00,4333.69569,N,00128.73505,E,1,05,2.52,140.6,M,53.8,M,,*43
73 12 56 02 4333.6956900128.73493140.7ó 00128.73493 140.7 110110 1110111 11111111 110110 1110111 11111111 110110 1110111 11111111 1101101011 1010111000 1011110001 1111110010 10000101111 1100101111 1100010110 1100011010 1100000111 24.688 46.425 999.33 75104 22 15 13 58 52 4 $GNGGA,125602.00,4333.69569,N,00128.73493,E,1,05,2.52,140.7,M,53.8,M,,*4F
74 12 56 03 4333.6955400128.73455140.9ó 00128.73455 140.9 110110 1110111 11111111 110110 1110111 11111111 110110 1110111 11111111 1101101011 1010111010 1011101110 1111110010 10000101111 1100101010 1100011000 1100110001 1100011001 24.688 46.456 999.33 76102 22 15 14 60 51 3 $GNGGA,125603.00,4333.69554,N,00128.73455,E,1,05,2.52,140.9,M,53.8,M,,*44
75 12 56 04 4333.6947600128.73532141.1ó 00128.73532 141.1 110110 1110111 11111111 110110 1110111 11111111 110110 1110111 11111111 1101101011 1010110111 1011101101 1111110001 10000110000 1100101011 1100011100 1100100110 1100010011 24.750 46.479 999.32 77102 21 16 14 59 51 4 $GNGGA,125604.00,4333.69476,N,00128.73532,E,1,05,2.52,141.1,M,53.8,M,,*4B
76 12 56 05 4333.6938500128.73565141.4ó 00128.73565 141.4 110110 1110111 11111111 110110 1110111 11111111 110110 1110111 11111111 1101101011 1010111011 1011110010 1111101111 10000101100 1100101011 1100011010 1100100110 1100010101 24.750 46.448 999.32 78101 22 15 14 60 51 3 $GNGGA,125605.00,4333.69385,N,00128.73565,E,1,05,2.52,141.4,M,53.8,M,,*46
77 12 56 06 4333.6936100128.73598141.6ó 00128.73598 141.6 110110 1110111 11111111 110110 1110111 11111111 110110 1110111 11111111 1101101011 1010111110 1011101111 1111101010 10000101011 1100110010 1100011110 1100101000 1100011010 24.688 46.425 999.32 79099 21 14 15 59 51 3 $GNGGA,125606.00,4333.69361,N,00128.73598,E,1,05,2.52,141.6,M,53.8,M,,*4F
78 12 56 07 4333.6933600128.73599141.9ó 00128.73599 141.9 110110 1110111 11111111 110110 1110111 11111111 110110 1110111 11111111 1101101011 1010110111 1011101101 1111110001 10000101101 1100110011 1100011010 1100100001 1100010101 24.688 46.410 999.31 80099 22 16 14 59 52 3 $GNGGA,125607.00,4333.69336,N,00128.73599,E,1,05,2.52,141.9,M,53.8,M,,*42
79 12 56 08 4333.6932200128.73575142.2ó 00128.73575 142.2 110110 1110111 11111111 110110 1110111 11111111 110110 1110111 11111111 1101101011 1010111101 1011110000 1111110000 10000101101 1100100110 1100010010 1100101111 1100011001 24.750 46.402 999.32 81096 22 15 14 60 51 3 $GNGGA,125608.00,4333.69322,N,00128.73575,E,1,05,2.52,142.2,M,53.8,M,,*42
80 12 56 09 4333.6929400128.73477142.5ó 00128.73477 142.5 110110 1110111 11111111 110110 1110111 11111111 110110 1110111 11111111 1101101011 1010111000 1011101111 1111101111 10000101111 1100101100 1100011101 1100100101 1100010010 24.688 46.425 999.32 82097 21 15 14 59 52 3 $GNGGA,125609.00,4333.69294,N,00128.73477,E,1,05,2.52,142.5,M,53.8,M,,*4B
81 12 56 10 4333.6927800128.73573142.6ó 00128.73573 142.6 110110 1110111 11111111 110110 1110111 11111111 110110 1110111 11111111 1101101011 1010111010 1011110000 1111111000 10000101111 1100100111 1100010111 1100100000 1100001111 24.750 46.456 999.32 83095 22 15 14 60 51 3 $GNGGA,125610.00,4333.69278,N,00128.73573,E,1,05,2.52,142.6,M,53.8,M,,*47
82 12 56 11 4333.6923100128.73513142.7ó 00128.73513 142.7 110110 1110111 11111111 110110 1110111 11111111 110110 10000000 0 1101101011 1010111011 1011110010 1111110010 10000101111 1100110001 1100011010 1100011110 1100001100 24.750 46.479 999.31 84092 22 14 14 59 50 4 $GNGGA,125611.00,4333.69231,N,00128.73513,E,1,04,8.85,142.7,M,53.8,M,,*4D
83 12 56 12 4333.6929100128.73520142.7ó 00128.73520 142.7 110110 1110111 11111111 110110 1110111 11111111 110110 1110111 11111111 1101101011 1010111001 1011101101 1111101110 10000101111 1100101010 1100011011 1100100011 1100010011 24.750 46.486 999.31 85093 22 15 14 60 51 3 $GNGGA,125612.00,4333.69291,N,00128.73520,E,1,04,8.85,142.7,M,53.8,M,,*44
84 12 56 13 4333.6930600128.73481142.7ó 00128.73481 142.7 110110 1110111 11111111 110110 1110111 11111111 110110 1110111 11111111 1101101011 1010111001 1011101111 1111110011 10000101110 1100110101 1100100011 1100100011 1100010000 24.750 46.479 999.32 86092 21 15 15 59 50 4 $GNGGA,125613.00,4333.69306,N,00128.73481,E,1,04,8.85,142.7,M,53.8,M,,*40
85 12 56 14 4333.6923600128.73439142.7ó 00128.73439 142.7 110110 1110111 11111111 110110 1110111 11111111 110110 1110111 11111111 1101101011 1010111011 1011110000 1111101111 10000101111 1100101011 1100011000 1100100011 1100010000 24.750 46.479 999.31 87091 21 15 13 58 52 4 $GNGGA,125614.00,4333.69236,N,00128.73439,E,1,04,8.84,142.7,M,53.8,M,,*47
86 12 56 15 4333.6929200128.73469142.7ó 00128.73469 142.7 110110 1110111 11111111 110110 1110111 11111111 110110 1110111 11111111 1101101011 1010110111 1011110000 1111101111 10000101110 1100101110 1100011001 1100100100 1100001011 24.688 46.486 999.31 88090 23 15 13 60 50 4 $GNGGA,125615.00,4333.69292,N,00128.73469,E,1,04,8.84,142.7,M,53.8,M,,*4D
87 12 56 16 4333.6939700128.73377142.7ó 00128.73377 142.7 110110 1110111 11111111 110110 1110111 11111111 110110 1110111 11111111 1101101011 1010111001 1011101110 1111101100 10000101101 1100101111 1100011000 1100100001 1100001110 24.750 46.479 999.32 89089 22 15 14 59 50 4 $GNGGA,125616.00,4333.69397,N,00128.73377,E,1,04,8.84,142.7,M,53.8,M,,*42
88 12 56 17 4333.6940300128.73375142.7ó 00128.73375 142.7 110110 1110111 11111111 110110 1110111 11111111 110110 1110111 11111111 1101101100 1010110101 1011101101 1111101101 10000101111 1100101001 1100010111 1100100001 1100010001 24.750 46.502 999.32 90088 23 14 13 60 50 4 $GNGGA,125617.00,4333.69403,N,00128.73375,E,1,04,8.84,142.7,M,53.8,M,,*4B
89 12 56 18 4333.6941800128.73325142.5ó 00128.73325 142.5 110110 1110111 11111111 110110 1110111 11111111 110110 1110111 11111111 1101101011 1010111001 1011110000 1111101111 10000110000 1100101100 1100011000 1100100001 1100001101 24.688 46.494 999.31 91085 22 14 14 59 50 4 $GNGGA,125618.00,4333.69418,N,00128.73325,E,1,04,8.83,142.5,M,53.8,M,,*4E
90 12 56 19 4333.6936100128.73292142.6ó 00128.73292 142.6 110110 1110111 11111111 110110 1110111 11111111 110110 1110111 11111111 1101101011 1010111101 1011110000 1111101111 10000101110 1100101011 1100010110 1100100100 1100010010 24.750 46.471 999.32 92085 23 16 13 59 51 4 $GNGGA,125619.00,4333.69361,N,00128.73292,E,1,04,8.83,142.6,M,53.8,M,,*48
91 12 56 20 4333.6936900128.73300142.7ó 00128.73300 142.7 110110 1110111 11111111 110110 1110111 11111111 110110 1110111 11111111 1101101011 1010111001 1011101110 1111101111 10000110000 1100101110 1100010110 1100011011 1100001000 24.750 46.464 999.32 93085 22 15 14 60 51 3 $GNGGA,125620.00,4333.69369,N,00128.73300,E,1,04,8.83,142.7,M,53.8,M,,*41
92 12 56 21 4333.6948600128.73124141.8ó 00128.73124 141.8 110110 1110111 11111111 110110 1110111 11111111 110110 1110111 11111111 1101101011 1010111000 1011101111 1111101110 10000101110 1100101001 1100011011 1100100000 1100010000 24.750 46.502 999.32 94085 21 16 14 59 50 5 $GNGGA,125621.00,4333.69486,N,00128.73124,E,1,05,2.52,141.8,M,53.8,M,,*49
93 12 56 22 4333.6951800128.73144141.4ó 00128.73144 141.4 110110 1110111 11111111 110110 1110111 11111111 110110 1110111 11111111 1101101011 1010111010 1011101110 1111101111 10000101110 1100110010 1100011001 1100101001 1100010111 24.750 46.532 999.33 95083 23 14 13 60 50 4 $GNGGA,125622.00,4333.69518,N,00128.73144,E,1,05,2.52,141.4,M,53.8,M,,*46
94 12 56 23 4333.6951300128.73103140.9ó 00128.73103 140.9 110110 1110111 11111111 110110 1110111 11111111 110110 1110111 11111111 1101101011 1010110111 1011101111 1111101101 10000110000 1100101110 1100011000 1100100101 1100001110 24.688 46.532 999.32 96081 21 14 14 58 51 4 $GNGGA,125623.00,4333.69513,N,00128.73103,E,1,05,2.52,140.9,M,53.8,M,,*43
95 12 56 24 4333.6951400128.73026140.4ó 00128.73026 140.4 110110 1110111 11111111 110110 1110111 11111111 110110 1110111 11111111 1101101011 1010110110 1011101011 1111110001 10000110001 1100110001 1100011101 1100100111 1100010100 24.750 46.540 999.32 97081 22 16 14 60 51 3 $GNGGA,125624.00,4333.69514,N,00128.73026,E,1,05,2.52,140.4,M,53.8,M,,*48
96 12 56 25 4333.6949600128.72941140.1ó 00128.72941 140.1 110110 1110111 11111111 110110 1110111 11111111 110110 1110111 11111111 1101101100 1010111010 1011110000 1111101110 10000101110 1100101010 1100011001 1100100110 1100001111 24.750 46.555 999.31 98080 21 15 15 59 51 3 $GNGGA,125625.00,4333.69496,N,00128.72941,E,1,05,2.52,140.1,M,53.8,M,,*4E
97 12 56 26 4333.6950700128.72972139.9ó 00128.72972 139.9 110110 1110111 11111111 110110 1110111 11111111 110110 1110111 11111111 1101101011 1010111111 1011110001 1111100101 10000101011 1100101100 1100010111 1100101010 1100011000 24.750 46.486 999.32 99078 21 16 14 59 52 3 $GNGGA,125626.00,4333.69507,N,00128.72972,E,1,05,2.52,139.9,M,53.8,M,,*42
98 12 56 27 4333.6952000128.72943139.8ó 00128.72943 139.8 110110 1110111 11111111 110110 1110111 11111111 110110 1110111 11111111 1101101011 1010111000 1011101111 1111110101 10000101110 1100101010 1100011010 1100011101 1100001111 24.750 46.395 999.31 100078 22 15 14 60 51 3 $GNGGA,125627.00,4333.69520,N,00128.72943,E,1,04,8.81,139.8,M,53.8,M,,*40
99 12 56 28 4333.6949500128.73014139.6ó 00128.73014 139.6 110110 1100000 0 110110 1110111 11111111 110110 1110111 11111111 1101101011 1010111001 1011110010 1111110101 10000101110 1100101011 1100011001 1100101000 1100010100 24.750 46.341 999.31 101078 21 16 15 59 51 3 $GNGGA,125628.00,4333.69495,N,00128.73014,E,1,05,2.52,139.6,M,53.8,M,,*41
100 12 56 29 4333.6949500128.73025139.4ó 00128.73025 139.4 110110 1110111 11111111 110110 1110111 11111111 110110 1110111 11111111 1101101011 1010111010 1011110000 1111110001 10000101101 1100101110 1100010101 1100100100 1100010101 24.750 46.280 999.31 102076 22 15 14 60 51 3 $GNGGA,125629.00,4333.69495,N,00128.73025,E,1,05,2.51,139.4,M,53.8,M,,*43
101 12 56 30 4333.6948700128.73095139.1ó 00128.73095 139.1 110110 1110111 11111111 110110 1110111 11111111 110110 1110111 11111111 1101101011 1010111010 1011110010 1111101110 10000101101 1100101110 1100010111 1100011101 1100010010 24.750 46.235 999.31 103074 22 14 14 58 51 4 $GNGGA,125630.00,4333.69487,N,00128.73095,E,1,05,2.51,139.1,M,53.8,M,,*46
102 12 56 31 4333.6947300128.73085138.8ó 00128.73085 138.8 110110 1110111 11111111 110110 1110111 11111111 110110 1110111 11111111 1101101011 1010111000 1011101111 1111110101 10000101110 1100101101 1100011000 1100100011 1100001110 24.750 46.250 999.31 104074 22 16 14 59 52 3 $GNGGA,125631.00,4333.69473,N,00128.73085,E,1,04,2.88,138.8,M,53.8,M,,*40
103 12 56 32 4333.6950700128.73122138.6ó 00128.73122 138.6 110110 1110111 11111111 110110 1110111 11111111 110110 1110111 11111111 1101101011 1010111011 1011101111 1111111001 10000101101 1100110000 1100011110 1100011011 1100001001 24.688 46.311 999.31 105072 22 15 14 60 51 3 $GNGGA,125632.00,4333.69507,N,00128.73122,E,1,04,2.88,138.6,M,53.8,M,,*43
104 12 56 33 4333.6950000128.73135138.4ó 00128.73135 138.4 110110 1110111 11111111 110110 1110111 11111111 110110 1110111 11111111 1101101011 1010111101 1011110001 1111110101 10000110000 1100101011 1100011000 1100011111 1100010001 24.750 46.364 999.31 106071 21 16 15 59 51 3 $GNGGA,125633.00,4333.69500,N,00128.73135,E,1,04,2.88,138.4,M,53.8,M,,*41
105 12 56 34 4333.6951200128.73217138.1ó 00128.73217 138.1 110110 1110111 11111111 110110 1110111 11111111 110110 1110111 11111111 1101101011 1010111101 1011110000 1111110110 10000101111 1100101111 1100010111 1100100100 1100010000 24.750 46.357 999.32 107070 22 14 14 59 51 3 $GNGGA,125634.00,4333.69512,N,00128.73217,E,1,04,2.88,138.1,M,53.8,M,,*43
106 12 56 35 4333.6953100128.73179138.0ó 00128.73179 138.0 110110 1110111 11111111 110110 1110111 11111111 110110 1110111 11111111 1101101011 1010111101 1011101101 1111110011 10000110001 1100101101 1100011010 1100100111 1100010010 24.750 46.387 999.32 108069 21 15 15 59 51 3 $GNGGA,125635.00,4333.69531,N,00128.73179,E,1,04,2.88,138.0,M,53.8,M,,*49
107 12 56 36 4333.6960800128.73144137.8ó 00128.73144 137.8 110110 1110111 11111111 110110 1110111 11111111 110110 1110111 11111111 1101101011 1010111011 1011110000 1111111011 10000110000 1100101101 1100010111 1100100100 1100001100 24.750 46.433 999.32 109068 23 15 13 58 52 4 $GNGGA,125636.00,4333.69608,N,00128.73144,E,1,04,2.88,137.8,M,53.8,M,,*4A
108 12 56 37 4333.6958300128.73173137.9ó 00128.73173 137.9 110110 1110111 11111111 110110 1110111 11111111 110110 1110111 11111111 1101101011 1010111100 1011110000 1111110010 10000101101 1100101111 1100011001 1100100000 1100000110 24.813 46.471 999.32 110065 22 15 14 60 51 3 $GNGGA,125637.00,4333.69583,N,00128.73173,E,1,04,2.88,137.9,M,53.8,M,,*4E
109 12 56 38 4333.6958800128.73179137.9ó 00128.73179 137.9 110110 1110111 11111111 110110 1110111 11111111 110110 1110111 11111111 1101101011 1010111011 1011101111 1111110101 10000110000 1100101100 1100010100 1100100011 1100001111 24.750 46.486 999.31 111067 22 15 13 58 51 5 $GNGGA,125638.00,4333.69588,N,00128.73179,E,1,04,2.88,137.9,M,53.8,M,,*40
110 12 56 39 4333.6960500128.73205137.9ó 00128.73205 137.9 110110 10000000 0 110110 1110111 11111111 110110 1110111 11111111 1101101011 1010111000 1011101011 1111110001 10000101100 1100101000 1100010110 1100100100 1100001101 24.750 46.502 999.31 112066 22 15 14 60 51 3 $GNGGA,125639.00,4333.69605,N,00128.73205,E,1,05,2.51,137.9,M,53.8,M,,*4A
111 12 56 40 4333.6960000128.73198137.7ó 00128.73198 137.7 110110 1110111 11111111 110110 1110111 11111111 110110 1110111 11111111 1101101011 1010111000 1011101110 1111110011 10000101111 1100101010 1100010101 1100101010 1100010000 24.750 46.525 999.31 113065 21 15 15 59 51 3 $GNGGA,125640.00,4333.69600,N,00128.73198,E,1,05,2.51,137.7,M,53.8,M,,*48
112 12 56 41 4333.6957800128.73227137.7ó 00128.73227 137.7 110110 1110111 11111111 110110 1110111 11111111 110110 1110111 11111111 1101101011 1010111110 1011110011 1111101110 10000101101 1100101000 1100011000 1100100010 1100010011 24.750 46.540 999.31 114065 23 15 13 60 50 4 $GNGGA,125641.00,4333.69578,N,00128.73227,E,1,05,2.51,137.7,M,53.8,M,,*42
113 12 56 42 4333.6955500128.73183137.6ó 00128.73183 137.6 110110 1110111 11111111 110110 1110111 11111111 110110 1110111 11111111 1101101011 1010111001 1011101111 1111110100 10000101111 1100110010 1100011010 1100100010 1100010100 24.750 46.563 999.30 115062 22 14 14 59 50 4 $GNGGA,125642.00,4333.69555,N,00128.73183,E,1,05,2.51,137.6,M,53.8,M,,*42
114 12 56 43 4333.6955800128.73096137.3ó 00128.73096 137.3 110110 1110111 11111111 110110 1110111 11111111 110110 1110111 11111111 1101101011 1010111010 1011101101 1111110011 10000101111 1100101100 1100011100 1100100101 1100010011 24.750 46.563 999.31 116062 23 15 13 59 51 4 $GNGGA,125643.00,4333.69558,N,00128.73096,E,1,05,2.51,137.3,M,53.8,M,,*4E
115 12 56 44 4333.6958900128.73117137.4ó 00128.73117 137.4 110110 1110111 11111111 110110 1110111 11111111 110110 1110111 11111111 1101101011 1010111100 1011110010 1111110100 10000101111 1100101100 1100011011 1100101101 1100011011 24.688 46.540 999.31 117062 23 15 13 60 50 4 $GNGGA,125644.00,4333.69589,N,00128.73117,E,1,05,2.51,137.4,M,53.8,M,,*4A
116 12 56 45 4333.6953800128.73163137.5ó 00128.73163 137.5 110110 1110111 11111111 110110 1110111 11111111 110110 1110111 11111111 1101101100 1010111100 1011110001 1111110110 10000110000 1100101100 1100010111 1100100001 1100001111 24.750 46.525 999.31 118061 21 16 15 59 51 3 $GNGGA,125645.00,4333.69538,N,00128.73163,E,1,05,2.51,137.5,M,53.8,M,,*43
117 12 56 46 4333.6959200128.73229137.4ó 00128.73229 137.4 110110 1110111 11111111 110110 1110111 11111111 110110 1110111 11111111 1101101011 1010111011 1011110000 1111110010 10000101101 1100101100 1100010101 1100100111 1100010011 24.688 46.509 999.32 119059 23 14 13 60 50 4 $GNGGA,125646.00,4333.69592,N,00128.73229,E,1,05,2.51,137.4,M,53.8,M,,*4C
118 12 56 47 4333.6957200128.73179137.4ó 00128.73179 137.4 110110 1110111 11111111 110110 1110111 11111111 110110 1110111 11111111 1101101011 1010111101 1011110000 1111110000 10000101101 1100110011 1100100000 1100100101 1100010010 24.750 46.517 999.31 120058 22 15 14 59 50 4 $GNGGA,125647.00,4333.69572,N,00128.73179,E,1,05,2.51,137.4,M,53.8,M,,*45
119 12 56 48 4333.6956900128.73244137.3ó 00128.73244 137.3 110110 1110111 11111111 110110 1110111 11111111 110110 1110111 11111111 1101101011 1010111110 1011101110 1111110010 10000101110 1100110011 1100011001 1100100000 1100010011 24.750 46.532 999.32 121055 23 15 13 58 52 4 $GNGGA,125648.00,4333.69569,N,00128.73244,E,1,05,2.51,137.3,M,53.8,M,,*4A
120 12 56 49 4333.6954200128.73263137.4ó 00128.73263 137.4 110110 1110111 11111111 110110 1110111 11111111 110110 1110111 11111111 1101101011 1010111011 1011110001 1111110100 10000101101 1100101111 1100011000 1100011011 1100001011 24.750 46.540 999.31 122056 23 15 13 60 50 4 $GNGGA,125649.00,4333.69542,N,00128.73263,E,1,05,2.51,137.4,M,53.8,M,,*40
121 12 56 50 4333.6950900128.73275137.2ó 00128.73275 137.2 110110 1110111 11111111 110110 1110111 11111111 110110 1110111 11111111 1101101011 1010111001 1011101110 1111110101 10000110001 1100110000 1100011011 1100101010 1100001111 24.750 46.494 999.32 123055 22 15 13 58 51 5 $GNGGA,125650.00,4333.69509,N,00128.73275,E,1,05,2.51,137.2,M,53.8,M,,*46
122 12 56 51 4333.6949300128.73266137.1ó 00128.73266 137.1 110110 1110111 11111111 110110 1110111 11111111 110110 1110111 11111111 1101101011 1010111010 1011101111 1111101100 10000101101 1100101010 1100010100 1100011111 1100010000 24.688 46.471 999.33 124054 22 14 13 59 51 4 $GNGGA,125651.00,4333.69493,N,00128.73266,E,1,05,2.51,137.1,M,53.8,M,,*44
123 12 56 52 4333.6949700128.73367136.9ó 00128.73367 136.9 110110 1110111 11111111 110110 1110111 11111111 110110 1110111 11111111 1101101011 1010111010 1011101110 1111101100 10000101110 1100101100 1100011001 1100011111 1100001101 24.750 46.456 999.34 125052 22 14 14 59 50 4 $GNGGA,125652.00,4333.69497,N,00128.73367,E,1,05,2.51,136.9,M,53.8,M,,*4A
124 12 56 53 4333.6951900128.73375136.7ó 00128.73375 136.7 110110 1110111 11111111 110110 1110111 11111111 110110 1110111 11111111 1101101011 1010111100 1011110000 1111110100 10000110001 1100101001 1100010101 1100101000 1100001110 24.688 46.448 999.34 126051 22 15 13 58 52 4 $GNGGA,125653.00,4333.69519,N,00128.73375,E,1,05,2.51,136.7,M,53.8,M,,*41
125 12 56 54 4333.6956800128.73363136.7ó 00128.73363 136.7 110110 1110111 11111111 110110 1110111 11111111 110110 1110111 11111111 1101101011 1010111011 1011101110 1111101111 10000101101 1100101111 1100011101 1100011101 1100010001 24.750 46.486 999.34 127049 23 14 13 59 50 4 $GNGGA,125654.00,4333.69568,N,00128.73363,E,1,05,2.51,136.7,M,53.8,M,,*47
126 12 56 55 4333.6962800128.73383136.5ó 00128.73383 136.5 110110 1110111 11111111 110110 1110111 11111111 110110 1110111 11111111 1101101011 1010111011 1011101111 1111110010 10000101101 1100101010 1100010010 1100100001 1100001100 24.750 46.540 999.34 128048 21 16 14 59 51 4 $GNGGA,125655.00,4333.69628,N,00128.73383,E,1,05,2.51,136.5,M,53.8,M,,*4D
127 12 56 56 4333.6964000128.73435136.4ó 00128.73435 136.4 110110 1110111 11111111 110110 1110111 11111111 110110 1110111 11111111 1101101011 1010111000 1011101101 1111101101 10000101100 1100101110 1100010111 1100100010 1100001100 24.688 46.570 999.33 129049 23 14 13 60 50 4 $GNGGA,125656.00,4333.69640,N,00128.73435,E,1,05,2.51,136.4,M,53.8,M,,*4B
128 12 56 57 4333.6959700128.73500136.4ó 00128.73500 136.4 110110 1110111 11111111 110110 1110111 11111111 110110 1110111 11111111 1101101011 1010111000 1011101110 1111101101 10000101110 1100101110 1100011110 1100100001 1100001111 24.750 46.593 999.32 130048 22 15 14 59 50 4 $GNGGA,125657.00,4333.69597,N,00128.73500,E,1,05,2.51,136.4,M,53.8,M,,*44
129 12 56 58 4333.6953100128.73541136.2ó 00128.73541 136.2 110110 1110111 11111111 110110 1110111 11111111 110110 1110111 11111111 1101101011 1010111011 1011110000 1111101110 10000101110 1100101100 1100010101 1100100101 1100010111 24.750 46.586 999.32 131047 22 14 13 60 51 4 $GNGGA,125658.00,4333.69531,N,00128.73541,E,1,05,2.50,136.2,M,53.8,M,,*45
130 12 56 59 4333.6954900128.73545136.0ó 00128.73545 136.0 110110 1110111 11111111 110110 1110111 11111111 110110 1110111 11111111 1101101011 1010111011 1011110001 1111101101 10000101101 1100101010 1100010101 1100100101 1100010011 24.750 46.547 999.31 132044 21 14 15 59 51 3 $GNGGA,125659.00,4333.69549,N,00128.73545,E,1,05,2.50,136.0,M,53.8,M,,*4D
131 12 57 00 4333.6954100128.73571135.9ó 00128.73571 135.9 110110 1110111 11111111 110110 1110111 11111111 110110 1110111 11111111 1101101011 1010111001 1011101101 1111101111 10000101101 1100101100 1100011010 1100100100 1100010101 24.750 46.517 999.31 133045 22 16 14 59 52 3 $GNGGA,125700.00,4333.69541,N,00128.73571,E,1,05,2.50,135.9,M,53.8,M,,*45
132 12 57 01 4333.6950700128.73519135.8ó 00128.73519 135.8 110110 1110111 11111111 110110 1110111 11111111 110110 1110111 11111111 1101101011 1010111000 1011101110 1111110010 10000101111 1100101101 1100011011 1100100100 1100001110 24.688 46.509 999.31 134043 23 14 13 60 50 4 $GNGGA,125701.00,4333.69507,N,00128.73519,E,1,05,2.50,135.8,M,53.8,M,,*49
133 12 57 02 4333.6951000128.73488135.9ó 00128.73488 135.9 110110 1110111 11111111 110110 1110111 11111111 110110 1110111 11111111 1101101011 1010111100 1011110000 1111110010 10000101101 1100101101 1100010111 1100101100 1100001110 24.750 46.517 999.32 135044 22 16 13 59 50 5 $GNGGA,125702.00,4333.69510,N,00128.73488,E,1,05,2.50,135.9,M,53.8,M,,*44
134 12 57 03 4333.6950900128.73562135.9ó 00128.73562 135.9 110110 1110111 11111111 110110 1110111 11111111 110110 1110111 11111111 1101101011 1010111101 1011110001 1111101011 10000101101 1100101000 1100010101 1100100101 1100001111 24.750 46.532 999.32 136041 22 15 14 60 51 3 $GNGGA,125703.00,4333.69509,N,00128.73562,E,1,05,2.50,135.9,M,53.8,M,,*48
135 12 57 04 4333.6959700128.73556135.8ó 00128.73556 135.8 110110 1110111 11111111 110110 1110111 11111111 110110 1110111 11111111 1101101011 1010111011 1011101110 1111101110 10000101111 1100101111 1100011010 1100100110 1100001110 24.750 46.540 999.32 137040 21 14 14 58 51 4 $GNGGA,125704.00,4333.69597,N,00128.73556,E,1,05,2.50,135.8,M,53.8,M,,*4E
136 12 57 05 4333.6959000128.73583135.9ó 00128.73583 135.9 110110 1110111 11111111 110110 1110111 11111111 110110 1110111 11111111 1101101011 1010111100 1011110010 1111101110 10000101101 1100101011 1100011011 1100101100 1100010110 24.750 46.547 999.32 138040 23 15 13 58 52 4 $GNGGA,125705.00,4333.69590,N,00128.73583,E,1,05,2.50,135.9,M,53.8,M,,*41
137 12 57 06 4333.6963400128.73658135.9ó 00128.73658 135.9 110110 1110111 11111111 110110 1110111 11111111 110110 1110111 11111111 1101101011 1010111010 1011110010 1111101010 10000101110 1100110000 1100011000 1100100010 1100010000 24.750 46.547 999.32 139036 23 14 13 60 50 4 $GNGGA,125706.00,4333.69634,N,00128.73658,E,1,05,2.50,135.9,M,53.8,M,,*4A
138 12 57 07 4333.6948100128.73691136.2ó 00128.73691 136.2 110110 1110111 11111111 110110 1110111 11111111 110110 1110111 11111111 1101101011 1010111011 1011110010 1111101111 10000101110 1100101111 1100011010 1100100110 1100011010 24.813 46.547 999.32 140037 22 15 13 58 51 5 $GNGGA,125707.00,4333.69481,N,00128.73691,E,1,05,2.50,136.2,M,53.8,M,,*4A
139 12 57 08 4333.6931900128.73833136.4ó 00128.73833 136.4 110110 1110111 11111111 110110 1110111 11111111 110110 1110111 11111111 1101101011 1010111011 1011110000 1111101101 10000101100 1100110010 1100010111 1100011011 1100010000 24.813 46.547 999.30 141036 23 14 13 60 50 4 $GNGGA,125708.00,4333.69319,N,00128.73833,E,1,05,2.50,136.4,M,53.8,M,,*43
140 12 57 09 4333.6929600128.73882136.5ó 00128.73882 136.5 110110 1110111 11111111 110110 1110111 11111111 110110 1110111 11111111 1101101011 1010111011 1011110001 1111110001 10000101111 1100101110 1100010110 1100100010 1100010101 24.813 46.540 999.30 142034 22 14 14 58 51 4 $GNGGA,125709.00,4333.69296,N,00128.73882,E,1,05,2.50,136.5,M,53.8,M,,*4F
141 12 57 10 4333.6924500128.73914136.4ó 00128.73914 136.4 110110 1110111 11111111 110110 1110111 11111111 110110 1110111 11111111 1101101011 1010111011 1011110001 1111101001 10000101010 1100110011 1100011001 1100100100 1100010010 24.813 46.532 999.30 143035 22 15 14 60 50 4 $GNGGA,125710.00,4333.69245,N,00128.73914,E,1,05,2.50,136.4,M,53.8,M,,*46
142 12 57 11 4333.6925600128.73899136.5ó 00128.73899 136.5 110110 1110111 11111111 110110 1110111 11111111 110110 1110111 11111111 1101101011 1010111101 1011110001 1111110011 10000110001 1100101001 1100011000 1100100111 1100010111 24.750 46.525 999.31 144034 21 15 15 59 51 3 $GNGGA,125711.00,4333.69256,N,00128.73899,E,1,05,2.50,136.5,M,53.8,M,,*40
143 12 57 12 4333.6923700128.73997136.7ó 00128.73997 136.7 110110 1110111 11111111 110110 1110111 11111111 110110 1110111 11111111 1101101011 1010111101 1011110011 1111110100 10000101110 1100101010 1100011000 1100100100 1100001101 24.750 46.502 999.31 145033 21 16 14 59 52 3 $GNGGA,125712.00,4333.69237,N,00128.73997,E,1,05,2.50,136.7,M,53.8,M,,*49
144 12 57 13 4333.6925000128.74047136.7ó 00128.74047 136.7 110110 1110111 11111111 110110 1110111 11111111 110110 1110111 11111111 1101101011 1010111001 1011101111 1111110100 10000101101 1100110010 1100011101 1100100101 1100010010 24.813 46.471 999.32 146030 23 14 13 60 50 4 $GNGGA,125713.00,4333.69250,N,00128.74047,E,1,05,2.50,136.7,M,53.8,M,,*4A
145 12 57 14 4333.6920100128.74009136.7ó 00128.74009 136.7 110110 1110111 11111111 110110 1110111 11111111 110110 1110111 11111111 1101101011 1010111001 1011110000 1111110100 10000101111 1100101110 1100011011 1100100001 1100001111 24.813 46.410 999.32 147031 21 15 15 59 51 3 $GNGGA,125714.00,4333.69201,N,00128.74009,E,1,05,2.50,136.7,M,53.8,M,,*43
146 12 57 15 4333.6916400128.74036136.8ó 00128.74036 136.8 110110 1110111 11111111 110110 1110111 11111111 110110 1110111 11111111 1101101011 1010110111 1011101111 1111101111 10000101111 1100101101 1100010110 1100100000 1100001101 24.750 46.410 999.31 148030 22 15 14 60 51 3 $GNGGA,125715.00,4333.69164,N,00128.74036,E,1,05,2.50,136.8,M,53.8,M,,*41
147 12 57 16 4333.6914500128.74063136.8ó 00128.74063 136.8 110110 1110111 11111111 110110 1110111 11111111 110110 1110111 11111111 1101101011 1010111001 1011110000 1111110101 10000110001 1100101010 1100010110 1100100111 1100010111 24.813 46.448 999.32 149028 21 15 15 59 51 3 $GNGGA,125716.00,4333.69145,N,00128.74063,E,1,05,2.50,136.8,M,53.8,M,,*41
148 12 57 17 4333.6919700128.74064136.9ó 00128.74064 136.9 110110 1110111 11111111 110110 1110111 11111111 110110 1110111 11111111 1101101011 1010111001 1011101110 1111101011 10000101011 1100101101 1100010111 1100100101 1100001101 24.750 46.395 999.32 150026 23 16 13 59 51 4 $GNGGA,125717.00,4333.69197,N,00128.74064,E,1,05,2.50,136.9,M,53.8,M,,*49
149 12 57 18 4333.6922500128.74037137.0ó 00128.74037 137.0 110110 1110111 11111111 110110 1110111 11111111 110110 1110111 11111111 1101101011 1010111011 1011110001 1111101111 10000101101 1100101111 1100011010 1100110000 1100011001 24.813 46.349 999.32 151026 23 14 13 60 50 4 $GNGGA,125718.00,4333.69225,N,00128.74037,E,1,05,2.50,137.0,M,53.8,M,,*42
