id HH MM SS longitude latitude altitude adc_1_ch0 adc_1_ch1 adc_1_ch2 adc_1_ch3 adc_1_ch4 adc_1_ch5 adc_1_ch6 adc_1_ch7 adc_1_ch8 adc_2_ch0 adc_2_ch1 adc_2_ch2 adc_2_ch3 adc_2_ch4 adc_2_ch5 adc_2_ch6 adc_2_ch7 adc_2_ch8 temp hum pres t_prog t_gps t_split t_adc t_temp t_hum t_pres trame_gga
1 12 57 35 4333.6936900128.74011136.9ó 00128.74011 136.9 110110 1110111 11111111 110110 1110111 11111111 110110 1110111 11111111 1101101011 1010111010 1011101111 1111110001 10000101111 1100100110 1100011000 1100100101 1100010010 24.813 46.525 795.83 3104 21 15 15 59 51 3 $GNGGA,125735.00,4333.69369,N,00128.74011,E,1,04,8.64,136.9,M,53.8,M,,*44
2 12 57 36 4333.6930900128.73974137.0ó 00128.73974 137.0 110110 1110111 11111111 110110 1110111 11111111 110110 1110111 11111111 1101101011 1010111001 1011101110 1111110100 10000101101 1100110000 1100010100 1100101011 1100011010 24.813 46.555 999.27 4105 23 15 13 59 51 4 $GNGGA,125736.00,4333.69309,N,00128.73974,E,1,04,8.64,137.0,M,53.8,M,,*44
3 12 57 37 4333.6935800128.74060137.1ó 00128.74060 137.1 110110 1110111 11111111 110110 1110111 11111111 110110 1110111 11111111 1101101011 1010111011 1011110001 1111110101 10000110000 1100101100 1100011010 1100100110 1100010000 24.813 46.540 999.28 5104 22 15 14 60 51 3 $GNGGA,125737.00,4333.69358,N,00128.74060,E,1,04,8.64,137.1,M,53.8,M,,*4B
4 12 57 38 4333.6930300128.74054137.0ó 00128.74054 137.0 110110 1110111 11111111 110110 1110111 11111111 110110 1110111 11111111 1101101011 1010111011 1011101110 1111111000 10000101110 1100110001 1100011011 1100100100 1100010011 24.813 46.593 999.29 6103 21 15 14 58 51 4 $GNGGA,125738.00,4333.69303,N,00128.74054,E,1,04,8.64,137.0,M,53.8,M,,*4C
5 12 57 39 4333.6937300128.74004137.0ó 00128.74004 137.0 110110 1110111 11111111 110110 1110111 11111111 110110 1110111 11111111 1101101011 1010111110 1011110000 1111110110 10000101011 1100101001 1100010101 1100100111 1100001011 24.813 46.616 999.30 7102 22 15 14 60 51 3 $GNGGA,125739.00,4333.69373,N,00128.74004,E,1,04,8.63,137.0,M,53.8,M,,*48
6 12 57 40 4333.6935900128.73878137.1ó 00128.73878 137.1 110110 1110111 11111111 110110 1110111 11111111 110110 1110111 11111111 1101101011 1010110101 1011101011 1111110111 10000101110 1100101010 1100010111 1100100110 1100001101 24.750 46.532 999.29 8101 22 14 14 59 50 4 $GNGGA,125740.00,4333.69359,N,00128.73878,E,1,04,8.63,137.1,M,53.8,M,,*4B
7 12 57 41 4333.6935600128.73757137.1ó 00128.73757 137.1 110110 1110111 11111111 110110 1110111 11111111 110110 1110111 11111111 1101101011 1010111101 1011110000 1111110000 10000101100 1100101100 1100011000 1100100010 1100001111 24.813 46.471 999.29 9101 22 15 13 58 52 4 $GNGGA,125741.00,4333.69356,N,00128.73757,E,1,04,8.63,137.1,M,53.8,M,,*47
8 12 57 42 4333.6935800128.73676137.2ó 00128.73676 137.2 110110 1110111 11111111 110110 1110111 11111111 110110 1110111 11111111 1101101011 1010111010 1011101110 1111110101 10000101100 1100101101 1100010101 1100100001 1100001100 24.750 46.425 999.30 10099 22 15 14 60 51 3 $GNGGA,125742.00,4333.69358,N,00128.73676,E,1,04,8.63,137.2,M,53.8,M,,*4B
9 12 57 43 4333.6934300128.73740137.2ó 00128.73740 137.2 110110 1110111 11111111 110110 1110111 11111111 110110 1110111 11111111 1101101011 1010111010 1011101110 1111110011 10000101100 1100101110 1100010111 1100100001 1100010100 24.750 46.464 999.30 11098 21 16 14 59 51 4 $GNGGA,125743.00,4333.69343,N,00128.73740,E,1,04,8.62,137.2,M,53.8,M,,*45
10 12 57 44 4333.6936200128.73687137.4ó 00128.73687 137.4 110110 1110111 11111111 110110 1110111 11111111 110110 1110111 11111111 1101101011 1011000000 1011110010 1111111001 10000101101 1100100110 1100011000 1100100101 1100010110 24.750 46.517 999.30 12097 22 15 14 60 51 3 $GNGGA,125744.00,4333.69362,N,00128.73687,E,1,04,8.62,137.4,M,53.8,M,,*4D
11 12 57 45 4333.6930600128.73632137.4ó 00128.73632 137.4 110110 1110111 11111111 110110 1110111 11111111 110110 1110111 11111111 1101101011 1010111010 1011101111 1111110101 10000101111 1100101010 1100010100 1100100100 1100010010 24.750 46.570 999.31 13095 22 14 14 59 50 4 $GNGGA,125745.00,4333.69306,N,00128.73632,E,1,04,8.62,137.4,M,53.8,M,,*40
12 12 57 46 4333.6930900128.73647137.5ó 00128.73647 137.5 110110 1110111 11111111 110110 1110111 11111111 110110 1110111 11111111 1101101011 1010111111 1011110000 1111110011 10000101101 1100101011 1100010111 1100100100 1100010100 24.750 46.601 999.30 14093 22 16 14 59 52 3 $GNGGA,125746.00,4333.69309,N,00128.73647,E,1,04,8.62,137.5,M,53.8,M,,*4F
13 12 57 47 4333.6932100128.73659137.7ó 00128.73659 137.7 110110 1110111 11111111 110110 1110111 11111111 110110 1110111 11111111 1101101011 1010111101 1011101111 1111110101 10000101111 1100101011 1100011100 1100100001 1100010011 24.750 46.593 999.30 15094 21 15 15 59 51 3 $GNGGA,125747.00,4333.69321,N,00128.73659,E,1,04,8.62,137.7,M,53.8,M,,*49
14 12 57 48 4333.6923800128.73600138.0ó 00128.73600 138.0 110110 1110111 11111111 110110 1110111 11111111 110110 1110111 11111111 1101101011 1010111100 1011101111 1111111000 10000101111 1100101001 1100010101 1100100111 1100011010 24.750 46.631 999.30 16094 21 16 14 59 52 3 $GNGGA,125748.00,4333.69238,N,00128.73600,E,1,04,8.61,138.0,M,53.8,M,,*48
15 12 57 49 4333.6924300128.73637138.0ó 00128.73637 138.0 110110 1110111 11111111 110110 1110111 11111111 110110 1110111 11111111 1101101100 1010111101 1011101111 1111111000 10000101110 1100101010 1100010111 1100100111 1100001110 24.688 46.608 999.30 17092 22 15 14 60 51 3 $GNGGA,125749.00,4333.69243,N,00128.73637,E,1,04,8.61,138.0,M,53.8,M,,*41
16 12 57 50 4333.6926300128.73671138.3ó 00128.73671 138.3 110110 1110111 11111111 110110 1110111 11111111 110110 1110111 11111111 1101101011 1010110111 1011101111 1111111011 10000110000 1100101101 1100011010 1100100111 1100010001 24.750 46.570 999.31 18092 21 16 15 59 51 3 $GNGGA,125750.00,4333.69263,N,00128.73671,E,1,04,8.61,138.3,M,53.8,M,,*4A
17 12 57 51 4333.6928700128.73603138.6ó 00128.73603 138.6 110110 1110111 11111111 110110 1110111 11111111 110110 1110111 11111111 1101101011 1010111010 1011110000 1111110011 10000101100 1100101111 1100011100 1100101000 1100001111 24.750 46.570 999.30 19091 23 15 13 60 50 4 $GNGGA,125751.00,4333.69287,N,00128.73603,E,1,04,8.61,138.6,M,53.8,M,,*41
18 12 57 52 4333.6925000128.73646138.9ó 00128.73646 138.9 110110 1110111 11111111 110110 1110111 11111111 110110 1110111 11111111 1101101011 1010111100 1011101111 1111110110 10000101100 1100110000 1100011010 1100100101 1100001101 24.813 46.563 999.30 20089 21 14 14 58 51 4 $GNGGA,125752.00,4333.69250,N,00128.73646,E,1,04,8.60,138.9,M,53.8,M,,*47
19 12 57 53 4333.6931100128.73678139.2ó 00128.73678 139.2 110110 1110111 11111111 110110 1110111 11111111 110110 1110111 11111111 1101101011 1010111100 1011110010 1111111011 10000110001 1100101010 1100010110 1100011011 1100001001 24.750 46.570 999.31 21088 22 16 14 59 51 4 $GNGGA,125753.00,4333.69311,N,00128.73678,E,1,04,8.60,139.2,M,53.8,M,,*45
20 12 57 54 4333.6933300128.73709139.5ó 00128.73709 139.5 110110 1110111 11111111 110110 10000000 0 110110 1110111 11111111 1101101011 1010111110 1011110000 1111111000 10000110000 1100110010 1100011101 1100100001 1100001111 24.750 46.608 999.29 22087 23 15 13 60 50 4 $GNGGA,125754.00,4333.69333,N,00128.73709,E,1,04,8.60,139.5,M,53.8,M,,*42
21 12 57 55 4333.6935100128.73802139.6ó 00128.73802 139.6 110110 1110111 11111111 110110 1110111 11111111 110110 1110111 11111111 1101101011 1010111111 1011110010 1111110111 10000101110 1100101110 1100011010 1100100010 1100010011 24.750 46.639 999.30 23086 21 15 13 58 51 5 $GNGGA,125755.00,4333.69351,N,00128.73802,E,1,04,8.60,139.6,M,53.8,M,,*40
22 12 57 56 4333.6937100128.73891139.9ó 00128.73891 139.9 110110 1110111 11111111 110110 1110111 11111111 110110 1110111 11111111 1101101011 1010111011 1011110010 1111110100 10000101110 1100101110 1100010010 1100100111 1100010110 24.750 46.654 999.30 24085 22 15 14 60 51 3 $GNGGA,125756.00,4333.69371,N,00128.73891,E,1,04,8.59,139.9,M,53.8,M,,*4E
23 12 57 57 4333.6937400128.73909138.9ó 00128.73909 138.9 110110 1110111 11111111 110110 1110111 11111111 110110 1110111 11111111 1101101011 1010111100 1011110000 1111110011 10000101111 1100110000 1100011100 1100011111 1100000111 24.750 46.677 999.30 25081 21 14 14 58 51 4 $GNGGA,125757.00,4333.69374,N,00128.73909,E,1,03,1.92,138.9,M,53.8,M,,*42
24 12 57 58 4333.6944500128.73974139.1ó 00128.73974 139.1 110110 1110111 11111111 110110 1110111 11111111 110110 1110111 11111111 1101101011 1010111000 1011101101 1111110010 10000101111 1100101010 1100010110 1100100100 1100001111 24.750 46.647 999.31 26083 22 16 14 59 52 3 $GNGGA,125758.00,4333.69445,N,00128.73974,E,1,04,8.59,139.1,M,53.8,M,,*42
25 12 57 59 4333.6942300128.73932139.3ó 00128.73932 139.3 110110 1110111 11111111 110110 1110111 11111111 110110 1110111 11111111 1101101011 1010111011 1011101111 1111110101 10000101111 1100101100 1100010111 1100011111 1100001011 24.813 46.616 999.31 27082 21 14 14 58 51 4 $GNGGA,125759.00,4333.69423,N,00128.73932,E,1,04,8.59,139.3,M,53.8,M,,*43
26 12 58 00 4333.6938800128.73791139.4ó 00128.73791 139.4 110110 1110111 11111111 110110 1110111 11111111 110110 1110111 11111111 1101101011 1010111100 1011101111 1111110011 10000101110 1100101000 1100011001 1100100011 1100010000 24.813 46.593 999.30 28081 21 16 14 59 52 3 $GNGGA,125800.00,4333.69388,N,00128.73791,E,1,03,1.92,139.4,M,53.8,M,,*4F
27 12 58 01 4333.6936500128.73759139.2ó 00128.73759 139.2 110110 1110111 11111111 110110 1110111 11111111 110110 1110111 11111111 1101101011 1010111100 1011101111 1111111000 10000110001 1100101110 1100011100 1100100001 1100010101 24.813 46.578 999.31 29079 22 14 13 60 50 4 $GNGGA,125801.00,4333.69365,N,00128.73759,E,1,03,1.92,139.2,M,53.8,M,,*4F
28 12 58 02 4333.6934000128.73817139.2ó 00128.73817 139.2 110110 1110111 11111111 110110 1110111 11111111 110110 1110111 11111111 1101101011 1010111010 1011110000 1111110100 10000101101 1100101001 1100010101 1100011111 1100001001 24.750 46.593 999.30 30078 21 14 14 58 51 4 $GNGGA,125802.00,4333.69340,N,00128.73817,E,1,03,1.92,139.2,M,53.8,M,,*4E
29 12 58 03 4333.6931100128.73830139.0ó 00128.73830 139.0 110110 1110111 11111111 110110 1110111 11111111 110110 1110111 11111111 1101101011 1010111001 1011110000 1111110010 10000101110 1100101000 1100010101 1100100100 1100010001 24.750 46.624 999.28 31078 22 15 14 60 50 4 $GNGGA,125803.00,4333.69311,N,00128.73830,E,1,03,1.92,139.0,M,53.8,M,,*4C
30 12 58 04 4333.6929200128.73763139.0ó 00128.73763 139.0 110110 1110111 11111111 110110 1110111 11111111 110110 1110111 11111111 1101101011 1010111001 1011101101 1111110110 10000101111 1100101100 1100010111 1100100110 1100001010 24.750 46.586 999.29 32074 21 15 15 59 51 3 $GNGGA,125804.00,4333.69292,N,00128.73763,E,1,03,1.92,139.0,M,53.8,M,,*48
31 12 58 05 4333.6934500128.73943138.8ó 00128.73943 138.8 110110 1110111 11111111 110110 1110111 11111111 110110 1110111 11111111 1101101100 1010111111 1011110010 1111101101 10000101101 1100110010 1100100000 1100100000 1100001111 24.750 46.525 999.30 33076 21 16 14 59 52 3 $GNGGA,125805.00,4333.69345,N,00128.73943,E,1,04,8.57,138.8,M,53.8,M,,*40
32 12 58 06 4333.6939500128.73985138.7ó 00128.73985 138.7 110110 10000000 0 110110 1110111 11111111 110110 1110111 11111111 1101101011 1010111011 1011101101 1111110101 10000101111 1100110001 1100011011 1100100110 1100010110 24.750 46.464 999.30 34075 22 15 14 60 51 3 $GNGGA,125806.00,4333.69395,N,00128.73985,E,1,04,8.57,138.7,M,53.8,M,,*4B
33 12 58 07 4333.6935000128.73974138.9ó 00128.73974 138.9 110110 1110111 11111111 110110 1110111 11111111 110110 1110111 11111111 1101101011 1010111100 1011110000 1111110111 10000110000 1100101100 1100011100 1100101000 1100010000 24.813 46.418 999.30 35074 21 15 15 59 51 3 $GNGGA,125807.00,4333.69350,N,00128.73974,E,1,04,8.57,138.9,M,53.8,M,,*43
34 12 58 08 4333.6931600128.73970138.8ó 00128.73970 138.8 110110 1110111 11111111 110110 1110111 11111111 110110 1110111 11111111 1101101011 1010111000 1011110000 1111111000 10000101110 1100101101 1100011000 1100100101 1100010101 24.750 46.402 999.30 36071 22 15 14 60 51 3 $GNGGA,125808.00,4333.69316,N,00128.73970,E,1,03,1.92,138.8,M,53.8,M,,*4C
35 12 58 09 4333.6936700128.74036138.8ó 00128.74036 138.8 110110 1110111 11111111 110110 1110111 11111111 110110 1110111 11111111 1101101011 1010111101 1011110000 1111111001 10000110010 1100101011 1100011000 1100100000 1100001011 24.750 46.410 999.29 37071 21 15 15 59 50 4 $GNGGA,125809.00,4333.69367,N,00128.74036,E,1,03,1.92,138.8,M,53.8,M,,*47
36 12 58 10 4333.6952800128.74253138.7ó 00128.74253 138.7 110110 1110111 11111111 110110 1110111 11111111 110110 1110111 11111111 1101101011 1010111011 1011101110 1111111011 10000110001 1100101111 1100010111 1100100100 1100010011 24.813 46.395 999.29 38070 22 15 13 58 52 4 $GNGGA,125810.00,4333.69528,N,00128.74253,E,1,03,1.92,138.7,M,53.8,M,,*4C
37 12 58 11 4333.6944500128.74273138.8ó 00128.74273 138.8 110110 1110111 11111111 110110 1110111 11111111 110110 1110111 11111111 1101101011 1010111011 1011101111 1111101111 10000101111 1100101100 1100011000 1100100011 1100010011 24.813 46.395 999.29 39069 22 15 14 60 51 3 $GNGGA,125811.00,4333.69445,N,00128.74273,E,1,03,1.92,138.8,M,53.8,M,,*4A
38 12 58 12 4333.6944100128.74271138.8ó 00128.74271 138.8 110110 1110111 11111111 110110 1110111 11111111 110110 1110111 11111111 1101101011 1010111110 1011110011 1111101100 10000101110 1100101100 1100011010 1100011100 1100010000 24.813 46.395 999.30 40068 21 15 13 59 50 5 $GNGGA,125812.00,4333.69441,N,00128.74271,E,1,03,1.92,138.8,M,53.8,M,,*4F
39 12 58 13 4333.6939100128.74212139.0ó 00128.74212 139.0 110110 1110111 11111111 110110 1110111 11111111 110110 1110111 11111111 1101101011 1010111001 1011110000 1111110010 10000101110 1100101100 1100010110 1100100010 1100010011 24.813 46.380 999.29 41066 22 14 13 60 50 4 $GNGGA,125813.00,4333.69391,N,00128.74212,E,1,03,1.92,139.0,M,53.8,M,,*48
40 12 58 14 4333.6947100128.74285139.1ó 00128.74285 139.1 110110 1110111 11111111 110110 1110111 11111111 110110 1110111 11111111 1101101011 1010111001 1011101110 1111111000 10000101111 1100100000 1100001100 1100100000 1100001111 24.813 46.387 999.30 42065 21 14 14 58 51 4 $GNGGA,125814.00,4333.69471,N,00128.74285,E,1,03,1.92,139.1,M,53.8,M,,*49
41 12 58 15 4333.6936200128.74210139.2ó 00128.74210 139.2 110110 1110111 11111111 110110 1110111 11111111 110110 1110111 11111111 1101101011 1010111010 1011110001 1111110111 10000101110 1100110001 1100011011 1100100001 1100001101 24.813 46.387 999.31 43062 22 15 13 58 52 4 $GNGGA,125815.00,4333.69362,N,00128.74210,E,1,03,1.92,139.2,M,53.8,M,,*42
42 12 58 16 4333.6936900128.74208139.0ó 00128.74208 139.0 110110 1110111 11111111 110110 1110111 11111111 110110 1110111 11111111 1101101011 1010111010 1011101101 1111110100 10000101101 1100101010 1100010110 1100100010 1100001111 24.750 46.418 999.30 44064 21 15 15 59 51 3 $GNGGA,125816.00,4333.69369,N,00128.74208,E,1,03,1.92,139.0,M,53.8,M,,*41
43 12 58 17 4333.6938400128.74119138.8ó 00128.74119 138.8 110110 1110111 11111111 110110 1110111 11111111 110110 1110111 11111111 1101101011 1010111001 1011101111 1111110101 10000110000 1100101101 1100010101 1100100101 1100001111 24.813 46.433 999.31 45063 21 16 14 59 52 3 $GNGGA,125817.00,4333.69384,N,00128.74119,E,1,03,1.92,138.8,M,53.8,M,,*49
44 12 58 18 4333.6929400128.74139138.8ó 00128.74139 138.8 110110 1110111 11111111 110110 1110111 11111111 110110 1110111 11111111 1101101011 1010111101 1011110000 1111110110 10000110000 1100101011 1100011000 1100100011 1100001010 24.813 46.479 999.31 46062 22 15 14 60 51 3 $GNGGA,125818.00,4333.69294,N,00128.74139,E,1,03,1.92,138.8,M,53.8,M,,*44
45 12 58 19 4333.6921200128.74105138.4ó 00128.74105 138.4 110110 1100000 0 110110 1110111 11111111 110110 1110111 11111111 1101101011 1010111001 1011101111 1111111000 10000101101 1100101010 1100011101 1100110000 1100011101 24.813 46.525 999.31 47060 21 15 14 59 50 4 $GNGGA,125819.00,4333.69212,N,00128.74105,E,1,03,1.92,138.4,M,53.8,M,,*48
46 12 58 20 4333.6917400128.74089138.4ó 00128.74089 138.4 110110 1110111 11111111 110110 1110111 11111111 110110 1110111 11111111 1101101011 1010110110 1011101110 1111111001 10000110001 1100101001 1100011011 1100100001 1100010011 24.750 46.525 999.31 48059 22 14 13 59 51 4 $GNGGA,125820.00,4333.69174,N,00128.74089,E,1,03,1.92,138.4,M,53.8,M,,*44
47 12 58 21 4333.6916400128.74012138.4ó 00128.74012 138.4 110110 1110111 11111111 110110 1110111 11111111 110110 1110111 11111111 1101101011 1010111011 1011101101 1111110101 10000110000 1100101101 1100011010 1100100001 1100001100 24.750 46.494 999.31 49058 22 14 14 59 50 4 $GNGGA,125821.00,4333.69164,N,00128.74012,E,1,03,1.92,138.4,M,53.8,M,,*46
48 12 58 22 4333.6908400128.73976138.5ó 00128.73976 138.5 110110 1110111 11111111 110110 1110111 11111111 110110 1110111 11111111 1101101011 1010111011 1011110001 1111110101 10000101111 1100101100 1100011100 1100100100 1100001101 24.750 46.502 999.31 50057 21 15 13 58 52 4 $GNGGA,125822.00,4333.69084,N,00128.73976,E,1,03,1.92,138.5,M,53.8,M,,*47
49 12 58 23 4333.6902700128.73968138.4ó 00128.73968 138.4 110110 1110111 11111111 110110 1110111 11111111 110110 1110111 11111111 1101101011 1010111110 1011110011 1111110100 10000101110 1100101100 1100011011 1100101011 1100011000 24.750 46.532 999.31 51056 22 14 13 59 51 4 $GNGGA,125823.00,4333.69027,N,00128.73968,E,1,03,1.92,138.4,M,53.8,M,,*41
50 12 58 24 4333.6900300128.73892138.3ó 00128.73892 138.3 110110 1110111 11111111 110110 1110111 11111111 110110 1110111 11111111 1101101011 1010111001 1011101110 1111110010 10000101111 1100100110 1100010111 1100100101 1100011011 24.750 46.494 999.31 52056 21 15 13 59 50 5 $GNGGA,125824.00,4333.69003,N,00128.73892,E,1,03,1.92,138.3,M,53.8,M,,*43
51 12 58 25 4333.6900200128.73824138.2ó 00128.73824 138.2 110110 10000000 0 110110 1110111 11111111 110110 1110111 11111111 1101101011 1010111101 1011110010 1111110100 10000101011 1100101010 1100011001 1100011111 1100010100 24.750 46.433 999.30 53055 22 15 14 60 51 3 $GNGGA,125825.00,4333.69002,N,00128.73824,E,1,03,1.92,138.2,M,53.8,M,,*4F
52 12 58 26 4333.6895700128.73940138.2ó 00128.73940 138.2 110110 1110111 11111111 110110 1110111 11111111 110110 1110111 11111111 1101101011 1010111000 1011110000 1111101111 10000101101 1100101011 1100010001 1100100010 1100010100 24.750 46.372 999.28 54052 22 14 14 59 50 4 $GNGGA,125826.00,4333.68957,N,00128.73940,E,1,03,1.92,138.2,M,53.8,M,,*47
53 12 58 27 4333.6890600128.73951138.1ó 00128.73951 138.1 110110 1110111 11111111 110110 1110111 11111111 110110 1110111 11111111 1101101011 1010111101 1011110001 1111110101 10000101110 1100110000 1100011000 1100100111 1100011001 24.750 46.334 999.29 55053 22 15 13 59 52 4 $GNGGA,125827.00,4333.68906,N,00128.73951,E,1,03,1.92,138.1,M,53.8,M,,*41
54 12 58 28 4333.6883400128.73955138.0ó 00128.73955 138.0 110110 1110111 11111111 110110 1110111 11111111 110110 1110111 11111111 1101101011 1010111010 1011101101 1111110000 10000101100 1100101001 1100010110 1100100001 1100001010 24.750 46.319 999.29 56052 21 15 15 59 51 3 $GNGGA,125828.00,4333.68834,N,00128.73955,E,1,03,1.92,138.0,M,53.8,M,,*4B
55 12 58 29 4333.6871900128.73900138.1ó 00128.73900 138.1 110110 1110111 11111111 110110 1110111 11111111 110110 1110111 11111111 1101101011 1010111110 1011110000 1111110001 10000101101 1100101111 1100011000 1100100100 1100001010 24.750 46.334 999.28 57051 21 15 13 58 51 5 $GNGGA,125829.00,4333.68719,N,00128.73900,E,1,03,1.92,138.1,M,53.8,M,,*4B
56 12 58 30 4333.6863600128.73780138.3ó 00128.73780 138.3 110110 1110111 11111111 110110 1110111 11111111 110110 1110111 11111111 1101101011 1010111110 1011110001 1111110011 10000101110 1100101001 1100011001 1100100100 1100000100 24.813 46.349 999.28 58049 23 14 13 60 50 4 $GNGGA,125830.00,4333.68636,N,00128.73780,E,1,03,1.92,138.3,M,53.8,M,,*4B
57 12 58 31 4333.6864100128.73744138.2ó 00128.73744 138.2 110110 1110111 11111111 110110 1110111 11111111 110110 1110111 11111111 1101101011 1010111101 1011101100 1111111100 10000110000 1100101010 1100010011 1100100100 1100001100 24.750 46.395 999.29 59049 21 15 15 59 51 3 $GNGGA,125831.00,4333.68641,N,00128.73744,E,1,03,1.92,138.2,M,53.8,M,,*43
58 12 58 32 4333.6863500128.73655138.1ó 00128.73655 138.1 110110 1110111 11111111 110110 1110111 11111111 110110 1110111 11111111 1101101011 1010111100 1011101111 1111111001 10000110001 1100110000 1100011100 1100100011 1100010110 24.750 46.456 999.29 60049 22 15 14 60 51 3 $GNGGA,125832.00,4333.68635,N,00128.73655,E,1,03,1.92,138.1,M,53.8,M,,*41
59 12 58 33 4333.6872000128.73545138.2ó 00128.73545 138.2 110110 1110111 11111111 110110 1110111 11111111 110110 1110111 11111111 1101101011 1010111000 1011101100 1111111001 10000101111 1100101010 1100010111 1100100101 1100010011 24.750 46.486 999.27 61047 22 14 14 59 50 4 $GNGGA,125833.00,4333.68720,N,00128.73545,E,1,03,1.92,138.2,M,53.8,M,,*44
60 12 58 34 4333.6871500128.73459138.5ó 00128.73459 138.5 110110 1110111 11111111 110110 1110111 11111111 110110 1110111 11111111 1101101011 1010111011 1011110001 1111111001 10000110000 1100101101 1100011010 1100101010 1100010010 24.750 46.410 999.28 62048 22 16 14 59 52 3 $GNGGA,125834.00,4333.68715,N,00128.73459,E,1,03,1.92,138.5,M,53.8,M,,*4E
61 12 58 35 4333.6862800128.73451138.8ó 00128.73451 138.8 110110 1110111 11111111 110110 1110111 11111111 110110 1110111 11111111 1101101011 1010111011 1011110000 1111110001 10000101100 1100100110 1100011000 1100100000 1100010000 24.813 46.311 999.28 63045 22 15 14 60 51 3 $GNGGA,125835.00,4333.68628,N,00128.73451,E,1,03,1.92,138.8,M,53.8,M,,*45
62 12 58 36 4333.6858300128.73315138.9ó 00128.73315 138.9 110110 1110111 11111111 110110 1110111 11111111 110110 1110111 11111111 1101101011 1010111011 1011110010 1111110011 10000101111 1100101011 1100011010 1100100111 1100010111 24.813 46.258 999.28 64045 21 15 13 58 51 5 $GNGGA,125836.00,4333.68583,N,00128.73315,E,1,03,1.92,138.9,M,53.8,M,,*42
63 12 58 37 Nan Nan Nan 110110 1110111 11111111 110110 1110111 11111111 110110 1110111 11111111 1101101011 1010111100 1011110001 1111110110 10000101110 1100101011 1100011010 1100100111 1100010101 24.875 46.265 999.28 65028 21 8 10 58 51 5 $GNGGA,125837.00,,,,,0,00,99.9,,,,,,*4B
64 12 58 38 Nan Nan Nan 110110 1110111 11111111 110110 1110111 11111111 110110 1110111 11111111 1101101011 1010111000 1011110000 1111110010 10000101111 1100110001 1100011010 1100100101 1100010011 24.813 46.303 999.28 66028 22 6 11 60 50 4 $GNGGA,125838.00,,,,,0,00,99.9,,,,,,*44
65 12 58 39 Nan Nan Nan 110110 1110111 11111111 110110 1110111 11111111 110110 1110111 11111111 1101101011 1010111011 1011101111 1111101101 10000110000 1100110000 1100011010 1100100010 1100010011 24.875 46.357 999.29 67027 22 7 11 59 50 4 $GNGGA,125839.00,,,,,0,00,99.9,,,,,,*45
66 12 58 40 Nan Nan Nan 110110 1110111 11111111 110110 1110111 11111111 110110 1110111 11111111 1101101011 1010111001 1011101111 1111101001 10000101110 1100101001 1100011010 1100011111 1100001001 24.813 46.372 999.28 68026 22 7 11 60 51 3 $GNGGA,125840.00,,,,,0,00,99.9,,,,,,*4B
67 12 58 41 Nan Nan Nan 110110 1110111 11111111 110110 1110111 11111111 110110 1110111 11111111 1101101011 1010111011 1011110000 1111101100 10000101111 1100101110 1100011010 1100100011 1100010100 24.813 46.296 999.29 69024 23 7 10 59 50 4 $GNGGA,125841.00,,,,,0,00,99.9,,,,,,*4A
68 12 58 42 4333.6826500128.72802139.8ó 00128.72802 139.8 110110 1110111 11111111 110110 1110111 11111111 110110 1110111 11111111 1101101011 1010111000 1011101111 1111101100 10000101110 1100110000 1100011100 1100101000 1100011011 24.750 46.029 999.29 70038 22 15 14 60 50 4 $GNGGA,125842.00,4333.68265,N,00128.72802,E,1,03,1.92,139.8,M,53.8,M,,*42
69 12 58 43 4333.6834100128.72561139.9ó 00128.72561 139.9 110110 1110111 11111111 110110 1110111 11111111 110110 1110111 11111111 1101101011 1010111000 1011101111 1111101100 10000101101 1100101000 1100010010 1100100000 1100010000 24.813 45.762 999.30 71037 21 15 15 59 51 3 $GNGGA,125843.00,4333.68341,N,00128.72561,E,1,03,1.92,139.9,M,53.8,M,,*4D
70 12 58 44 4333.6840000128.72697140.0ó 00128.72697 140.0 110110 1110111 11111111 110110 1110111 11111111 110110 1110111 11111111 1101101011 1010111001 1011101111 1111110011 10000110000 1100101001 1100010010 1100101000 1100010101 24.750 45.548 999.30 72035 23 16 13 59 51 4 $GNGGA,125844.00,4333.68400,N,00128.72697,E,1,03,1.92,140.0,M,53.8,M,,*45
71 12 58 45 Nan Nan Nan 110110 1110111 11111111 110110 1110111 11111111 110110 1110111 11111111 1101101011 1010111001 1011110010 1111110101 10000110000 1100101100 1100010011 1100100011 1100001101 24.750 45.380 999.29 73022 22 7 11 60 51 3 $GNGGA,125845.00,,,,,0,00,99.9,,,,,,*4E
72 12 58 46 Nan Nan Nan 110110 1110111 11111111 110110 1110111 11111111 110110 1110111 11111111 1101101011 1010110111 1011101100 1111110100 10000101110 1100101100 1100011011 1100101001 1100001011 24.813 45.281 999.27 74020 21 7 12 59 51 3 $GNGGA,125846.00,,,,,0,00,99.9,,,,,,*4D
73 12 58 47 Nan Nan Nan 110110 1110111 11111111 110110 1110111 11111111 110110 1110111 11111111 1101101011 1010111010 1011101110 1111110000 10000101111 1100101011 1100010110 1100100110 1100010110 24.813 45.212 999.28 75019 21 7 10 59 52 4 $GNGGA,125847.00,,,,,0,00,99.9,,,,,,*4C
74 12 58 48 Nan Nan Nan 110110 1110111 11111111 110110 1110111 11111111 110110 1110111 11111111 1101101011 1010111001 1011110001 1111110010 10000101110 1100101100 1100011010 1100100011 1100001011 24.813 45.044 999.28 76018 22 7 11 60 51 3 $GNGGA,125848.00,,,,,0,00,99.9,,,,,,*43
75 12 58 49 Nan Nan Nan 110110 1110111 11111111 110110 1110111 11111111 110110 1110111 11111111 1101101011 1010111010 1011110000 1111110110 10000110000 1100101001 1100010110 1100100111 1100010101 24.875 44.968 999.28 77017 21 8 10 58 51 5 $GNGGA,125849.00,,,,,0,00,99.9,,,,,,*42
76 12 58 50 Nan Nan Nan 110110 1110111 11111111 110110 1110111 11111111 110110 1110111 11111111 1101101011 1010111000 1011110000 1111110100 10000101111 1100101111 1100100011 1100011111 1100010000 24.813 44.915 999.28 78016 23 7 10 60 50 4 $GNGGA,125850.00,,,,,0,00,99.9,,,,,,*4A
77 12 58 51 Nan Nan Nan 110110 1110111 11111111 110110 1110111 11111111 110110 1110111 11111111 1101101011 1010111011 1011101111 1111101010 10000101100 1100101010 1100010110 1100100000 1100010110 24.813 44.915 999.28 79015 21 7 12 59 51 3 $GNGGA,125851.00,,,,,0,00,99.9,,,,,,*4B
78 12 58 52 Nan Nan Nan 110110 1100000 0 110110 1110111 11111111 110110 1110111 11111111 1101101011 1010111110 1011110010 1111110100 10000101101 1100101011 1100010100 1100100010 1100010000 24.813 44.945 999.28 80014 22 7 11 59 52 3 $GNGGA,125852.00,,,,,0,00,99.9,,,,,,*48
79 12 58 53 Nan Nan Nan 110110 1110111 11111111 110110 1100000 0 110110 1110111 11111111 1101101011 1010111110 1011110011 1111101100 10000101100 1100101110 1100011011 1100100011 1100011000 24.813 44.983 999.29 81012 22 7 10 58 51 4 $GNGGA,125853.00,,,,,0,00,99.9,,,,,,*49
80 12 58 54 Nan Nan Nan 110110 1110111 11111111 110110 1110111 11111111 110110 1110111 11111111 1101101011 1010111100 1011101110 1111110000 10000101110 1100101100 1100011100 1100100001 1100010001 24.813 45.037 999.30 82012 21 8 11 59 52 3 $GNGGA,125854.00,,,,,0,00,99.9,,,,,,*4E
81 12 58 55 Nan Nan Nan 110110 1110111 11111111 110110 1110111 11111111 110110 1110111 11111111 1101101011 1010111100 1011110010 1111101101 10000101101 1100101010 1100010101 1100100010 1100010101 24.750 45.105 999.31 83010 22 7 11 60 51 3 $GNGGA,125855.00,,,,,0,00,99.9,,,,,,*4F
82 12 58 56 Nan Nan Nan 110110 1110111 11111111 110110 1110111 11111111 110110 1110111 11111111 1101101011 1010111011 1011101110 1111101101 10000101110 1100101011 1100010110 1100100010 1100001101 24.813 45.128 999.30 84011 21 8 12 59 50 4 $GNGGA,125856.00,,,,,0,00,99.9,,,,,,*4C
83 12 58 57 Nan Nan Nan 110110 1110111 11111111 110110 1110111 11111111 110110 1110111 11111111 1101101011 1010111001 1011101111 1111110001 10000101100 1100101100 1100011011 1100100010 1100001111 24.750 45.128 999.29 85016 22 7 11 60 50 4 $GNGGA,125857.00,,,,,0,00,1.70,,,,,,*42
84 12 58 58 Nan Nan Nan 110110 1110111 11111111 110110 1110111 11111111 110110 1110111 11111111 1101101011 1010111001 1011101100 1111110100 10000110000 1100101111 1100010111 1100101100 1100010001 24.875 45.182 999.29 86009 21 7 11 58 51 4 $GNGGA,125858.00,,,,,0,00,8.45,,,,,,*42
85 12 58 59 Nan Nan Nan 110110 1110111 11111111 110110 1110111 11111111 110110 1110111 11111111 1101101011 1010111001 1011101111 1111101111 10000101111 1100110000 1100011010 1100011111 1100001011 24.750 45.266 999.29 87009 21 7 11 59 52 3 $GNGGA,125859.00,,,,,0,00,8.45,,,,,,*43
86 12 59 00 Nan Nan Nan 110110 1110111 11111111 110110 1110111 11111111 110110 1110111 11111111 1101101011 1010111010 1011101110 1111110100 10000110000 1100101001 1100010101 1100101010 1100010111 24.813 45.212 999.30 88005 22 7 10 59 51 4 $GNGGA,125900.00,,,,,0,00,99.9,,,,,,*4E
87 12 59 01 4333.6856400128.72666138.6ó 00128.72666 138.6 110110 1110111 11111111 110110 1110111 11111111 110110 1110111 11111111 1101101011 1010111011 1011101100 1111101111 10000101111 1100101111 1100011001 1100100111 1100010011 24.750 45.113 999.29 89017 22 14 13 60 50 4 $GNGGA,125901.00,4333.68564,N,00128.72666,E,1,03,1.92,138.6,M,53.8,M,,*41
88 12 59 02 4333.6859300128.72644139.4ó 00128.72644 139.4 110110 1110111 11111111 110110 1110111 11111111 110110 1110111 11111111 1101101011 1010111010 1011110000 1111101111 10000101100 1100101110 1100010111 1100100001 1100010001 24.813 45.060 999.28 90017 21 15 15 59 51 3 $GNGGA,125902.00,4333.68593,N,00128.72644,E,1,03,1.92,139.4,M,53.8,M,,*49
89 12 59 03 Nan Nan Nan 110110 1110111 11111111 110110 1110111 11111111 110110 1110111 11111111 1101101011 1010111000 1011101111 1111111010 10000110010 1100101111 1100011011 1100100101 1100010001 24.750 45.029 999.29 91002 21 7 12 59 51 3 $GNGGA,125903.00,,,,,0,00,99.9,,,,,,*4D
90 12 59 04 4333.6855100128.72694140.1ó 00128.72694 140.1 110110 1110111 11111111 110110 1110111 11111111 110110 1110111 11111111 1101101011 1010111101 1011110000 1111110001 10000101100 1100101000 1100010101 1100100011 1100010001 24.875 45.128 999.29 92014 22 14 13 59 51 4 $GNGGA,125904.00,4333.68551,N,00128.72694,E,1,03,1.92,140.1,M,53.8,M,,*47
91 12 59 05 4333.6837300128.72679141.1ó 00128.72679 141.1 110110 1110111 11111111 110110 1110111 11111111 110110 1110111 11111111 1101101011 1011000001 1011110101 1111110101 10000101101 1100101100 1100011011 1100011111 1100010010 24.813 45.350 999.29 93012 22 14 14 59 50 4 $GNGGA,125905.00,4333.68373,N,00128.72679,E,1,03,1.92,141.1,M,53.8,M,,*42
92 12 59 06 4333.6841200128.72836141.2ó 00128.72836 141.2 110110 1110111 11111111 110110 1110111 11111111 110110 1110111 11111111 1101101011 1010111110 1011110000 1111110110 10000101111 1100110001 1100011010 1100100100 1100010011 24.813 45.594 999.28 94011 22 15 14 60 51 3 $GNGGA,125906.00,4333.68412,N,00128.72836,E,1,03,1.92,141.2,M,53.8,M,,*47
93 12 59 07 Nan Nan Nan 110110 1110111 11111111 110110 1110111 11111111 110110 1110111 11111111 1101101011 1010111100 1011110001 1111110001 10000101110 1100101000 1100010011 1100101011 1100011001 24.813 45.907 999.28 94998 22 7 11 60 51 3 $GNGGA,125907.00,,,,,0,00,99.9,,,,,,*49
94 12 59 08 4333.6822500128.73013141.7ó 00128.73013 141.7 110110 1110111 11111111 110110 1110111 11111111 110110 1110111 11111111 1101101011 1010111101 1011110000 1111111010 10000101110 1100101010 1100011100 1100100011 1100010010 24.813 46.090 999.28 96011 23 15 13 59 51 4 $GNGGA,125908.00,4333.68225,N,00128.73013,E,1,03,1.92,141.7,M,53.8,M,,*40
95 12 59 09 4333.6826000128.73200141.9ó 00128.73200 141.9 110110 1110111 11111111 110110 10000000 0 110110 1110111 11111111 1101101010 1010111100 1011101111 1111110100 10000101110 1100110010 1100011111 1100100111 1100010100 24.813 46.197 999.27 97009 22 15 14 60 51 3 $GNGGA,125909.00,4333.68260,N,00128.73200,E,1,03,1.92,141.9,M,53.8,M,,*4E
96 12 59 10 4333.6835400128.73235142.0ó 00128.73235 142.0 110110 1110111 11111111 110110 1110111 11111111 110110 1110111 11111111 1101101011 1010110110 1011101110 1111110010 10000101110 1100101100 1100011010 1100100100 1100010010 24.750 46.227 999.27 98009 22 15 13 59 50 5 $GNGGA,125910.00,4333.68354,N,00128.73235,E,1,03,1.92,142.0,M,53.8,M,,*4C
97 12 59 11 Nan Nan Nan 110110 1110111 11111111 110110 1110111 11111111 110110 1110111 11111111 1101101011 1010111011 1011101111 1111110110 10000110000 1100101100 1100011110 1100011110 1100001100 24.813 46.250 999.28 98997 21 7 11 59 52 3 $GNGGA,125911.00,,,,,0,00,1.92,,,,,,*4D
98 12 59 12 Nan Nan Nan 110110 1110111 11111111 110110 1110111 11111111 110110 1110111 11111111 1101101011 1010111011 1011101110 1111110101 10000101100 1100101001 1100010111 1100100011 1100010000 24.813 46.265 999.27 99993 22 7 11 60 51 3 $GNGGA,125912.00,,,,,0,00,99.9,,,,,,*4D
99 12 59 13 Nan Nan Nan 110110 1110111 11111111 110110 1110111 11111111 110110 1110111 11111111 1101101100 1010111000 1011101110 1111110110 10000101111 1100101001 1100010110 1100101001 1100010001 24.750 46.303 999.27 100992 21 8 12 59 50 4 $GNGGA,125913.00,,,,,0,00,99.9,,,,,,*4C
100 12 59 14 Nan Nan Nan 110110 1110111 11111111 110110 1110111 11111111 110110 1110111 11111111 1101101011 1010111000 1011101011 1111110110 10000110001 1100101110 1100011110 1100100101 1100001111 24.813 46.334 999.27 101991 23 7 10 60 50 4 $GNGGA,125914.00,,,,,0,00,99.9,,,,,,*4B
101 12 59 15 4333.6836900128.73306134.8ó 00128.73306 134.8 110110 1110111 11111111 110110 1110111 11111111 110110 1110111 11111111 1101101011 1010111100 1011101111 1111110101 10000101110 1100101001 1100010011 1100100000 1100010011 24.813 46.357 999.27 103005 21 15 13 58 52 4 $GNGGA,125915.00,4333.68369,N,00128.73306,E,1,04,8.42,134.8,M,53.8,M,,*4C
102 12 59 16 4333.6835800128.73571134.0ó 00128.73571 134.0 110110 1110111 11111111 110110 1110111 11111111 110110 1110111 11111111 1101101011 1010111110 1011110001 1111111001 10000110010 1100101011 1100010111 1100100110 1100010010 24.750 46.410 999.27 104003 22 15 14 60 50 4 $GNGGA,125916.00,4333.68358,N,00128.73571,E,1,04,8.41,134.0,M,53.8,M,,*40
103 12 59 17 4333.6835600128.73606133.9ó 00128.73606 133.9 110110 1110111 11111111 110110 1110111 11111111 110110 1110111 11111111 1101101011 1010111011 1011110000 1111110000 10000101110 1100101101 1100011100 1100100111 1100010001 24.750 46.441 999.27 105000 21 15 15 59 51 3 $GNGGA,125917.00,4333.68356,N,00128.73606,E,1,03,4.82,133.9,M,53.8,M,,*46
104 12 59 18 4333.6837500128.73442134.3ó 00128.73442 134.3 110110 1110111 11111111 110110 1110111 11111111 110110 1110111 11111111 1101101011 1010111100 1011110001 1111110111 10000101101 1100100111 1100010110 1100100011 1100001110 24.750 46.433 999.27 106001 22 15 14 60 51 3 $GNGGA,125918.00,4333.68375,N,00128.73442,E,1,04,8.41,134.3,M,53.8,M,,*43
105 12 59 19 4333.6835500128.73521134.6ó 00128.73521 134.6 110110 1110111 11111111 110110 1110111 11111111 110110 1110111 11111111 1101101011 1010111011 1011101111 1111111011 10000101111 1100101001 1100010110 1100100000 1100010110 24.813 46.471 999.29 106999 22 14 14 59 50 4 $GNGGA,125919.00,4333.68355,N,00128.73521,E,1,04,8.41,134.6,M,53.8,M,,*41
106 12 59 20 4333.6835500128.73534134.4ó 00128.73534 134.4 110110 1110111 11111111 110110 1110111 11111111 110110 1110111 11111111 1101101011 1010111010 1011110001 1111110110 10000101111 1100101011 1100010111 1100101010 1100010011 24.750 46.517 999.29 108000 22 16 14 59 51 4 $GNGGA,125920.00,4333.68355,N,00128.73534,E,1,04,8.41,134.4,M,53.8,M,,*4D
107 12 59 21 4333.6852500128.73556133.9ó 00128.73556 133.9 110110 1110111 11111111 110110 10000000 0 110110 1110111 11111111 1101101011 1010111100 1011110000 1111111000 10000110000 1100110000 1100010110 1100011111 1100001010 24.750 46.517 999.29 108998 22 15 14 60 51 3 $GNGGA,125921.00,4333.68525,N,00128.73556,E,1,04,8.40,133.9,M,53.8,M,,*42
108 12 59 22 4333.6860600128.73603133.8ó 00128.73603 133.8 110110 1110111 11111111 110110 1110111 11111111 110110 1110111 11111111 1101101011 1010111101 1011101100 1111110110 10000101110 1100101111 1100011000 1100100101 1100010111 24.750 46.525 999.30 109997 21 16 15 59 51 3 $GNGGA,125922.00,4333.68606,N,00128.73603,E,1,04,8.40,133.8,M,53.8,M,,*41
109 12 59 23 4333.6864900128.73712133.7ó 00128.73712 133.7 110110 1110111 11111111 110110 1110111 11111111 110110 1110111 11111111 1101101011 1010111011 1011110000 1111110110 10000101100 1100101011 1100011000 1100011111 1100001111 24.750 46.547 999.29 110995 23 14 13 60 50 4 $GNGGA,125923.00,4333.68649,N,00128.73712,E,1,04,8.40,133.7,M,53.8,M,,*45
110 12 59 24 4333.6857400128.73547133.9ó 00128.73547 133.9 110110 1110111 11111111 110110 1110111 11111111 110110 1110111 11111111 1101101011 1010111010 1011110000 1111110001 10000101110 1100101100 1100010111 1100101011 1100010101 24.813 46.555 999.29 111993 21 15 15 59 51 3 $GNGGA,125924.00,4333.68574,N,00128.73547,E,1,04,8.40,133.9,M,53.8,M,,*43
111 12 59 25 4333.6857500128.73411133.7ó 00128.73411 133.7 110110 1110111 11111111 110110 1110111 11111111 110110 1110111 11111111 1101101011 1010111000 1011101100 1111110011 10000110000 1100101100 1100011100 1100100111 1100010100 24.813 46.578 999.29 112994 22 16 14 59 52 3 $GNGGA,125925.00,4333.68575,N,00128.73411,E,1,04,8.40,133.7,M,53.8,M,,*4F
112 12 59 26 4333.6857200128.73372133.5ó 00128.73372 133.5 110110 1110111 11111111 110110 1110111 11111111 110110 1110111 11111111 1101101011 1010111111 1011101110 1111101111 10000101101 1100110010 1100011100 1100100110 1100001110 24.813 46.593 999.29 113992 23 14 13 60 50 4 $GNGGA,125926.00,4333.68572,N,00128.73372,E,1,04,8.39,133.5,M,53.8,M,,*45
113 12 59 27 4333.6869100128.73418133.2ó 00128.73418 133.2 110110 1110111 11111111 110110 1110111 11111111 110110 1110111 11111111 1101101011 1011000000 1011110001 1111110100 10000101110 1100101111 1100011001 1100100110 1100010000 24.813 46.631 999.30 114992 21 16 14 59 51 4 $GNGGA,125927.00,4333.68691,N,00128.73418,E,1,04,8.39,133.2,M,53.8,M,,*46
114 12 59 28 4333.6861600128.73259133.2ó 00128.73259 133.2 110110 1110111 11111111 110110 1110111 11111111 110110 1110111 11111111 1101101011 1011000000 1011110001 1111110010 10000101101 1100101101 1100011010 1100011110 1100001111 24.750 46.647 999.30 115990 22 15 14 60 51 3 $GNGGA,125928.00,4333.68616,N,00128.73259,E,1,04,8.39,133.2,M,53.8,M,,*45
115 12 59 29 4333.6866800128.73190132.9ó 00128.73190 132.9 110110 1110111 11111111 110110 1110111 11111111 110110 1110111 11111111 1101101011 1010111111 1011110001 1111110101 10000101111 1100101000 1100011000 1100100111 1100010000 24.813 46.670 999.30 116989 21 15 15 59 51 3 $GNGGA,125929.00,4333.68668,N,00128.73190,E,1,04,8.39,132.9,M,53.8,M,,*41
116 12 59 30 4333.6865600128.73188132.8ó 00128.73188 132.8 110110 1110111 11111111 110110 1110111 11111111 110110 1110111 11111111 1101101011 1010111100 1011110000 1111111110 10000110001 1100101011 1100010110 1100101001 1100011010 24.750 46.670 999.30 117989 22 15 14 60 51 3 $GNGGA,125930.00,4333.68656,N,00128.73188,E,1,04,8.39,132.8,M,53.8,M,,*4C
117 12 59 31 4333.6869700128.73196132.6ó 00128.73196 132.6 110110 1110111 11111111 110110 1110111 11111111 110110 1110111 11111111 1101101011 1010111010 1011110000 1111111000 10000101111 1100101111 1100011011 1100101000 1100010011 24.813 46.670 999.29 118986 21 14 14 59 50 4 $GNGGA,125931.00,4333.68697,N,00128.73196,E,1,03,4.82,132.6,M,53.8,M,,*4A
118 12 59 32 4333.6874400128.73112132.3ó 00128.73112 132.3 110110 1110111 11111111 110110 1110111 11111111 110110 1110111 11111111 1101101011 1010111110 1011110010 1111110011 10000101111 1100101110 1100011010 1100100111 1100010000 24.750 46.677 999.29 119986 21 16 14 59 52 3 $GNGGA,125932.00,4333.68744,N,00128.73112,E,1,04,8.38,132.3,M,53.8,M,,*45
119 12 59 33 4333.6876200128.72958132.1ó 00128.72958 132.1 110110 1110111 11111111 110110 1110111 11111111 110110 1110111 11111111 1101101011 1010111000 1011101110 1111111010 10000101111 1100101100 1100010111 1100101010 1100010101 24.750 46.662 999.29 120985 22 15 14 60 51 3 $GNGGA,125933.00,4333.68762,N,00128.72958,E,1,04,8.38,132.1,M,53.8,M,,*45
120 12 59 34 4333.6880200128.72841131.8ó 00128.72841 131.8 110110 1110111 11111111 110110 1110111 11111111 110110 1110111 11111111 1101101011 1010111101 1011110000 1111110011 10000101110 1100110000 1100011000 1100100101 1100010011 24.750 46.677 999.29 121985 21 16 15 59 51 3 $GNGGA,125934.00,4333.68802,N,00128.72841,E,1,04,8.38,131.8,M,53.8,M,,*48
121 12 59 35 Nan Nan Nan 110110 1110111 11111111 110110 1110111 11111111 110110 1110111 11111111 1101101011 1010111110 1011110000 1111110100 10000101110 1100101010 1100010111 1100100110 1100001111 24.813 46.700 999.28 122969 21 8 11 59 51 4 $GNGGA,125935.00,,,,,0,00,99.9,,,,,,*48
122 12 59 36 4333.6900900128.72573131.5ó 00128.72573 131.5 110110 1110111 11111111 110110 1110111 11111111 110110 1110111 11111111 1101101011 1010111101 1011110011 1111101010 10000101001 1100101001 1100010011 1100101001 1100010101 24.813 46.753 999.27 123982 21 14 15 58 51 3 $GNGGA,125936.00,4333.69009,N,00128.72573,E,1,04,8.37,131.5,M,53.8,M,,*46
123 12 59 37 4333.6915900128.72464131.1ó 00128.72464 131.1 110110 1110111 11111111 110110 1110111 11111111 110110 1110111 11111111 1101101011 1010111001 1011110001 1111111000 10000110000 1100101011 1100011001 1100100011 1100010000 24.813 46.776 999.28 124982 22 15 13 58 52 4 $GNGGA,125937.00,4333.69159,N,00128.72464,E,1,03,4.82,131.1,M,53.8,M,,*45
124 12 59 38 4333.6932200128.72452130.7ó 00128.72452 130.7 110110 1110111 11111111 110110 1110111 11111111 110110 1110111 11111111 1101101011 1010111000 1011110000 1111111101 10000110000 1100101100 1100011001 1100100011 1100010101 24.813 46.769 999.29 125979 22 14 13 59 51 4 $GNGGA,125938.00,4333.69322,N,00128.72452,E,1,03,4.82,130.7,M,53.8,M,,*46
125 12 59 39 4333.6946100128.72414130.5ó 00128.72414 130.5 110110 1110111 11111111 110110 1110111 11111111 110110 1110111 11111111 1101101011 1010111101 1011110000 1111111101 10000101111 1100101010 1100011000 1100011110 1100010100 24.750 46.761 999.29 126980 21 16 14 59 50 5 $GNGGA,125939.00,4333.69461,N,00128.72414,E,1,03,4.82,130.5,M,53.8,M,,*47
126 12 59 40 4333.6944400128.72606130.2ó 00128.72606 130.2 110110 1110111 11111111 110110 1110111 11111111 110110 1110111 11111111 1101101011 1011000000 1011110100 1111110110 10000101111 1100100111 1100011010 1100100010 1100010011 24.750 46.761 999.29 127978 23 14 13 60 50 4 $GNGGA,125940.00,4333.69444,N,00128.72606,E,1,04,8.36,130.2,M,53.8,M,,*4C
127 12 59 41 4333.6936800128.72950129.9ó 00128.72950 129.9 110110 1110111 11111111 110110 1110111 11111111 110110 1110111 11111111 1101101011 1010111110 1011110011 1111111101 10000101111 1100101110 1100011000 1100100100 1100010010 24.750 46.753 999.29 128977 21 15 15 59 51 3 $GNGGA,125941.00,4333.69368,N,00128.72950,E,1,04,8.36,129.9,M,53.8,M,,*4B
128 12 59 42 4333.6937400128.73127129.7ó 00128.73127 129.7 110110 1110111 11111111 110110 1110111 11111111 110110 1110111 11111111 1101101011 1011000001 1011110010 1111110110 10000101101 1100101110 1100011000 1100101100 1100011000 24.750 46.769 999.29 129977 23 16 13 60 50 4 $GNGGA,125942.00,4333.69374,N,00128.73127,E,1,04,8.36,129.7,M,53.8,M,,*42
129 12 59 43 4333.6932400128.73250129.5ó 00128.73250 129.5 110110 1110111 11111111 110110 1110111 11111111 110110 1110111 11111111 1101101011 1010111010 1011101111 1111110101 10000101110 1100110000 1100011011 1100100100 1100010010 24.750 46.776 999.29 130975 21 15 15 59 51 3 $GNGGA,125943.00,4333.69324,N,00128.73250,E,1,04,8.36,129.5,M,53.8,M,,*47
130 12 59 44 4333.6926200128.73389129.3ó 00128.73389 129.3 110110 1110111 11111111 110110 1110111 11111111 110110 1110111 11111111 1101101011 1010111000 1011101111 1111110000 10000101101 1100110010 1100011000 1100100001 1100001101 24.813 46.761 999.28 131975 21 15 13 58 52 4 $GNGGA,125944.00,4333.69262,N,00128.73389,E,1,04,8.36,129.3,M,53.8,M,,*40
131 12 59 45 4333.6929600128.73444128.9ó 00128.73444 128.9 110110 1110111 11111111 110110 1110111 11111111 110110 1110111 11111111 1101101011 1010111010 1011110000 1111110010 10000101110 1100101100 1100011100 1100100101 1100011001 24.813 46.731 999.28 132973 22 14 13 59 51 4 $GNGGA,125945.00,4333.69296,N,00128.73444,E,1,04,8.35,128.9,M,53.8,M,,*44
132 12 59 46 4333.6932500128.73572128.4ó 00128.73572 128.4 110110 1110111 11111111 110110 1110111 11111111 110110 1110111 11111111 1101101011 1010111100 1011110000 1111110000 10000101110 1100100110 1100010011 1100100100 1100001011 24.750 46.692 999.29 133970 21 15 15 59 51 3 $GNGGA,125946.00,4333.69325,N,00128.73572,E,1,04,8.35,128.4,M,53.8,M,,*47
133 12 59 47 4333.6922900128.73883128.0ó 00128.73883 128.0 110110 1110111 11111111 110110 1110111 11111111 110110 1110111 11111111 1101101011 1010111000 1011101100 1111110001 10000101111 1100101100 1100011100 1100011101 1100001110 24.813 46.654 999.29 134971 22 14 13 59 51 4 $GNGGA,125947.00,4333.69229,N,00128.73883,E,1,04,8.35,128.0,M,53.8,M,,*4C
134 12 59 48 4333.6916800128.73911127.7ó 00128.73911 127.7 110110 1110111 11111111 110110 1110111 11111111 110110 1110111 11111111 1101101011 1010111011 1011110000 1111101111 10000101110 1100101111 1100011001 1100100001 1100001011 24.750 46.593 999.30 135970 21 15 15 59 51 3 $GNGGA,125948.00,4333.69168,N,00128.73911,E,1,03,4.82,127.7,M,53.8,M,,*40
135 12 59 49 4333.6905400128.74084127.6ó 00128.74084 127.6 110110 1110111 11111111 110110 1110111 11111111 110110 1110111 11111111 1101101011 1010111000 1011101111 1111101011 10000101101 1100101111 1100011011 1100100011 1100011001 24.813 46.517 999.30 136970 22 15 13 58 52 4 $GNGGA,125949.00,4333.69054,N,00128.74084,E,1,03,4.82,127.6,M,53.8,M,,*4C
136 12 59 50 Nan Nan Nan 110110 1110111 11111111 110110 1110111 11111111 110110 1110111 11111111 1101101011 1010111011 1011110001 1111110000 10000101101 1100101011 1100010110 1100100111 1100010110 24.813 46.441 999.29 137955 23 7 10 60 50 4 $GNGGA,125950.00,,,,,0,00,99.9,,,,,,*4B
137 12 59 51 Nan Nan Nan 110110 1110111 11111111 110110 1110111 11111111 110110 1110111 11111111 1101101011 1010111001 1011101111 1111101110 10000101110 1100101001 1100010111 1100101001 1100010110 24.813 46.425 999.29 138954 22 7 11 59 51 3 $GNGGA,125951.00,,,,,0,00,99.9,,,,,,*4A
138 12 59 52 Nan Nan Nan 110110 1110111 11111111 110110 1110111 11111111 110110 1110111 11111111 1101101011 1010111001 1011101110 1111101111 10000101110 1100101101 1100011010 1100100111 1100010100 24.875 46.448 999.29 139954 21 7 11 59 52 3 $GNGGA,125952.00,,,,,0,00,99.9,,,,,,*49
139 12 59 53 Nan Nan Nan 110110 1110111 11111111 110110 1110111 11111111 110110 1110111 11111111 1101101011 1010111010 1011101101 1111110001 10000101110 1100101110 1100011000 1100100100 1100001011 24.813 46.441 999.29 140951 22 7 11 60 51 3 $GNGGA,125953.00,,,,,0,00,99.9,,,,,,*48
140 12 59 54 Nan Nan Nan 110110 1110111 11111111 110110 1110111 11111111 110110 1110111 11111111 1101101011 1010111100 1011101110 1111101110 10000101101 1100101001 1100011011 1100101100 1100010000 24.813 46.395 999.27 141950 21 7 11 59 51 4 $GNGGA,125954.00,,,,,0,00,99.9,,,,,,*4F
141 12 59 55 Nan Nan Nan 110110 1110111 11111111 110110 1110111 11111111 110110 1110111 11111111 1101101011 1010111001 1011101111 1111110100 10000110000 1100101011 1100011011 1100100001 1100010000 24.813 46.341 999.26 142949 23 7 10 60 50 4 $GNGGA,125955.00,,,,,0,00,99.9,,,,,,*4E
142 12 59 56 Nan Nan Nan 110110 1110111 11111111 110110 1110111 11111111 110110 1110111 11111111 1101101011 1010111001 1011101111 1111101111 10000110000 1100101010 1100010100 1100011100 1100010000 24.813 46.334 999.28 143947 23 7 10 58 51 4 $GNGGA,125956.00,,,,,0,00,99.9,,,,,,*4D
143 12 59 57 Nan Nan Nan 110110 1110111 11111111 110110 1110111 11111111 110110 1110111 11111111 1101101011 1010111111 1011110100 1111110111 10000101111 1100101011 1100011000 1100100111 1100001111 24.813 46.311 999.29 144947 21 7 11 59 52 3 $GNGGA,125957.00,,,,,0,00,99.9,,,,,,*4C
144 12 59 58 Nan Nan Nan 110110 1110111 11111111 110110 1100000 0 110110 1110111 11111111 1101101011 1010111101 1011110010 1111110010 10000101110 1100101101 1100010111 1100100011 1100010010 24.813 46.212 999.30 145945 21 6 11 60 50 4 $GNGGA,125958.00,,,,,0,00,99.9,,,,,,*43
145 12 59 59 Nan Nan Nan 110110 1110111 11111111 110110 1110111 11111111 110110 1110111 11111111 1101101011 1010110111 1011101101 1111110010 10000110000 1100101101 1100010100 1100011011 1100010000 24.813 46.158 999.30 146947 22 8 10 59 50 5 $GNGGA,125959.00,,,,,0,00,4.82,,,,,,*45
146 13 00 00 Nan Nan Nan 110110 1110111 11111111 110110 1110111 11111111 110110 1110111 11111111 1101101011 1010111100 1011101111 1111110100 10000101100 1100101111 1100011000 1100100001 1100010000 24.813 46.135 999.29 147946 23 7 10 59 51 4 $GNGGA,130000.00,,,,,0,00,4.82,,,,,,*44
147 13 00 01 Nan Nan Nan 110110 1110111 11111111 110110 1110111 11111111 110110 1110111 11111111 1101101011 1010111001 1011101111 1111101111 10000101011 1100101001 1100010100 1100100100 1100010001 24.813 46.128 999.29 148945 21 7 12 59 51 3 $GNGGA,130001.00,,,,,0,00,4.82,,,,,,*45
148 13 00 02 Nan Nan Nan 110110 1110111 11111111 110110 1110111 11111111 110110 1110111 11111111 1101101011 1010111011 1011101111 1111110000 10000101110 1100101100 1100010111 1100100000 1100001010 24.750 46.166 999.30 149944 22 6 11 60 50 4 $GNGGA,130002.00,,,,,0,00,4.82,,,,,,*46
149 13 00 03 Nan Nan Nan 110110 1110111 11111111 110110 1110111 11111111 110110 1110111 11111111 1101101011 1010111011 1011110001 1111101011 10000101110 1100101101 1100010110 1100100110 1100010110 24.813 46.235 999.29 150942 22 6 11 59 50 4 $GNGGA,130003.00,,,,,0,00,4.82,,,,,,*47
150 13 00 04 Nan Nan Nan 110110 1110111 11111111 110110 1110111 11111111 110110 1110111 11111111 1101101011 1010111100 1011101111 1111101101 10000110000 1100101001 1100010101 1100100011 1100010110 24.875 46.265 999.29 151941 21 8 10 58 51 5 $GNGGA,130004.00,,,,,0,00,4.82,,,,,,*40
151 13 00 05 Nan Nan Nan 110110 1110111 11111111 110110 1110111 11111111 110110 1110111 11111111 1101101011 1010111011 1011110001 1111101110 10000101100 1100101011 1100010110 1100100011 1100011010 24.750 46.296 999.29 152942 22 7 10 59 51 4 $GNGGA,130005.00,,,,,0,00,4.82,,,,,,*41
152 13 00 06 Nan Nan Nan 110110 1110111 11111111 110110 1110111 11111111 110110 1110111 11111111 1101101011 1010111111 1011101111 1111111100 10000110000 1100101011 1100011000 1100101010 1100010010 24.750 46.372 999.28 153942 21 8 11 59 51 4 $GNGGA,130006.00,,,,,0,00,4.82,,,,,,*42
153 13 00 07 Nan Nan Nan 110110 1110111 11111111 110110 1110111 11111111 110110 1110111 11111111 1101101011 1010111100 1011101111 1111110110 10000101101 1100101100 1100010111 1100100110 1100001100 24.813 46.441 999.28 154941 22 7 11 60 51 3 $GNGGA,130007.00,,,,,0,00,4.82,,,,,,*43
154 13 00 08 Nan Nan Nan 110110 1110111 11111111 110110 1110111 11111111 110110 1110111 11111111 1101101011 1010111100 1011110000 1111110011 10000101111 1100110011 1100011011 1100101001 1100010010 24.750 46.441 999.28 155939 21 7 12 59 50 4 $GNGGA,130008.00,,,,,0,00,4.82,,,,,,*4C
155 13 00 09 Nan Nan Nan 110110 1110111 11111111 110110 1110111 11111111 110110 1110111 11111111 1101101011 1010110111 1011101101 1111110010 10000101110 1100101010 1100010101 1100100100 1100010100 24.750 46.425 999.29 156937 22 7 10 58 52 4 $GNGGA,130009.00,,,,,0,00,4.82,,,,,,*4D
156 13 00 10 Nan Nan Nan 110110 1110111 11111111 110110 1110111 11111111 110110 1110111 11111111 1101101011 1010111100 1011101110 1111111100 10000110010 1100101000 1100011000 1100100111 1100010001 24.813 46.448 999.29 157937 22 7 11 60 51 3 $GNGGA,130010.00,,,,,0,00,14.9,,,,,,*47
157 13 00 11 Nan Nan Nan 110110 1110111 11111111 110110 1110111 11111111 110110 1110111 11111111 1101101011 1010111011 1011101111 1111111100 10000110000 1100101100 1100011001 1100100011 1100001100 24.750 46.471 999.29 158936 21 8 12 59 51 3 $GNGGA,130011.00,,,,,0,00,14.9,,,,,,*46
158 13 00 12 Nan Nan Nan 110110 1110111 11111111 110110 1110111 11111111 110110 1110111 11111111 1101101011 1010111011 1011110001 1111111111 10000110000 1100101100 1100011000 1100100010 1100001111 24.750 46.486 999.29 159935 22 7 11 60 51 3 $GNGGA,130012.00,,,,,0,00,14.9,,,,,,*45
159 13 00 13 Nan Nan Nan 110110 1110111 11111111 110110 1110111 11111111 110110 1110111 11111111 1101101011 1010110111 1011101111 1111110111 10000101110 1100101000 1100011000 1100100100 1100001111 24.813 46.486 999.29 160934 21 7 12 59 51 3 $GNGGA,130013.00,,,,,0,00,14.9,,,,,,*44
160 13 00 14 Nan Nan Nan 110110 1110111 11111111 110110 1110111 11111111 110110 1110111 11111111 1101101011 1010111100 1011110001 1111110000 10000101100 1100101110 1100011101 1100100011 1100010101 24.750 46.471 999.29 161934 22 7 11 59 52 3 $GNGGA,130014.00,,,,,0,00,14.9,,,,,,*43
161 13 00 15 Nan Nan Nan 110110 1110111 11111111 110110 1110111 11111111 110110 1110111 11111111 1101101011 1010111111 1011110010 1111110001 10000101101 1100101001 1100011010 1100100010 1100001100 24.813 46.479 999.29 162930 22 7 11 60 51 3 $GNGGA,130015.00,,,,,0,00,14.9,,,,,,*42
162 13 00 16 Nan Nan Nan 110110 1110111 11111111 110110 1110111 11111111 110110 1110111 11111111 1101101011 1010111011 1011101111 1111110001 10000101101 1100101111 1100011011 1100101000 1100001100 24.813 46.471 999.29 163931 21 8 11 59 51 4 $GNGGA,130016.00,,,,,0,00,14.9,,,,,,*41
163 13 00 17 Nan Nan Nan 110110 1110111 11111111 110110 1110111 11111111 110110 1110111 11111111 1101101011 1010111110 1011110000 1111110111 10000101111 1100101111 1100011010 1100100110 1100010111 24.813 46.479 999.28 164929 22 7 10 60 51 4 $GNGGA,130017.00,,,,,0,00,14.9,,,,,,*40
164 13 00 18 Nan Nan Nan 110110 1110111 11111111 110110 1110111 11111111 110110 1110111 11111111 1101101011 1010111010 1011101101 1111110111 10000110000 1100101110 1100011101 1100101000 1100011101 24.813 46.502 999.29 165928 21 6 12 59 50 4 $GNGGA,130018.00,,,,,0,00,14.9,,,,,,*4F
165 13 00 19 Nan Nan Nan 110110 1110111 11111111 110110 1110111 11111111 110110 1110111 11111111 1101101011 1010111101 1011110010 1111110000 10000101100 1100101010 1100010110 1100100111 1100010111 24.750 46.525 999.29 166929 22 7 11 60 50 4 $GNGGA,130019.00,,,,,0,00,14.9,,,,,,*4E
166 13 00 20 Nan Nan Nan 110110 1100000 0 110110 1110111 11111111 110110 1110111 11111111 1101101011 1010111111 1011110000 1111111001 10000101111 1100110001 1100011101 1100100111 1100010111 24.875 46.532 999.29 167926 21 6 12 59 50 4 $GNGGA,130020.00,,,,,0,00,14.9,,,,,,*44
167 13 00 21 4333.6843700128.74198130.9ó 00128.74198 130.9 110110 1110111 11111111 110110 1110111 11111111 110110 1110111 11111111 1101101011 1010111001 1011110000 1111111100 10000101111 1100101011 1100011100 1100100111 1100010001 24.750 46.486 999.30 168937 22 14 13 60 51 4 $GNGGA,130021.00,4333.68437,N,00128.74198,E,1,03,4.82,130.9,M,53.8,M,,*4A
168 13 00 22 Nan Nan Nan 110110 1110111 11111111 110110 1110111 11111111 110110 1110111 11111111 1101101011 1010111011 1011110000 1111110110 10000110000 1100101011 1100010100 1100101110 1100010111 24.813 46.433 999.30 169923 22 7 11 60 51 3 $GNGGA,130022.00,,,,,0,00,14.9,,,,,,*46
169 13 00 23 Nan Nan Nan 110110 1110111 11111111 110110 1110111 11111111 110110 1110111 11111111 1101101011 1010111111 1011110010 1111110110 10000101010 1100100100 1100010100 1100100001 1100001001 24.813 46.288 999.29 170925 21 8 12 59 51 3 $GNGGA,130023.00,,,,,0,00,14.9,,,,,,*47
170 13 00 24 Nan Nan Nan 110110 1110111 11111111 110110 1110111 11111111 110110 1110111 11111111 1101101011 1010111001 1011101101 1111110100 10000110000 1100101010 1100011000 1100100010 1100000011 24.813 46.235 999.27 171923 23 7 10 60 50 4 $GNGGA,130024.00,,,,,0,00,14.9,,,,,,*40
171 13 00 25 Nan Nan Nan 110110 1110111 11111111 110110 1110111 11111111 110110 1110111 11111111 1101101011 1010111110 1011110011 1111111101 10000110000 1100101110 1100011001 1100100101 1100010011 24.813 46.212 999.27 172921 21 7 11 58 51 4 $GNGGA,130025.00,,,,,0,00,14.9,,,,,,*41
172 13 00 26 Nan Nan Nan 110110 1110111 11111111 110110 10000000 0 110110 1110111 11111111 1101101011 1010111111 1011110011 1111111001 10000101100 1100101101 1100010110 1100100001 1100010011 24.813 46.059 999.27 173920 21 7 11 59 52 3 $GNGGA,130026.00,,,,,0,00,14.9,,,,,,*42
173 13 00 27 Nan Nan Nan 110110 1110111 11111111 110110 1110111 11111111 110110 1110111 11111111 1101101011 1010111010 1011110001 1111111100 10000110000 1100101100 1100010111 1100100110 1100001110 24.750 45.876 999.26 174919 22 7 11 60 51 3 $GNGGA,130027.00,,,,,0,00,14.9,,,,,,*43
174 13 00 28 Nan Nan Nan 110110 1110111 11111111 110110 1110111 11111111 110110 1110111 11111111 1101101011 1010111100 1011110010 10000000000 10000101110 1100101100 1100010111 1100100110 1100001111 24.813 45.830 999.27 175919 21 8 11 59 50 5 $GNGGA,130028.00,,,,,0,00,14.9,,,,,,*4C
175 13 00 29 Nan Nan Nan 110110 1110111 11111111 110110 1110111 11111111 110110 1110111 11111111 1101101011 1010111001 1011101110 1111111101 10000110000 1100101011 1100011011 1100100100 1100001111 24.813 45.876 999.26 176917 22 7 11 60 51 3 $GNGGA,130029.00,,,,,0,00,14.9,,,,,,*4D
176 13 00 30 Nan Nan Nan 110110 1110111 11111111 110110 1110111 11111111 110110 1110111 11111111 1101101011 1010111101 1011101111 1111110110 10000101110 1100101011 1100010111 1100100001 1100001110 24.813 45.899 999.27 177916 21 7 12 59 51 3 $GNGGA,130030.00,,,,,0,00,14.9,,,,,,*45
177 13 00 31 Nan Nan Nan 110110 1110111 11111111 110110 1110111 11111111 110110 1110111 11111111 1101101011 1010111101 1011101111 1111110001 10000101110 1100101110 1100011001 1100100100 1100010101 24.813 45.991 999.26 178916 22 7 11 60 51 3 $GNGGA,130031.00,,,,,0,00,14.9,,,,,,*44
178 13 00 32 Nan Nan Nan 110110 1110111 11111111 110110 1110111 11111111 110110 1110111 11111111 1101101011 1010111100 1011110000 1111110100 10000101101 1100101011 1100010100 1100100111 1100010001 24.813 46.097 999.27 179914 22 6 11 59 50 4 $GNGGA,130032.00,,,,,0,00,14.9,,,,,,*47
179 13 00 33 Nan Nan Nan 110110 1110111 11111111 110110 1110111 11111111 110110 1110111 11111111 1101101011 1010111010 1011110000 1111110110 10000110010 1100101101 1100011000 1100100010 1100010000 24.813 46.212 999.28 180912 21 8 11 59 51 4 $GNGGA,130033.00,,,,,0,00,14.9,,,,,,*46
180 13 00 34 Nan Nan Nan 110110 1110111 11111111 110110 1110111 11111111 110110 1110111 11111111 1101101011 1010111100 1011110000 1111110100 10000101111 1100101101 1100011010 1100100101 1100001111 24.750 46.303 999.29 181912 22 7 11 60 51 3 $GNGGA,130034.00,,,,,0,00,14.9,,,,,,*41
181 13 00 35 4333.6835300128.74393130.8ó 00128.74393 130.8 110110 1110111 11111111 110110 1110111 11111111 110110 1110111 11111111 1101101011 1010111011 1011101111 1111110100 10000110000 1100110001 1100011010 1100011100 1100010010 24.750 46.326 999.29 182921 21 15 13 59 51 4 $GNGGA,130035.00,4333.68353,N,00128.74393,E,1,03,2.64,130.8,M,53.8,M,,*4C
182 13 00 36 4333.6835900128.74427130.8ó 00128.74427 130.8 110110 1110111 11111111 110110 1110111 11111111 110110 1110111 11111111 1101101011 1010111010 1011110000 1111110100 10000101111 1100101101 1100011110 1100100000 1100001011 24.813 46.311 999.29 183922 23 15 13 60 50 4 $GNGGA,130036.00,4333.68359,N,00128.74427,E,1,03,2.64,130.8,M,53.8,M,,*4D
183 13 00 37 4333.6827400128.74435131.0ó 00128.74435 131.0 110110 1110111 11111111 110110 1110111 11111111 110110 1110111 11111111 1101101011 1010111001 1011110000 1111110110 10000101110 1100101101 1100010110 1100101000 1100010110 24.813 46.296 999.29 184921 22 16 13 59 50 5 $GNGGA,130037.00,4333.68274,N,00128.74435,E,1,03,2.64,131.0,M,53.8,M,,*48
184 13 00 38 Nan Nan Nan 110110 1110111 11111111 110110 1110111 11111111 110110 1110111 11111111 1101101011 1010111001 1011101111 1111110011 10000101111 1100101001 1100010010 1100011100 1100000101 24.813 46.341 999.28 185910 21 7 11 59 52 3 $GNGGA,130038.00,,,,,0,00,14.9,,,,,,*4D
