id HH MM SS longitude latitude altitude adc_1_ch0 adc_1_ch1 adc_1_ch2 adc_1_ch3 adc_1_ch4 adc_1_ch5 adc_1_ch6 adc_1_ch7 adc_1_ch8 adc_2_ch0 adc_2_ch1 adc_2_ch2 adc_2_ch3 adc_2_ch4 adc_2_ch5 adc_2_ch6 adc_2_ch7 adc_2_ch8 temp hum pres t_prog t_gps t_split t_adc t_temp t_hum t_pres trame_gga
1 13 04 09 Nan Nan Nan 110110 10000000 0 110110 1110111 11111111 110110 10000000 0 1101101011 1011000011 1011110000 1111111111 10000101100 1100101001 1100011001 1100011111 1100001011 24.750 46.288 795.83 3352 21 6 11 60 50 4 $GNGGA,130409.00,,,,,0,00,99.9,,,,,,*4E
2 13 04 10 Nan Nan Nan 110110 1110111 11111111 110110 10000000 0 110110 1110111 11111111 1101101011 1011000000 1011110000 10000001011 10000110010 1100101010 1100100001 1100011111 1100001100 24.750 46.357 999.26 4352 21 8 12 59 51 3 $GNGGA,130410.00,,,,,0,00,99.9,,,,,,*46
3 13 04 11 Nan Nan Nan 110110 1110111 11111111 110110 1110111 11111111 110110 10000000 0 1101101011 1011000000 1011110010 1111111101 10000101110 1100101001 1100011001 1100100011 1100001100 24.750 46.517 999.26 5349 22 7 11 60 51 3 $GNGGA,130411.00,,,,,0,00,99.9,,,,,,*47
4 13 04 12 Nan Nan Nan 110110 1110111 11111111 110110 1110111 11111111 110110 1110111 11111111 1101101011 1010111110 1011110001 10000000011 10000110000 1100101100 1100011101 1100100101 1100001111 24.750 46.563 999.26 6349 21 6 12 59 50 4 $GNGGA,130412.00,,,,,0,00,99.9,,,,,,*44
5 13 04 13 Nan Nan Nan 110110 1110111 11111111 110110 1110111 11111111 110110 1110111 11111111 1101101011 1010111101 1011101110 10000000100 10000110010 1100101011 1100010101 1100101101 1100011000 24.750 46.578 999.25 7348 21 7 11 59 51 4 $GNGGA,130413.00,,,,,0,00,99.9,,,,,,*45
6 13 04 14 Nan Nan Nan 110110 10000000 0 110110 10000000 0 110110 10000000 0 1101101011 1011000010 1011110001 1111111011 10000101110 1100101011 1100010110 1100101011 1100010001 24.813 46.578 999.26 8347 22 7 11 60 51 3 $GNGGA,130414.00,,,,,0,00,99.9,,,,,,*42
7 13 04 15 Nan Nan Nan 110110 1110111 11111111 110110 1110111 11111111 110110 1110111 11111111 1101101011 1011000000 1011110000 1111111100 10000110001 1100100111 1100010101 1100101100 1100010110 24.750 46.540 999.26 9347 21 8 11 59 51 4 $GNGGA,130415.00,,,,,0,00,99.9,,,,,,*43
8 13 04 16 Nan Nan Nan 110110 1110111 11111111 110110 10000000 0 110110 1110111 11111111 1101101011 1011000000 1011110010 10000000101 10000110000 1100101001 1100011001 1100101011 1100010110 24.750 46.494 999.25 10346 22 6 11 60 50 4 $GNGGA,130416.00,,,,,0,00,99.9,,,,,,*40
9 13 04 17 Nan Nan Nan 110110 10000000 0 110110 1110111 11111111 110110 10000000 0 1101101011 1010111100 1011101111 10000000110 10000101111 1100101000 1100011000 1100100000 1100010010 24.750 46.479 999.25 11345 21 7 12 59 50 4 $GNGGA,130417.00,,,,,0,00,99.9,,,,,,*41
10 13 04 18 Nan Nan Nan 110110 1110111 11111111 110110 1110111 11111111 110110 1110111 11111111 1101101011 1011000000 1011110011 10000000011 10000110001 1100101000 1100011010 1100101100 1100011010 24.813 46.517 999.24 12344 22 7 10 58 52 4 $GNGGA,130418.00,,,,,0,00,99.9,,,,,,*4E
11 13 04 19 Nan Nan Nan 110110 10000000 0 110110 1110111 11111111 110110 1110111 11111111 1101101011 1010111100 1011110001 10000000000 10000110011 1100101100 1100011100 1100101010 1100001101 24.750 46.517 999.25 13342 22 7 10 58 51 4 $GNGGA,130419.00,,,,,0,00,99.9,,,,,,*4F
12 13 04 20 Nan Nan Nan 110110 10000000 0 110110 1110111 11111111 110110 10000000 0 1101101011 1010111100 1011110001 10000000001 10000110010 1100101101 1100011101 1100101110 1100010100 24.750 46.525 999.25 14341 21 8 10 58 51 5 $GNGGA,130420.00,,,,,0,00,99.9,,,,,,*45
13 13 04 21 Nan Nan Nan 110110 1110111 11111111 110110 10000000 0 110110 1110111 11111111 1101101011 1010111111 1011110010 1111111101 10000110000 1100110000 1100011101 1100101000 1100001000 24.750 46.525 999.25 15341 22 7 11 60 51 3 $GNGGA,130421.00,,,,,0,00,99.9,,,,,,*44
14 13 04 22 Nan Nan Nan 110110 10000000 0 110110 1110111 11111111 110110 1110111 11111111 1101101011 1010111100 1011110001 1111110111 10000110000 1100101101 1100100000 1100100011 1100001110 24.750 46.525 999.25 16337 21 7 12 59 50 4 $GNGGA,130422.00,,,,,0,00,99.9,,,,,,*47
15 13 04 23 Nan Nan Nan 110110 1110111 11111111 110110 1110111 11111111 110110 1110111 11111111 1101101011 1011000001 1011110100 1111111011 10000110100 1100101100 1100011001 1100100100 1100001010 24.750 46.517 999.25 17338 23 7 10 60 50 4 $GNGGA,130423.00,,,,,0,00,99.9,,,,,,*46
16 13 04 24 Nan Nan Nan 110110 1110111 11111111 110110 10000000 0 110110 1110111 11111111 1101101011 1010111100 1011101111 1111111011 10000110000 1100101101 1100011001 1100100110 1100010001 24.750 46.509 999.25 18337 22 7 11 59 51 3 $GNGGA,130424.00,,,,,0,00,99.9,,,,,,*41
17 13 04 25 Nan Nan Nan 110110 10000000 0 110110 1110111 11111111 110110 1110111 11111111 1101101011 1010111100 1011110101 1111101101 10000101110 1100101100 1100011001 1100100111 1100001110 24.750 46.494 999.25 19335 21 7 10 58 52 4 $GNGGA,130425.00,,,,,0,00,99.9,,,,,,*40
18 13 04 26 Nan Nan Nan 110110 1110111 11111111 110110 1110111 11111111 110110 1110111 11111111 1101101011 1010111100 1011110010 1111110100 10000101110 1100101100 1100011100 1100101001 1100011011 24.750 46.494 999.25 20335 22 7 10 59 51 4 $GNGGA,130426.00,,,,,0,00,99.9,,,,,,*43
19 13 04 27 Nan Nan Nan 110110 1110111 11111111 110110 10000000 0 110110 1110111 11111111 1101101011 1010111101 1011110010 1111101110 10000101110 1100101100 1100011011 1100100111 1100001111 24.750 46.479 999.25 21334 21 8 11 59 50 4 $GNGGA,130427.00,,,,,0,00,99.9,,,,,,*42
20 13 04 28 Nan Nan Nan 110110 10000000 0 110110 10000000 0 110110 1110111 11111111 1101101011 1010111011 1011110010 1111101001 10000110000 1100101100 1100010110 1100100001 1100010001 24.750 46.471 999.27 22333 21 6 11 60 50 4 $GNGGA,130428.00,,,,,0,00,99.9,,,,,,*4D
21 13 04 29 Nan Nan Nan 110110 10000000 0 110110 1110111 11111111 110110 10000000 0 1101101011 1010111101 1011110010 1111101001 10000101101 1100101001 1100011001 1100011101 1011111111 24.750 46.471 999.26 23329 22 7 10 58 51 4 $GNGGA,130429.00,,,,,0,00,99.9,,,,,,*4C
22 13 04 30 Nan Nan Nan 110110 1110111 11111111 110110 10000000 0 110110 1110111 11111111 1101101011 1010111001 1011101110 1111110101 10000110000 1100101010 1100011000 1100110011 1100011001 24.750 46.509 999.26 24331 21 7 10 58 52 4 $GNGGA,130430.00,,,,,0,00,99.9,,,,,,*44
23 13 04 31 Nan Nan Nan 110110 1110111 11111111 110110 1110111 11111111 110110 1110111 11111111 1101101011 1010111011 1011101111 1111110000 10000110001 1100101111 1100011001 1100100110 1100010000 24.750 46.509 999.26 25330 22 7 11 60 51 3 $GNGGA,130431.00,,,,,0,00,99.9,,,,,,*45
24 13 04 32 Nan Nan Nan 110110 1110111 11111111 110110 10000000 0 110110 1110111 11111111 1101101011 1010111100 1011110010 1111110011 10000110001 1100101111 1100011011 1100101001 1100010100 24.750 46.509 999.26 26330 21 8 11 59 51 4 $GNGGA,130432.00,,,,,0,00,99.9,,,,,,*46
25 13 04 33 Nan Nan Nan 110110 10000000 0 110110 1110111 11111111 110110 1110111 11111111 1101101011 1010111100 1011110001 1111110110 10000101111 1100101000 1100010101 1100100101 1100001110 24.750 46.525 999.26 27326 22 7 10 59 51 4 $GNGGA,130433.00,,,,,0,00,99.9,,,,,,*47
26 13 04 34 Nan Nan Nan 110110 1110111 11111111 110110 1110111 11111111 110110 1110111 11111111 1101101001 1010111010 1011110000 1111110011 10000110000 1100101001 1100010101 1100100110 1100001000 24.750 46.517 999.25 28325 21 7 11 58 51 4 $GNGGA,130434.00,,,,,0,00,99.9,,,,,,*40
27 13 04 35 Nan Nan Nan 110110 1110111 11111111 110110 1110111 11111111 110110 1110111 11111111 1101101011 1011000000 1011110100 1111110011 10000101110 1100101000 1100011101 1100100011 1100001100 24.813 46.509 999.26 29326 22 7 10 58 52 4 $GNGGA,130435.00,,,,,0,00,99.9,,,,,,*41
28 13 04 36 Nan Nan Nan 110110 1110111 11111111 110110 1110111 11111111 110110 1110111 11111111 1101101011 1010111101 1011110001 1111110000 10000110010 1100101100 1100011011 1100011111 1100001011 24.750 46.509 999.26 30325 22 7 11 59 51 3 $GNGGA,130436.00,,,,,0,00,99.9,,,,,,*42
29 13 04 37 Nan Nan Nan 110110 1110111 11111111 110110 10000000 0 110110 10000000 0 1101101011 1010111101 1011110010 1111110001 10000101111 1100101100 1100010110 1100100111 1100010100 24.750 46.502 999.27 31324 21 8 10 58 52 4 $GNGGA,130437.00,,,,,0,00,99.9,,,,,,*43
30 13 04 38 Nan Nan Nan 110110 10000000 0 110110 1110111 11111111 110110 10000000 0 1101101011 1010111110 1011110001 1111111001 10000101110 1100101010 1100011000 1100100100 1100001111 24.750 46.486 999.27 32321 21 6 11 60 50 4 $GNGGA,130438.00,,,,,0,00,99.9,,,,,,*4C
31 13 04 39 Nan Nan Nan 110110 1110111 11111111 110110 1110111 11111111 110110 1110111 11111111 1101101011 1010111101 1011110000 1111110000 10000110000 1100101101 1100011011 1100100110 1100010110 24.750 46.479 999.27 33320 21 7 12 59 51 3 $GNGGA,130439.00,,,,,0,00,99.9,,,,,,*4D
32 13 04 40 Nan Nan Nan 110110 10000000 0 110110 1110111 11111111 110110 1110111 11111111 1101101011 1011000001 1011110100 1111111000 10000110000 1100101011 1100010111 1100100101 1100010111 24.750 46.486 999.27 34319 22 7 11 60 51 3 $GNGGA,130440.00,,,,,0,00,99.9,,,,,,*43
33 13 04 41 Nan Nan Nan 110110 10000000 0 110110 1110111 11111111 110110 1110111 11111111 1101101011 1010111001 1011110001 1111110001 10000110000 1100101101 1100011010 1100100110 1100010100 24.750 46.502 999.27 35318 22 7 10 58 51 4 $GNGGA,130441.00,,,,,0,00,99.9,,,,,,*42
34 13 04 42 Nan Nan Nan 110110 1110111 11111111 110110 10000000 0 110110 10000000 0 1101101011 1010111000 1011110010 1111110011 10000110001 1100101000 1100011010 1100100010 1100010001 24.750 46.555 999.26 36318 21 7 11 59 52 3 $GNGGA,130442.00,,,,,0,00,99.9,,,,,,*41
35 13 04 43 Nan Nan Nan 110110 10000000 0 110110 10000000 0 110110 10000000 0 1101101011 1010111011 1011110010 1111110100 10000101110 1100101010 1100010110 1100100011 1100001100 24.750 46.608 999.26 37318 22 7 11 60 51 3 $GNGGA,130443.00,,,,,0,00,99.9,,,,,,*40
36 13 04 44 Nan Nan Nan 110110 1110111 11111111 110110 1110111 11111111 110110 10000000 0 1101101100 1010111100 1011110000 1111101101 10000101111 1100101000 1100010100 1100100110 1100010000 24.750 46.624 999.26 38318 21 8 10 58 51 5 $GNGGA,130444.00,,,,,0,00,99.9,,,,,,*47
37 13 04 45 Nan Nan Nan 110110 10000000 0 110110 1110111 11111111 110110 10000000 0 1101101011 1010111010 1011110010 1111101110 10000101111 1100101110 1100011100 1100100000 1100010010 24.750 46.616 999.27 39316 22 7 10 60 50 4 $GNGGA,130445.00,,,,,0,00,99.9,,,,,,*46
38 13 04 46 Nan Nan Nan 110110 1110111 11111111 110110 10000000 0 110110 10000000 0 1101101011 1010111011 1011110001 1111101011 10000101111 1100101000 1100010111 1100100111 1100010111 24.750 46.647 999.27 40314 21 7 11 59 50 4 $GNGGA,130446.00,,,,,0,00,99.9,,,,,,*45
39 13 04 47 Nan Nan Nan 110110 10000000 0 110110 10000000 0 110110 10000000 0 1101101011 1011000000 1011110000 1111110110 10000110000 1100101011 1100010111 1100101111 1100011001 24.750 46.647 999.27 41314 20 7 11 59 52 3 $GNGGA,130447.00,,,,,0,00,99.9,,,,,,*44
40 13 04 48 Nan Nan Nan 110110 10000000 0 110110 10000000 0 110110 1110111 11111111 1101101100 1010111010 1011110010 1111110110 10000110000 1100110011 1100011101 1100100110 1100010000 24.750 46.616 999.27 42313 22 7 11 60 51 3 $GNGGA,130448.00,,,,,0,00,99.9,,,,,,*4B
41 13 04 49 Nan Nan Nan 110110 1110111 11111111 110110 10000000 0 110110 10000000 0 1101101011 1010111010 1011110001 1111101110 10000110000 1100101111 1100011011 1100101011 1100010100 24.750 46.570 999.28 43312 21 8 11 59 51 4 $GNGGA,130449.00,,,,,0,00,99.9,,,,,,*4A
42 13 04 50 Nan Nan Nan 110110 1110111 11111111 110110 10000000 0 110110 10000000 0 1101101011 1010111011 1011110000 1111110011 10000110010 1100101011 1100011000 1100100011 1100010001 24.750 46.555 999.28 44312 22 7 11 60 51 3 $GNGGA,130450.00,,,,,0,00,99.9,,,,,,*42
43 13 04 51 Nan Nan Nan 110110 10000000 0 110110 1110111 11111111 110110 1110111 11111111 1101101011 1011000001 1011110100 1111101010 10000101111 1100101110 1100011000 1100100001 1100001110 24.750 46.570 999.27 45308 21 7 11 59 50 4 $GNGGA,130451.00,,,,,0,00,99.9,,,,,,*43
44 13 04 52 Nan Nan Nan 110110 1110111 11111111 110110 1110111 11111111 110110 1110111 11111111 1101101011 1010111011 1011110000 1111110000 10000101111 1100101100 1100010111 1100100011 1100011001 24.750 46.601 999.27 46309 22 7 11 60 50 4 $GNGGA,130452.00,,,,,0,00,99.9,,,,,,*40
45 13 04 53 Nan Nan Nan 110110 10000000 0 110110 1110111 11111111 110110 1110111 11111111 1101101011 1010111101 1011110000 1111111010 10000110001 1100110000 1100011001 1100100001 1100010010 24.750 46.586 999.28 47308 22 7 11 59 51 3 $GNGGA,130453.00,,,,,0,00,99.9,,,,,,*41
46 13 04 54 Nan Nan Nan 110110 1110111 11111111 110110 10000000 0 110110 10000000 0 1101101011 1010111110 1011110001 1111110111 10000101111 1100101110 1100011011 1100100101 1100010011 24.875 46.578 999.28 48307 21 7 10 59 51 4 $GNGGA,130454.00,,,,,0,00,99.9,,,,,,*46
47 13 04 55 Nan Nan Nan 110110 1110111 11111111 110110 10000000 0 110110 1110111 11111111 1101101011 1010111010 1011101111 1111101111 10000101110 1100110000 1100011100 1100100011 1100001000 24.750 46.570 999.27 49306 22 7 11 60 50 4 $GNGGA,130455.00,,,,,0,00,99.9,,,,,,*47
48 13 04 56 Nan Nan Nan 110110 10000000 0 110110 1110111 11111111 110110 10000000 0 1101101011 1011000001 1011110011 1111110000 10000101111 1100101101 1100011001 1100100110 1100001111 24.813 46.555 999.28 50315 21 7 11 59 51 4 $GNGGA,130456.00,,,,,0,00,2.59,,,,,,*43
49 13 04 57 Nan Nan Nan 110110 1110111 11111111 110110 1110111 11111111 110110 10000000 0 1101101011 1010111001 1011110010 1111110100 10000110010 1100110000 1100011101 1100100010 1100010011 24.813 46.555 999.28 51306 22 7 11 60 51 3 $GNGGA,130457.00,,,,,0,00,2.59,,,,,,*42
50 13 04 58 Nan Nan Nan 110110 1110111 11111111 110110 1110111 11111111 110110 1110111 11111111 1101101011 1010111101 1011110000 1111110000 10000101111 1100101111 1100010111 1100011110 1100010000 24.750 46.425 999.28 52303 21 7 11 59 51 4 $GNGGA,130458.00,,,,,0,00,2.59,,,,,,*4D
51 13 04 59 Nan Nan Nan 110110 10000000 0 110110 1110111 11111111 110110 1110111 11111111 1101101011 1010111011 1011110001 1111101011 10000101101 1100101111 1100010110 1100011111 1100010111 24.813 46.143 999.27 53305 22 7 11 60 51 3 $GNGGA,130459.00,,,,,0,00,2.59,,,,,,*4C
52 13 05 00 4333.6872000128.74328125.9ó 00128.74328 125.9 110110 10000000 0 110110 1110111 11111111 110110 1110111 11111111 1101101011 1010111100 1011110001 1111101101 10000101110 1100110001 1100011110 1100100001 1100001100 24.750 45.929 999.27 54316 21 16 15 59 51 3 $GNGGA,130500.00,4333.68720,N,00128.74328,E,1,03,2.59,125.9,M,53.8,M,,*44
53 13 05 01 4333.6872200128.74352126.0ó 00128.74352 126.0 110110 1110111 11111111 110110 1110111 11111111 110110 1110111 11111111 1101101011 1010111100 1011110001 1111110010 10000110010 1100100111 1100010100 1100101001 1100010100 24.750 45.868 999.26 55314 23 14 13 60 50 4 $GNGGA,130501.00,4333.68722,N,00128.74352,E,1,03,2.59,126.0,M,53.8,M,,*40
54 13 05 02 4333.6868700128.74386125.9ó 00128.74386 125.9 110110 10000000 0 110110 10000000 0 110110 1110111 11111111 1101101011 1010111011 1011110010 1111101111 10000110000 1100101110 1100011011 1100101000 1100010010 24.750 45.846 999.27 56311 21 14 14 59 50 4 $GNGGA,130502.00,4333.68687,N,00128.74386,E,1,03,2.59,125.9,M,53.8,M,,*4E
55 13 05 03 Nan Nan Nan 110110 1110111 11111111 110110 1110111 11111111 110110 1110111 11111111 1101101011 1010111100 1011110001 1111110000 10000101111 1100101011 1100010101 1100100100 1100001111 24.750 45.807 999.28 57300 21 7 12 59 51 3 $GNGGA,130503.00,,,,,0,00,15.3,,,,,,*4B
56 13 05 04 Nan Nan Nan 110110 1110111 11111111 110110 1110111 11111111 110110 1110111 11111111 1101101011 1010111011 1011110001 1111101000 10000101100 1100101101 1100011000 1100011100 1100001101 24.813 45.769 999.28 58300 22 7 11 60 51 3 $GNGGA,130504.00,,,,,0,00,15.3,,,,,,*4C
57 13 05 05 Nan Nan Nan 110110 10000000 0 110110 1110111 11111111 110110 1110111 11111111 1101101011 1010111110 1011110010 1111101101 10000101101 1100101101 1100010101 1100100000 1100001101 24.750 45.739 999.27 59298 21 7 11 58 51 4 $GNGGA,130505.00,,,,,0,00,15.3,,,,,,*4D
58 13 05 06 Nan Nan Nan 110110 1110111 11111111 110110 1110111 11111111 110110 10000000 0 1101101011 1010111110 1011110011 1111110100 10000110000 1100101111 1100011010 1100100000 1100010001 24.750 45.731 999.26 60298 21 7 10 58 52 4 $GNGGA,130506.00,,,,,0,00,15.3,,,,,,*4E
59 13 05 07 Nan Nan Nan 110110 10000000 0 110110 10000000 0 110110 10000000 0 1101101011 1010111011 1011101111 1111110110 10000101111 1100101111 1100011010 1100101001 1100011101 24.750 45.723 999.27 61297 22 7 10 59 51 4 $GNGGA,130507.00,,,,,0,00,15.3,,,,,,*4F
60 13 05 08 4333.6930100128.73962128.1ó 00128.73962 128.1 110110 10000000 0 110110 10000000 0 110110 10000000 0 1101101011 1010111110 1011101111 1111110001 10000110000 1100110001 1100011110 1100011111 1100001100 24.813 45.670 999.27 62306 22 15 13 59 51 4 $GNGGA,130508.00,4333.69301,N,00128.73962,E,1,03,2.35,128.1,M,53.8,M,,*46
61 13 05 09 4333.6930900128.73934128.2ó 00128.73934 128.2 110110 1110111 11111111 110110 10000000 0 110110 1110111 11111111 1101101011 1010111101 1011110011 1111111010 10000110001 1100101111 1100011001 1100100011 1100001111 24.750 45.510 999.27 63303 22 14 13 59 51 4 $GNGGA,130509.00,4333.69309,N,00128.73934,E,1,03,2.35,128.2,M,53.8,M,,*4F
62 13 05 10 Nan Nan Nan 110110 10000000 0 110110 1110111 11111111 110110 10000000 0 1101101011 1010111101 1011110011 1111110101 10000110000 1100101010 1100011011 1100011110 1100001011 24.750 45.365 999.26 64293 21 7 11 58 51 4 $GNGGA,130510.00,,,,,0,00,15.3,,,,,,*49
63 13 05 11 Nan Nan Nan 110110 10000000 0 110110 10000000 0 110110 10000000 0 1101101011 1010111101 1011110000 1111110100 10000101111 1100101101 1100011011 1100100100 1100010001 24.750 45.380 999.26 65292 21 7 10 59 51 4 $GNGGA,130511.00,,,,,0,00,15.3,,,,,,*48
64 13 05 12 Nan Nan Nan 110110 10000000 0 110110 1110111 11111111 110110 1110111 11111111 1101101011 1010111110 1011110011 1111111011 10000110000 1100101011 1100011000 1100100000 1100010101 24.750 45.365 999.27 66291 22 7 10 58 51 4 $GNGGA,130512.00,,,,,0,00,15.3,,,,,,*4B
65 13 05 13 Nan Nan Nan 110110 1110111 11111111 110110 10000000 0 110110 1110111 11111111 1101101011 1010111111 1011110100 1111111001 10000101111 1100110000 1100010110 1100011110 1100010000 24.750 45.258 999.27 67290 21 8 11 59 51 4 $GNGGA,130513.00,,,,,0,00,15.3,,,,,,*4A
66 13 05 14 Nan Nan Nan 110110 1110111 11111111 110110 1110111 11111111 110110 1110111 11111111 1101101011 1010111111 1011110000 1111110110 10000110000 1100101100 1100010110 1100100111 1100001110 24.813 45.182 999.26 68290 22 7 11 60 50 4 $GNGGA,130514.00,,,,,0,00,15.3,,,,,,*4D
67 13 05 15 Nan Nan Nan 110110 1110111 11111111 110110 10000000 0 110110 10000000 0 1101101011 1011000010 1011110000 1111111100 10000101111 1100101111 1100011100 1100101110 1100011000 24.813 45.105 999.24 69288 21 7 12 59 51 3 $GNGGA,130515.00,,,,,0,00,15.3,,,,,,*4C
68 13 05 16 Nan Nan Nan 110110 1110111 11111111 110110 10000000 0 110110 1110111 11111111 1101101011 1011000010 1011110001 1111111110 10000110001 1100101001 1100010111 1100100100 1100010010 24.813 45.243 999.25 70288 22 7 11 60 51 3 $GNGGA,130516.00,,,,,0,00,15.3,,,,,,*4F
69 13 05 17 Nan Nan Nan 110110 1110111 11111111 110110 10000000 0 110110 10000000 0 1101101011 1010111111 1011110000 1111111001 10000101111 1100101110 1100011000 1100011111 1100001100 24.750 45.441 999.25 71286 22 7 11 59 51 3 $GNGGA,130517.00,,,,,0,00,15.3,,,,,,*4E
70 13 05 18 Nan Nan Nan 110110 1110111 11111111 110110 1110111 11111111 110110 1110111 11111111 1101101011 1011000000 1011110010 10000000011 10000101110 1100100111 1100010110 1100100011 1100010010 24.750 45.655 999.25 72285 21 6 11 59 51 4 $GNGGA,130518.00,,,,,0,00,15.3,,,,,,*41
71 13 05 19 Nan Nan Nan 110110 10000000 0 110110 10000000 0 110110 1110111 11111111 1101101011 1011000001 1011110010 1111111100 10000110000 1100101001 1100011001 1100101001 1100010110 24.750 45.701 999.25 73285 22 7 11 60 50 4 $GNGGA,130519.00,,,,,0,00,15.3,,,,,,*40
72 13 05 20 Nan Nan Nan 110110 10000000 0 110110 1110111 11111111 110110 1110111 11111111 1101101011 1010111101 1011110000 1111111000 10000101111 1100101010 1100010101 1100100011 1100001100 24.750 45.579 999.25 74281 21 7 11 58 51 4 $GNGGA,130520.00,,,,,0,00,15.3,,,,,,*4A
73 13 05 21 Nan Nan Nan 110110 1110111 11111111 110110 10000000 0 110110 10000000 0 1101101011 1010111101 1011110011 1111111101 10000110010 1100100111 1100011000 1100101010 1100010010 24.813 45.601 999.24 75283 22 7 11 60 51 3 $GNGGA,130521.00,,,,,0,00,15.3,,,,,,*4B
74 13 05 22 Nan Nan Nan 110110 10000000 0 110110 10000000 0 110110 1110111 11111111 1101101011 1010111101 1011110010 1111110110 10000101110 1100101001 1100011010 1100100101 1100010011 24.750 45.624 999.24 76281 21 7 11 58 51 4 $GNGGA,130522.00,,,,,0,00,15.3,,,,,,*48
75 13 05 23 Nan Nan Nan 110110 1110111 11111111 110110 10000000 0 110110 10000000 0 1101101011 1010111001 1011101110 1111110011 10000101110 1100101111 1100010111 1100100110 1100001110 24.813 45.731 999.24 77281 21 7 10 58 52 4 $GNGGA,130523.00,,,,,0,00,15.3,,,,,,*49
76 13 05 24 Nan Nan Nan 110110 1110111 11111111 110110 1110111 11111111 110110 10000000 0 1101101011 1010111100 1011110011 1111110010 10000110010 1100110001 1100011110 1100100111 1100010111 24.813 45.807 999.24 78279 22 7 11 60 51 3 $GNGGA,130524.00,,,,,0,00,15.3,,,,,,*4E
77 13 05 25 Nan Nan Nan 110110 1110111 11111111 110110 1110111 11111111 110110 1110111 11111111 1101101011 1010111010 1011110010 1111110001 10000101110 1100101101 1100011111 1100100001 1100001010 24.750 45.884 999.24 79278 21 7 11 59 50 5 $GNGGA,130525.00,,,,,0,00,15.3,,,,,,*4F
78 13 05 26 Nan Nan Nan 110110 1110111 11111111 110110 1110111 11111111 110110 1110111 11111111 1101101011 1010111010 1011110000 1111110001 10000110000 1100101010 1100010111 1100101011 1100010010 24.813 45.952 999.25 80277 22 7 11 60 51 3 $GNGGA,130526.00,,,,,0,00,15.3,,,,,,*4C
79 13 05 27 Nan Nan Nan 110110 1110111 11111111 110110 1110111 11111111 110110 10000000 0 1101101011 1010111010 1011110011 1111110001 10000101111 1100101010 1100010010 1100100011 1100001110 24.750 46.013 999.25 81275 21 7 12 59 51 3 $GNGGA,130527.00,,,,,0,00,15.3,,,,,,*4D
80 13 05 28 Nan Nan Nan 110110 10000000 0 110110 1110111 11111111 110110 1110111 11111111 1101101011 1010111001 1011101111 1111101100 10000110000 1100101111 1100011011 1100100010 1100010010 24.750 46.029 999.24 82276 22 7 11 60 51 3 $GNGGA,130528.00,,,,,0,00,15.3,,,,,,*42
81 13 05 29 4333.6944800128.74368124.8ó 00128.74368 124.8 110110 1110111 11111111 110110 10000000 0 110110 10000000 0 1101101011 1010111001 1011110000 1111101100 10000101110 1100101100 1100011010 1100100100 1100001010 24.813 46.059 999.24 83287 21 16 15 59 51 3 $GNGGA,130529.00,4333.69448,N,00128.74368,E,1,05,1.73,124.8,M,53.8,M,,*4A
82 13 05 30 4333.6954400128.74630122.6ó 00128.74630 122.6 110110 10000000 0 110110 10000000 0 110110 10000000 0 1101101011 1010111110 1011110010 1111100111 10000101110 1100101100 1100010111 1100011010 1100010101 24.813 46.044 999.24 84285 21 15 14 60 51 3 $GNGGA,130530.00,4333.69544,N,00128.74630,E,1,05,1.73,122.6,M,53.8,M,,*4F
83 13 05 31 4333.6962900128.74782120.6ó 00128.74782 120.6 110110 1110111 11111111 110110 10000000 0 110110 10000000 0 1101101011 1010111010 1011110010 1111101010 10000101111 1100101101 1100011011 1100100110 1100010011 24.813 46.021 999.23 85282 21 15 15 59 51 3 $GNGGA,130531.00,4333.69629,N,00128.74782,E,1,05,1.73,120.6,M,53.8,M,,*4C
84 13 05 32 4333.6961600128.74920119.2ó 00128.74920 119.2 110110 10000000 0 110110 1110111 11111111 110110 10000000 0 1101101011 1010111101 1011110010 1111110100 10000110001 1100110001 1100011110 1100010111 1100001111 24.813 46.036 999.23 86283 22 15 13 58 52 4 $GNGGA,130532.00,4333.69616,N,00128.74920,E,1,05,1.73,119.2,M,53.8,M,,*4B
85 13 05 33 4333.6950900128.74988118.1ó 00128.74988 118.1 110110 10000000 0 110110 10000000 0 110110 10000000 0 1101101011 1011000010 1011110010 1111110001 10000101111 1100101100 1100010100 1100011011 1100001100 24.813 46.105 999.24 87281 22 14 13 60 50 4 $GNGGA,130533.00,4333.69509,N,00128.74988,E,1,05,1.73,118.1,M,53.8,M,,*47
86 13 05 34 4333.6958500128.74931117.4ó 00128.74931 117.4 110110 10000000 0 110110 1110111 11111111 110110 10000000 0 1101101011 1010111011 1011110001 1111110001 10000101111 1100101001 1100011001 1100100000 1100001111 24.813 46.166 999.23 88281 21 15 13 58 51 5 $GNGGA,130534.00,4333.69585,N,00128.74931,E,1,05,1.73,117.4,M,53.8,M,,*4C
87 13 05 35 4333.6962100128.74922116.9ó 00128.74922 116.9 110110 1110111 11111111 110110 1110111 11111111 110110 1110111 11111111 1101101011 1010111110 1011110001 1111110110 10000110000 1100110010 1100011101 1100011011 1100001100 24.750 46.212 999.24 89279 22 15 14 60 51 3 $GNGGA,130535.00,4333.69621,N,00128.74922,E,1,05,1.73,116.9,M,53.8,M,,*4E
88 13 05 36 4333.6961000128.74909116.4ó 00128.74909 116.4 110110 1110111 11111111 110110 1110111 11111111 110110 10000000 0 1101101011 1010111111 1011110001 1111111110 10000110001 1100100111 1100010110 1100100001 1100010011 24.750 46.258 999.24 90277 21 14 14 58 51 4 $GNGGA,130536.00,4333.69610,N,00128.74909,E,1,04,1.77,116.4,M,53.8,M,,*4E
89 13 05 37 Nan Nan Nan 110110 1110111 11111111 110110 1110111 11111111 110110 10000000 0 1101101011 1010111101 1011110001 1111111000 10000101110 1100110000 1100011111 1100100110 1100010100 24.813 46.280 999.24 91266 21 8 10 58 51 5 $GNGGA,130537.00,,,,,0,00,15.4,,,,,,*4B
90 13 05 38 Nan Nan Nan 110110 10000000 0 110110 10000000 0 110110 10000000 0 1101101011 1010111001 1011101111 1111110101 10000101111 1100101000 1100010110 1100100111 1100010000 24.813 46.204 999.26 92264 21 7 11 60 51 3 $GNGGA,130538.00,,,,,0,00,15.4,,,,,,*44
91 13 05 39 Nan Nan Nan 110110 10000000 0 110110 10000000 0 110110 1110111 11111111 1101101011 1010111011 1011110001 1111111011 10000101111 1100101010 1100011000 1100100100 1100010010 24.813 45.914 999.25 93264 21 7 12 59 51 3 $GNGGA,130539.00,,,,,0,00,15.4,,,,,,*45
92 13 05 40 Nan Nan Nan 110110 10000000 0 110110 10000000 0 110110 1110111 11111111 1101101011 1010111110 1011110100 1111110100 10000101111 1100101001 1100010110 1100101000 1100010100 24.750 45.640 999.24 94263 21 7 10 58 52 4 $GNGGA,130540.00,,,,,0,00,15.4,,,,,,*4B
93 13 05 41 4333.6972900128.74532116.5ó 00128.74532 116.5 110110 1110111 11111111 110110 10000000 0 110110 1110111 11111111 1101101011 1010111101 1011110100 1111110011 10000110000 1100110110 1100011110 1100100110 1100001110 24.813 45.533 999.23 95273 21 15 15 59 51 3 $GNGGA,130541.00,4333.69729,N,00128.74532,E,1,05,1.73,116.5,M,53.8,M,,*45
94 13 05 42 4333.6983900128.74450116.4ó 00128.74450 116.4 110110 10000000 0 110110 10000000 0 110110 1110111 11111111 1101101011 1010111011 1011110001 1111110010 10000110000 1100110100 1100011000 1100011101 1100001010 24.813 45.548 999.24 96273 22 15 13 60 50 4 $GNGGA,130542.00,4333.69839,N,00128.74450,E,1,05,1.73,116.4,M,53.8,M,,*4C
95 13 05 43 4333.6977500128.74646116.5ó 00128.74646 116.5 110110 10000000 0 110110 10000000 0 110110 10000000 0 1101101011 1010111100 1011110011 1111110001 10000101111 1100101100 1100010100 1100100011 1100001101 24.750 45.594 999.24 97270 21 14 14 59 50 4 $GNGGA,130543.00,4333.69775,N,00128.74646,E,1,05,1.73,116.5,M,53.8,M,,*4E
96 13 05 44 4333.6978500128.74723116.5ó 00128.74723 116.5 110110 1110111 11111111 110110 1110111 11111111 110110 1110111 11111111 1101101011 1010111010 1011110011 1111101110 10000110001 1100101101 1100011110 1100100001 1100001100 24.813 45.594 999.24 98272 23 16 13 59 51 4 $GNGGA,130544.00,4333.69785,N,00128.74723,E,1,05,1.73,116.5,M,53.8,M,,*44
97 13 05 45 4333.6980500128.74705116.6ó 00128.74705 116.6 110110 1110111 11111111 110110 10000000 0 110110 1110111 11111111 1101101011 1010111010 1011110001 1111101110 10000110010 1100110001 1100011101 1100100101 1100010001 24.813 45.731 999.24 99271 22 15 14 60 51 3 $GNGGA,130545.00,4333.69805,N,00128.74705,E,1,05,1.73,116.6,M,53.8,M,,*45
98 13 05 46 4333.6981300128.74707116.6ó 00128.74707 116.6 110110 1110111 11111111 110110 1110111 11111111 110110 10000000 0 1101101011 1010111011 1011101111 1111101110 10000110000 1100101000 1100010011 1100101000 1100010100 24.813 45.777 999.24 100269 21 15 13 59 50 5 $GNGGA,130546.00,4333.69813,N,00128.74707,E,1,05,1.73,116.6,M,53.8,M,,*43
99 13 05 47 4333.6980900128.74637116.6ó 00128.74637 116.6 110110 1110111 11111111 110110 1110111 11111111 110110 1110111 11111111 1101101011 1010111010 1011110010 1111101011 10000101111 1100110001 1100011001 1100100000 1100010000 24.750 45.693 999.25 101267 23 14 13 60 50 4 $GNGGA,130547.00,4333.69809,N,00128.74637,E,1,05,1.73,116.6,M,53.8,M,,*4B
100 13 05 48 4333.6983700128.74646116.7ó 00128.74646 116.7 110110 1110111 11111111 110110 10000000 0 110110 1110111 11111111 1101101011 1010111001 1011101110 1111110100 10000110001 1100101110 1100011010 1100100001 1100010010 24.750 45.556 999.23 102265 21 14 14 58 51 4 $GNGGA,130548.00,4333.69837,N,00128.74646,E,1,05,1.73,116.7,M,53.8,M,,*4E
101 13 05 49 4333.6988200128.74628116.9ó 00128.74628 116.9 110110 1110111 11111111 110110 1110111 11111111 110110 1110111 11111111 1101101011 1010111101 1011110100 1111101011 10000101111 1100110010 1100011011 1100100001 1100001001 24.813 45.525 999.23 103264 22 16 14 59 52 3 $GNGGA,130549.00,4333.69882,N,00128.74628,E,1,05,1.73,116.9,M,53.8,M,,*47
