id HH MM SS longitude latitude altitude adc_1_ch0 adc_1_ch1 adc_1_ch2 adc_1_ch3 adc_1_ch4 adc_1_ch5 adc_1_ch6 adc_1_ch7 adc_1_ch8 adc_2_ch0 adc_2_ch1 adc_2_ch2 adc_2_ch3 adc_2_ch4 adc_2_ch5 adc_2_ch6 adc_2_ch7 adc_2_ch8 temp hum pres t_prog t_gps t_split t_adc t_temp t_hum t_pres trame_gga
1 13 06 06 4333.7006700128.74142121.6ó 00128.74142 121.6 110110 1110111 11111111 110110 1110111 11111111 110110 1110111 11111111 1101100111 1011111101 1100100000 1111101111 10000110011 1100100101 1101011011 1111111010 1100101001 24.813 45.594 795.83 2997 22 16 14 59 52 3 $GNGGA,130606.00,4333.70067,N,00128.74142,E,1,05,1.73,121.6,M,53.8,M,,*44
2 13 06 07 4333.7010100128.74073121.8ó 00128.74073 121.8 110110 1110111 11111111 110110 1110111 11111111 110110 1110111 11111111 1101100111 1011111110 1100100000 1111110000 10000110010 1100100010 1101011000 1111111001 1100011110 24.813 45.624 999.20 3993 22 15 14 60 51 3 $GNGGA,130607.00,4333.70101,N,00128.74073,E,1,05,1.73,121.8,M,53.8,M,,*49
3 13 06 08 4333.7007900128.74073122.1ó 00128.74073 122.1 110110 1110111 11111111 110110 1110111 11111111 110110 10000000 0 1101100111 1011111101 1100100001 1111110001 10000110101 1100100001 1101010100 1111110110 1100011101 24.813 45.594 999.21 4994 21 16 15 59 51 3 $GNGGA,130608.00,4333.70079,N,00128.74073,E,1,05,1.74,122.1,M,53.8,M,,*45
4 13 06 09 4333.7008300128.74058122.2ó 00128.74058 122.2 110110 10000000 0 110110 1110111 11111111 110110 1110111 11111111 1101100111 1100000000 1100100001 1111111000 10000110111 1100100101 1101011011 1111110101 1100011101 24.875 45.502 999.23 5992 22 15 14 60 51 3 $GNGGA,130609.00,4333.70083,N,00128.74058,E,1,04,1.77,122.2,M,53.8,M,,*49
5 13 06 10 Nan Nan Nan 110110 1110111 11111111 110110 1110111 11111111 110110 1110111 11111111 1101100111 1100000001 1100100000 1111101101 10000110001 1100100000 1101010011 1111110010 1100100100 24.813 45.395 999.23 6978 22 7 11 60 51 3 $GNGGA,130610.00,,,,,0,00,99.9,,,,,,*44
6 13 06 11 Nan Nan Nan 110110 10000000 0 110110 1110111 11111111 110110 1110111 11111111 1101100111 1011111110 1100100010 1111110001 10000110101 1100100111 1101011110 1111110001 1100011110 24.813 45.426 999.24 7975 21 7 12 59 51 3 $GNGGA,130611.00,,,,,0,00,99.9,,,,,,*45
7 13 06 12 Nan Nan Nan 110110 1110111 11111111 110110 1110111 11111111 110110 1110111 11111111 1101100111 1100000000 1100100010 1111101100 10000101110 1100100010 1101011000 1111110111 1100100000 24.813 45.456 999.24 8974 22 6 11 60 50 4 $GNGGA,130612.00,,,,,0,00,99.9,,,,,,*46
8 13 06 13 4333.7012700128.74009122.4ó 00128.74009 122.4 110110 1110111 11111111 110110 1110111 11111111 110110 1110111 11111111 1101100111 1011111111 1100100010 1111110110 10000110100 1100100011 1101010010 1111111110 1100101011 24.875 45.510 999.24 9988 21 16 14 59 51 4 $GNGGA,130613.00,4333.70127,N,00128.74009,E,1,04,1.77,122.4,M,53.8,M,,*4F
9 13 06 14 4333.7018800128.74009122.6ó 00128.74009 122.6 110110 1110111 11111111 110110 1110111 11111111 110110 1110111 11111111 1101100111 1100000000 1100100011 1111110100 10000110100 1100100001 1101010100 1111110001 1100100010 24.875 45.601 999.23 10987 23 15 13 60 50 4 $GNGGA,130614.00,4333.70188,N,00128.74009,E,1,04,1.77,122.6,M,53.8,M,,*4F
10 13 06 15 4333.7012100128.74001122.8ó 00128.74001 122.8 110110 1110111 11111111 110110 1110111 11111111 110110 1110111 11111111 1101100111 1011111100 1100011100 1111110011 10000110001 1100100010 1101010111 1111110011 1100011110 24.813 45.708 999.23 11985 21 15 15 59 51 3 $GNGGA,130615.00,4333.70121,N,00128.74001,E,1,04,1.77,122.8,M,53.8,M,,*4B
11 13 06 16 4333.6992600128.74163122.9ó 00128.74163 122.9 110110 1110111 11111111 110110 1110111 11111111 110110 1110111 11111111 1101100111 1011111111 1100011110 1111110001 10000110011 1100101010 1101011010 1111111001 1100011000 24.813 45.807 999.24 12985 22 16 14 60 51 3 $GNGGA,130616.00,4333.69926,N,00128.74163,E,1,04,1.77,122.9,M,53.8,M,,*4B
12 13 06 17 4333.6976900128.74320123.1ó 00128.74320 123.1 110110 1110111 11111111 110110 1110111 11111111 110110 1110111 11111111 1101100111 1011111110 1100011111 1111110110 10000110110 1100011110 1101001110 1111111011 1100100100 24.875 45.884 999.23 13983 21 14 14 58 51 4 $GNGGA,130617.00,4333.69769,N,00128.74320,E,1,04,1.77,123.1,M,53.8,M,,*43
13 13 06 18 4333.6962500128.74454123.2ó 00128.74454 123.2 110110 1110111 11111111 110110 1110111 11111111 110110 1110111 11111111 1101100111 1011111110 1100011110 1111101110 10000110011 1100100000 1101010110 1111110110 1100011100 24.813 45.922 999.23 14981 22 15 13 59 50 5 $GNGGA,130618.00,4333.69625,N,00128.74454,E,1,04,1.77,123.2,M,53.8,M,,*42
14 13 06 19 4333.6954900128.74480123.3ó 00128.74480 123.3 110110 1110111 11111111 110110 1110111 11111111 110110 1110111 11111111 1101100111 1011111110 1100100010 1111101010 10000110001 1100011111 1101010101 1111110100 1100100100 24.813 45.929 999.23 15982 23 15 13 60 50 4 $GNGGA,130619.00,4333.69549,N,00128.74480,E,1,04,1.77,123.3,M,53.8,M,,*42
15 13 06 20 4333.6949500128.74545123.5ó 00128.74545 123.5 110110 10000000 0 110110 1110111 11111111 110110 1110111 11111111 1101100111 1100000000 1100100010 1111101110 10000110011 1100100010 1101010101 1111110111 1100101001 24.813 45.922 999.23 16980 21 15 15 59 51 3 $GNGGA,130620.00,4333.69495,N,00128.74545,E,1,04,1.77,123.5,M,53.8,M,,*46
16 13 06 21 4333.6943200128.74610123.6ó 00128.74610 123.6 110110 1110111 11111111 110110 10000000 0 110110 10000000 0 1101101000 1100000001 1100100010 1111110000 10000110010 1100100001 1101011001 1111111100 1100101001 24.813 45.914 999.24 17980 22 15 14 60 51 3 $GNGGA,130621.00,4333.69432,N,00128.74610,E,1,04,1.77,123.6,M,53.8,M,,*4A
17 13 06 22 4333.6933700128.74701123.7ó 00128.74701 123.7 110110 1110111 11111111 110110 1110111 11111111 110110 1110111 11111111 1101101000 1011111110 1100011110 1111110000 10000110100 1100100111 1101011011 10000000000 1100101110 24.813 45.922 999.23 18978 21 15 15 59 51 3 $GNGGA,130622.00,4333.69337,N,00128.74701,E,1,04,1.77,123.7,M,53.8,M,,*4B
18 13 06 23 4333.6940700128.74445123.7ó 00128.74445 123.7 110110 1110111 11111111 110110 1110111 11111111 110110 1110111 11111111 1101101000 1100000011 1100100011 1111101001 10000110001 1100011111 1101010110 1111110010 1100100101 24.813 45.945 999.24 19978 22 16 14 59 52 3 $GNGGA,130623.00,4333.69407,N,00128.74445,E,1,04,1.77,123.7,M,53.8,M,,*4D
19 13 06 24 4333.6939000128.74395123.9ó 00128.74395 123.9 110110 1110111 11111111 110110 1110111 11111111 110110 1110111 11111111 1101100111 1011111110 1100100000 1111101111 10000110010 1100100100 1101010110 1111110010 1100100010 24.813 45.968 999.24 20976 22 14 13 59 51 4 $GNGGA,130624.00,4333.69390,N,00128.74395,E,1,04,1.77,123.9,M,53.8,M,,*47
20 13 06 25 4333.6934200128.74398124.0ó 00128.74398 124.0 110110 1110111 11111111 110110 1110111 11111111 110110 1110111 11111111 1101101000 1100000000 1100011111 1111110000 10000110011 1100100010 1101011011 1111110101 1100100111 24.875 45.975 999.24 21975 21 15 14 58 51 4 $GNGGA,130625.00,4333.69342,N,00128.74398,E,1,04,1.77,124.0,M,53.8,M,,*4A
21 13 06 26 4333.6941500128.74305124.2ó 00128.74305 124.2 110110 10000000 0 110110 1110111 11111111 110110 1110111 11111111 1101100111 1011111111 1100011101 1111111000 10000110101 1100100000 1101011001 1111110100 1100101010 24.813 45.983 999.23 22974 22 14 13 59 51 4 $GNGGA,130626.00,4333.69415,N,00128.74305,E,1,04,1.77,124.2,M,53.8,M,,*4A
22 13 06 27 4333.6940900128.74266124.2ó 00128.74266 124.2 110110 1110111 11111111 110110 1110111 11111111 110110 1110111 11111111 1101100111 1011111111 1100100011 1111110000 10000110010 1100100010 1101010010 1111110101 1100101101 24.875 45.991 999.24 23973 21 15 15 59 51 3 $GNGGA,130627.00,4333.69409,N,00128.74266,E,1,04,1.77,124.2,M,53.8,M,,*42
23 13 06 28 4333.6945900128.74155124.4ó 00128.74155 124.4 110110 1110111 11111111 110110 1110111 11111111 110110 1110111 11111111 1101100111 1100000000 1100100000 1111111001 10000110100 1100100100 1101010101 1111110010 1100101000 24.875 46.013 999.24 24973 23 15 13 59 51 4 $GNGGA,130628.00,4333.69459,N,00128.74155,E,1,04,1.77,124.4,M,53.8,M,,*4D
24 13 06 29 4333.6941300128.74128124.4ó 00128.74128 124.4 110110 1110111 11111111 110110 1110111 11111111 110110 1110111 11111111 1101100111 1011111101 1100100001 1111110000 10000101111 1100100001 1101010100 1111110001 1100100111 24.813 45.960 999.24 25970 22 15 14 60 51 3 $GNGGA,130629.00,4333.69413,N,00128.74128,E,1,04,1.77,124.4,M,53.8,M,,*48
25 13 06 30 4333.6935500128.74115124.5ó 00128.74115 124.5 110110 1110111 11111111 110110 1110111 11111111 110110 1110111 11111111 1101100111 1100000010 1100100000 1111110000 10000110001 1100100000 1101011011 1111110110 1100100101 24.875 45.846 999.23 26971 21 16 14 59 51 4 $GNGGA,130630.00,4333.69355,N,00128.74115,E,1,04,1.77,124.5,M,53.8,M,,*4A
26 13 06 31 4333.6936600128.74033124.7ó 00128.74033 124.7 110110 1110111 11111111 110110 1110111 11111111 110110 1110111 11111111 1101100111 1100000001 1100100010 1111110001 10000110011 1100100010 1101010110 1111111000 1100100010 24.875 45.777 999.22 27969 22 14 13 59 51 4 $GNGGA,130631.00,4333.69366,N,00128.74033,E,1,04,1.77,124.7,M,53.8,M,,*4C
27 13 06 32 4333.6942900128.73924124.8ó 00128.73924 124.8 110110 1110111 11111111 110110 1110111 11111111 110110 10000000 0 1101100111 1100000001 1100100011 1111110011 10000110100 1100011101 1101010010 1111110001 1100100001 24.813 45.746 999.23 28968 21 15 15 59 50 4 $GNGGA,130632.00,4333.69429,N,00128.73924,E,1,04,1.77,124.8,M,53.8,M,,*44
28 13 06 33 4333.6942800128.73912124.8ó 00128.73912 124.8 110110 10000000 0 110110 10000000 0 110110 10000000 0 1101100111 1100000000 1100011101 1111110011 10000110011 1100011111 1101011001 10000000000 1100110010 24.813 45.723 999.22 29967 22 14 13 59 51 4 $GNGGA,130633.00,4333.69428,N,00128.73912,E,1,04,1.77,124.8,M,53.8,M,,*41
29 13 06 34 4333.6944500128.73860124.8ó 00128.73860 124.8 110110 1110111 11111111 110110 1110111 11111111 110110 10000000 0 1101100111 1011111110 1100011111 1111110001 10000110010 1100100001 1101010111 1111111110 1100101010 24.875 45.655 999.23 30965 21 14 14 58 51 4 $GNGGA,130634.00,4333.69445,N,00128.73860,E,1,04,1.77,124.8,M,53.8,M,,*49
30 13 06 35 4333.6949600128.73789124.8ó 00128.73789 124.8 110110 1110111 11111111 110110 1110111 11111111 110110 1110111 11111111 1101100111 1011111101 1100100000 1111110000 10000110010 1100100101 1101011100 1111111100 1100100100 24.813 45.655 999.25 31965 21 15 13 58 52 4 $GNGGA,130635.00,4333.69496,N,00128.73789,E,1,04,1.77,124.8,M,53.8,M,,*4E
31 13 06 36 4333.6949500128.73808124.6ó 00128.73808 124.6 110110 1110111 11111111 110110 1110111 11111111 110110 10000000 0 1101101000 1100000000 1100100010 1111110111 10000111000 1100100011 1101010101 1111111110 1100101011 24.813 45.678 999.25 32964 23 15 13 60 50 4 $GNGGA,130636.00,4333.69495,N,00128.73808,E,1,04,1.77,124.6,M,53.8,M,,*46
32 13 06 37 4333.6951900128.73732124.5ó 00128.73732 124.5 110110 10000000 0 110110 1110111 11111111 110110 1110111 11111111 1101100111 1011111101 1100011111 1111101010 10000110000 1100011111 1101010100 1111110111 1100101000 24.875 45.678 999.24 33964 22 16 14 59 50 4 $GNGGA,130637.00,4333.69519,N,00128.73732,E,1,04,1.77,124.5,M,53.8,M,,*47
33 13 06 38 4333.6956400128.73663124.6ó 00128.73663 124.6 110110 10000000 0 110110 1110111 11111111 110110 1110111 11111111 1101100111 1011111111 1100100001 1111110000 10000110011 1100011101 1101010010 1111110010 1100011010 24.875 45.662 999.25 34962 22 14 13 59 51 4 $GNGGA,130638.00,4333.69564,N,00128.73663,E,1,04,1.77,124.6,M,53.8,M,,*44
34 13 06 39 4333.6951700128.73735124.6ó 00128.73735 124.6 110110 1110111 11111111 110110 10000000 0 110110 1110111 11111111 1101100111 1100000000 1100100100 1111110111 10000110110 1100100011 1101011010 1111110101 1100011010 24.875 45.662 999.24 35960 21 15 15 59 51 3 $GNGGA,130639.00,4333.69517,N,00128.73735,E,1,04,1.77,124.6,M,53.8,M,,*43
35 13 06 40 4333.6962000128.73540124.8ó 00128.73540 124.8 110110 1110111 11111111 110110 1110111 11111111 110110 10000000 0 1101100111 1011111110 1100011110 1111110110 10000110011 1100100010 1101011000 1111110110 1100100000 24.875 45.693 999.25 36959 23 16 13 59 51 4 $GNGGA,130640.00,4333.69620,N,00128.73540,E,1,04,1.77,124.8,M,53.8,M,,*44
36 13 06 41 4333.6962600128.73543124.9ó 00128.73543 124.9 110110 1110111 11111111 110110 10000000 0 110110 10000000 0 1101101000 1100000000 1100100100 1111111100 10000110100 1100100001 1101010101 1111110001 1100011001 24.875 45.739 999.24 37958 22 15 14 60 51 3 $GNGGA,130641.00,4333.69626,N,00128.73543,E,1,04,1.77,124.9,M,53.8,M,,*41
37 13 06 42 4333.6955400128.73613125.2ó 00128.73613 125.2 110110 1110111 11111111 110110 1110111 11111111 110110 1110111 11111111 1101100111 1100000001 1100100001 1111101111 10000110001 1100100010 1101011010 1111101010 1100011001 24.875 45.769 999.24 38958 22 15 13 59 50 5 $GNGGA,130642.00,4333.69554,N,00128.73613,E,1,04,1.77,125.2,M,53.8,M,,*48
38 13 06 43 4333.6952800128.73643125.3ó 00128.73643 125.3 110110 10000000 0 110110 1110111 11111111 110110 1110111 11111111 1101101000 1011111111 1100100001 1111110011 10000110110 1100100100 1101011000 1111110100 1100100110 24.875 45.792 999.23 39957 22 15 14 60 51 3 $GNGGA,130643.00,4333.69528,N,00128.73643,E,1,04,1.77,125.3,M,53.8,M,,*46
39 13 06 44 4333.6959200128.73548125.3ó 00128.73548 125.3 110110 1110111 11111111 110110 1110111 11111111 110110 1110111 11111111 1101100111 1011111111 1100100000 1111101111 10000110001 1100100000 1101010111 1111111000 1100100111 24.875 45.807 999.22 40956 21 15 15 59 51 3 $GNGGA,130644.00,4333.69592,N,00128.73548,E,1,04,1.77,125.3,M,53.8,M,,*48
40 13 06 45 4333.6951600128.73639125.5ó 00128.73639 125.5 110110 1110111 11111111 110110 1110111 11111111 110110 1110111 11111111 1101100111 1011111100 1100011101 1111110101 10000110100 1100100010 1101010111 1111101111 1100011111 24.813 45.823 999.22 41955 22 16 14 59 52 3 $GNGGA,130645.00,4333.69516,N,00128.73639,E,1,04,1.77,125.5,M,53.8,M,,*46
41 13 06 46 4333.6953200128.73664125.5ó 00128.73664 125.5 110110 10000000 0 110110 10000000 0 110110 1110111 11111111 1101100111 1011111110 1100011101 1111110001 10000110101 1100100001 1101011010 1111101110 1100010011 24.875 45.815 999.23 42954 21 15 15 59 51 3 $GNGGA,130646.00,4333.69532,N,00128.73664,E,1,04,1.77,125.5,M,53.8,M,,*4B
42 13 06 47 4333.6950800128.73697125.7ó 00128.73697 125.7 110110 1110111 11111111 110110 1110111 11111111 110110 10000000 0 1101100111 1100000000 1100011111 1111110001 10000110011 1100100011 1101011000 1111110001 1100011100 24.875 45.815 999.23 43952 21 16 14 59 51 4 $GNGGA,130647.00,4333.69508,N,00128.73697,E,1,04,1.77,125.7,M,53.8,M,,*4D
43 13 06 48 4333.6954700128.73607125.8ó 00128.73607 125.8 110110 1110111 11111111 110110 1110111 11111111 110110 1110111 11111111 1101101000 1100000000 1100100000 1111110010 10000110010 1100100010 1101010101 1111110100 1100101000 24.813 45.823 999.25 44951 22 15 14 60 51 3 $GNGGA,130648.00,4333.69547,N,00128.73607,E,1,04,1.77,125.8,M,53.8,M,,*4F
44 13 06 49 4333.6963600128.73506126.0ó 00128.73506 126.0 110110 1110111 11111111 110110 1110111 11111111 110110 10000000 0 1101100111 1011111110 1100011111 1111110100 10000110011 1100011111 1101001110 1111110011 1100100001 24.875 45.846 999.24 45950 21 14 14 58 51 4 $GNGGA,130649.00,4333.69636,N,00128.73506,E,1,04,1.77,126.0,M,53.8,M,,*42
45 13 06 50 4333.6963400128.73516126.2ó 00128.73516 126.2 110110 10000000 0 110110 1110111 11111111 110110 1110111 11111111 1101101000 1011111111 1100100000 1111110011 10000110101 1100100000 1101010100 1111110111 1100100100 24.875 45.876 999.24 46950 22 14 13 59 51 4 $GNGGA,130650.00,4333.69634,N,00128.73516,E,1,04,1.77,126.2,M,53.8,M,,*4B
46 13 06 51 4333.6959500128.73601126.3ó 00128.73601 126.3 110110 1110111 11111111 110110 10000000 0 110110 1110111 11111111 1101101000 1100000000 1100100011 1111101110 10000110100 1100100111 1101011010 1111101011 1100011000 24.813 45.929 999.24 47948 21 14 14 58 51 4 $GNGGA,130651.00,4333.69595,N,00128.73601,E,1,04,1.77,126.3,M,53.8,M,,*46
47 13 06 52 4333.6959000128.73402126.7ó 00128.73402 126.7 110110 1110111 11111111 110110 10000000 0 110110 1110111 11111111 1101100111 1011111110 1100100001 1111110001 10000110010 1100011111 1101001110 1111101001 1100011100 24.875 45.975 999.22 48947 21 15 13 59 51 4 $GNGGA,130652.00,4333.69590,N,00128.73402,E,1,04,1.77,126.7,M,53.8,M,,*45
48 13 06 53 4333.6957500128.73377126.8ó 00128.73377 126.8 110110 1110111 11111111 110110 10000000 0 110110 1110111 11111111 1101100111 1011111111 1100100001 1111101011 10000101101 1100100100 1101010110 1111110000 1100100010 24.875 46.006 999.23 49946 22 15 14 60 51 3 $GNGGA,130653.00,4333.69575,N,00128.73377,E,1,04,1.77,126.8,M,53.8,M,,*45
49 13 06 54 4333.6958900128.73352127.0ó 00128.73352 127.0 110110 1110111 11111111 110110 10000000 0 110110 1110111 11111111 1101100111 1011111111 1100100010 1111111001 10000110101 1100100011 1101011011 1111101101 1100011001 24.813 46.029 999.24 50946 21 15 15 59 51 3 $GNGGA,130654.00,4333.69589,N,00128.73352,E,1,04,1.77,127.0,M,53.8,M,,*4F
50 13 06 55 4333.6951400128.73386127.1ó 00128.73386 127.1 110110 1110111 11111111 110110 1110111 11111111 110110 1110111 11111111 1101101000 1011111110 1100100001 1111111010 10000110110 1100100100 1101010101 1111110001 1100011101 24.875 46.021 999.24 51945 22 15 14 60 51 3 $GNGGA,130655.00,4333.69514,N,00128.73386,E,1,04,1.77,127.1,M,53.8,M,,*42
51 13 06 56 4333.6954300128.73464127.3ó 00128.73464 127.3 110110 1110111 11111111 110110 1110111 11111111 110110 10000000 0 1101100111 1011111011 1100011101 1111110101 10000110101 1100101000 1101011000 1111110100 1100011101 24.875 46.021 999.24 52943 21 15 15 59 51 3 $GNGGA,130656.00,4333.69543,N,00128.73464,E,1,04,1.77,127.3,M,53.8,M,,*4A
52 13 06 57 4333.6956000128.73330127.6ó 00128.73330 127.6 110110 1110111 11111111 110110 1110111 11111111 110110 10000000 0 1101101000 1011111100 1100011110 1111111000 10000110100 1100011110 1101010100 1111101000 1100010101 24.875 46.006 999.24 53943 22 16 14 59 52 3 $GNGGA,130657.00,4333.69560,N,00128.73330,E,1,04,1.77,127.6,M,53.8,M,,*49
53 13 06 58 4333.6952100128.73310127.9ó 00128.73310 127.9 110110 1110111 11111111 110110 1110111 11111111 110110 1110111 11111111 1101100111 1011111101 1100011101 1111110110 10000110011 1100100100 1101010101 1111110100 1100100000 24.938 45.991 999.22 54940 22 15 14 60 51 3 $GNGGA,130658.00,4333.69521,N,00128.73310,E,1,04,1.77,127.9,M,53.8,M,,*4E
54 13 06 59 4333.6947700128.73310128.4ó 00128.73310 128.4 110110 1110111 11111111 110110 1110111 11111111 110110 10000000 0 1101101000 1011111111 1100011110 1111110101 10000110101 1100100011 1101010101 1111100100 1100011100 24.875 45.991 999.23 55941 21 15 13 58 51 5 $GNGGA,130659.00,4333.69477,N,00128.73310,E,1,04,1.77,128.4,M,53.8,M,,*4F
55 13 07 00 4333.6949700128.73310128.8ó 00128.73310 128.8 110110 1110111 11111111 110110 1110111 11111111 110110 10000000 0 1101101000 1011111101 1100100000 1111110001 10000110011 1100011100 1101010000 1111101110 1100010111 24.938 46.036 999.23 56940 22 15 14 60 51 3 $GNGGA,130700.00,4333.69497,N,00128.73310,E,1,04,1.77,128.8,M,53.8,M,,*40
56 13 07 01 Nan Nan Nan 110110 1110111 11111111 110110 1110111 11111111 110110 10000000 0 1101101000 1100000000 1100100010 1111110110 10000110101 1100011100 1101010100 1111110010 1100100010 24.875 46.067 999.24 57925 23 7 10 60 50 4 $GNGGA,130701.00,,,,,0,00,99.9,,,,,,*45
57 13 07 02 4333.6951600128.73332127.0ó 00128.73332 127.0 110110 10000000 0 110110 1110111 11111111 110110 1110111 11111111 1101100111 1011111111 1100100000 1111110011 10000110010 1100011110 1101001111 1111110001 1100011110 24.875 46.090 999.24 58938 22 15 14 60 50 4 $GNGGA,130702.00,4333.69516,N,00128.73332,E,1,03,2.35,127.0,M,53.8,M,,*4F
58 13 07 03 4333.6947800128.73383127.1ó 00128.73383 127.1 110110 10000000 0 110110 1110111 11111111 110110 10000000 0 1101100111 1011111100 1100011101 1111110011 10000110010 1100100010 1101011000 1111101110 1100010110 24.875 46.097 999.24 59935 21 14 14 59 50 4 $GNGGA,130703.00,4333.69478,N,00128.73383,E,1,03,2.35,127.1,M,53.8,M,,*4C
59 13 07 04 4333.6944200128.73452127.2ó 00128.73452 127.2 110110 1110111 11111111 110110 1110111 11111111 110110 1110111 11111111 1101101000 1100000000 1100100011 1111111001 10000110100 1100100010 1101011100 1111101111 1100010110 24.875 46.082 999.24 60935 22 15 13 59 51 4 $GNGGA,130704.00,4333.69442,N,00128.73452,E,1,03,2.35,127.2,M,53.8,M,,*4A
60 13 07 05 4333.6942400128.73464127.3ó 00128.73464 127.3 110110 10000000 0 110110 1110111 11111111 110110 1110111 11111111 1101100111 1011111111 1100011111 1111111010 10000110110 1100101000 1101011001 1111101011 1100010001 24.813 46.067 999.25 61934 23 15 13 60 50 4 $GNGGA,130705.00,4333.69424,N,00128.73464,E,1,03,2.35,127.3,M,53.8,M,,*4F
61 13 07 06 4333.6943100128.73463127.4ó 00128.73463 127.4 110110 1110111 11111111 110110 1110111 11111111 110110 10000000 0 1101100111 1011111101 1100100000 1111110101 10000110011 1100100010 1101010110 1111110010 1100011001 24.875 46.059 999.24 62934 21 16 15 59 51 3 $GNGGA,130706.00,4333.69431,N,00128.73463,E,1,03,2.35,127.4,M,53.8,M,,*48
62 13 07 07 4333.6951600128.73382127.5ó 00128.73382 127.5 110110 10000000 0 110110 10000000 0 110110 1110111 11111111 1101100111 1011111111 1100100001 1111110010 10000110011 1100011111 1101011000 1111110000 1100010110 24.813 46.052 999.23 63932 22 14 14 60 51 3 $GNGGA,130707.00,4333.69516,N,00128.73382,E,1,03,2.35,127.5,M,53.8,M,,*44
63 13 07 08 4333.6948200128.73502127.5ó 00128.73502 127.5 110110 10000000 0 110110 1110111 11111111 110110 10000000 0 1101100111 1011111111 1100100000 1111110100 10000111000 1100100101 1101011011 1111101111 1100011000 24.875 46.036 999.22 64930 21 14 14 59 50 4 $GNGGA,130708.00,4333.69482,N,00128.73502,E,1,03,2.35,127.5,M,53.8,M,,*49
64 13 07 09 4333.6949500128.73600127.4ó 00128.73600 127.4 110110 10000000 0 110110 1110111 11111111 110110 10000000 0 1101100111 1100000010 1100100001 1111110010 10000110110 1100011111 1101010101 1111101110 1100010101 24.938 46.044 999.23 65929 21 16 14 59 52 3 $GNGGA,130709.00,4333.69495,N,00128.73600,E,1,04,1.77,127.4,M,53.8,M,,*4C
65 13 07 10 4333.6952500128.73654127.3ó 00128.73654 127.3 110110 10000000 0 110110 10000000 0 110110 1110111 11111111 1101101000 1100000000 1100100001 1111110101 10000110110 1100100000 1101010010 1111110000 1100011010 24.875 46.052 999.23 66929 22 14 13 59 51 4 $GNGGA,130710.00,4333.69525,N,00128.73654,E,1,04,1.77,127.3,M,53.8,M,,*48
66 13 07 11 4333.6948500128.73783127.4ó 00128.73783 127.4 110110 1110111 11111111 110110 1110111 11111111 110110 1110111 11111111 1101101000 1011111111 1100100000 1111110010 10000110100 1100100001 1101011100 1111101101 1100011000 24.875 46.059 999.23 67929 21 16 14 59 50 5 $GNGGA,130711.00,4333.69485,N,00128.73783,E,1,04,1.77,127.4,M,53.8,M,,*4E
67 13 07 12 4333.6948400128.73775127.4ó 00128.73775 127.4 110110 1110111 11111111 110110 1110111 11111111 110110 1110111 11111111 1101100111 1011111111 1100100010 1111101101 10000110000 1100100001 1101011001 1111101110 1100011100 24.875 46.059 999.23 68928 22 15 14 60 51 3 $GNGGA,130712.00,4333.69484,N,00128.73775,E,1,04,1.77,127.4,M,53.8,M,,*45
68 13 07 13 4333.6942900128.73884127.5ó 00128.73884 127.5 110110 1110111 11111111 110110 1110111 11111111 110110 1110111 11111111 1101101000 1011111100 1100011111 1111110111 10000110110 1100100000 1101010110 1111101110 1100011110 24.875 46.052 999.23 69926 22 14 14 59 50 4 $GNGGA,130713.00,4333.69429,N,00128.73884,E,1,04,1.77,127.5,M,53.8,M,,*43
69 13 07 14 4333.6937100128.73958127.5ó 00128.73958 127.5 110110 10000000 0 110110 1110111 11111111 110110 10000000 0 1101101000 1100000010 1100100010 1111111000 10000110110 1100100010 1101011000 1111101100 1100011011 24.875 46.067 999.23 70926 22 16 13 59 51 4 $GNGGA,130714.00,4333.69371,N,00128.73958,E,1,04,1.77,127.5,M,53.8,M,,*4E
70 13 07 15 4333.6932600128.74052127.6ó 00128.74052 127.6 110110 10000000 0 110110 1110111 11111111 110110 1110111 11111111 1101100111 1100000000 1100100010 1111110000 10000110101 1100100111 1101011001 1111101000 1100010010 24.875 46.090 999.25 71924 21 14 14 58 51 4 $GNGGA,130715.00,4333.69326,N,00128.74052,E,1,04,1.77,127.6,M,53.8,M,,*4A
71 13 07 16 4333.6935500128.74259127.6ó 00128.74259 127.6 110110 10000000 0 110110 1110111 11111111 110110 1110111 11111111 1101100111 1011111111 1100100001 1111101100 10000110110 1100100011 1101010110 1111101000 1100010110 24.813 46.120 999.25 72921 21 15 13 58 51 5 $GNGGA,130716.00,4333.69355,N,00128.74259,E,1,04,1.77,127.6,M,53.8,M,,*44
72 13 07 17 4333.6935800128.74092127.8ó 00128.74092 127.8 110110 1110111 11111111 110110 10000000 0 110110 1110111 11111111 1101100111 1100000000 1100100010 1111110100 10000110010 1100100100 1101011000 1111101010 1100011011 24.938 46.135 999.24 73922 22 15 14 60 51 3 $GNGGA,130717.00,4333.69358,N,00128.74092,E,1,04,1.77,127.8,M,53.8,M,,*43
73 13 07 18 4333.6931600128.74104127.9ó 00128.74104 127.9 110110 1110111 11111111 110110 10000000 0 110110 1110111 11111111 1101101000 1011111110 1100100001 1111110011 10000110011 1100100100 1101010001 1111101010 1100011001 24.875 46.158 999.24 74921 22 15 14 59 50 4 $GNGGA,130718.00,4333.69316,N,00128.74104,E,1,04,1.77,127.9,M,53.8,M,,*49
74 13 07 19 4333.6928200128.74156128.1ó 00128.74156 128.1 110110 1110111 11111111 110110 1110111 11111111 110110 1110111 11111111 1101101000 1011111111 1100100001 1111110001 10000110010 1100011101 1101010011 1111101001 1100010101 24.875 46.166 999.24 75920 23 14 13 60 50 4 $GNGGA,130719.00,4333.69282,N,00128.74156,E,1,04,1.77,128.1,M,53.8,M,,*44
75 13 07 20 4333.6927200128.74204128.2ó 00128.74204 128.2 110110 1110111 11111111 110110 1110111 11111111 110110 10000000 0 1101100111 1100000000 1100100000 1111101000 10000101111 1100100111 1101011011 1111110000 1100011010 24.875 46.158 999.23 76917 22 14 14 59 50 4 $GNGGA,130720.00,4333.69272,N,00128.74204,E,1,04,1.77,128.2,M,53.8,M,,*46
76 13 07 21 4333.6920900128.74237128.3ó 00128.74237 128.3 110110 1110111 11111111 110110 1110111 11111111 110110 1110111 11111111 1101100111 1011111110 1100011111 1111110001 10000110100 1100100100 1101011011 1111101111 1100100000 24.875 46.166 999.24 77918 21 15 13 58 52 4 $GNGGA,130721.00,4333.69209,N,00128.74237,E,1,04,1.77,128.3,M,53.8,M,,*4A
77 13 07 22 4333.6923900128.74183128.4ó 00128.74183 128.4 110110 1110111 11111111 110110 1110111 11111111 110110 1110111 11111111 1101101000 1011111110 1100100000 1111110111 10000110100 1100100101 1101010111 1111101100 1100010111 24.938 46.174 999.24 78917 22 15 14 60 51 3 $GNGGA,130722.00,4333.69239,N,00128.74183,E,1,04,1.77,128.4,M,53.8,M,,*41
78 13 07 23 4333.6928400128.74110128.5ó 00128.74110 128.5 110110 1110111 11111111 110110 10000000 0 110110 1110111 11111111 1101101000 1100000000 1100100000 1111110110 10000110111 1100100110 1101011000 1111110001 1100011010 24.875 46.166 999.24 79917 21 16 15 59 50 4 $GNGGA,130723.00,4333.69284,N,00128.74110,E,1,04,1.77,128.5,M,53.8,M,,*4D
79 13 07 24 4333.6925900128.74111128.5ó 00128.74111 128.5 110110 10000000 0 110110 1110111 11111111 110110 1110111 11111111 1101100111 1011111101 1100100010 1111110111 10000110101 1100100101 1101010101 1111110010 1100011011 24.875 46.158 999.24 80915 22 14 14 60 51 3 $GNGGA,130724.00,4333.69259,N,00128.74111,E,1,04,1.77,128.5,M,53.8,M,,*4B
80 13 07 25 4333.6929500128.74112128.5ó 00128.74112 128.5 110110 10000000 0 110110 1110111 11111111 110110 10000000 0 1101100111 1011111111 1100100001 1111101100 10000110010 1100011100 1101010000 1111110000 1100011000 24.938 46.143 999.24 81913 21 15 15 59 51 3 $GNGGA,130725.00,4333.69295,N,00128.74112,E,1,04,1.77,128.5,M,53.8,M,,*49
81 13 07 26 4333.6924700128.74154128.6ó 00128.74154 128.6 110110 1110111 11111111 110110 1110111 11111111 110110 1110111 11111111 1101100111 1011111110 1100011111 1111110111 10000110110 1100100010 1101010001 1111101110 1100011101 24.938 46.135 999.24 82913 22 16 14 59 52 3 $GNGGA,130726.00,4333.69247,N,00128.74154,E,1,04,1.77,128.6,M,53.8,M,,*44
82 13 07 27 4333.6925500128.74135128.6ó 00128.74135 128.6 110110 10000000 0 110110 1110111 11111111 110110 1110111 11111111 1101101000 1011111101 1100011110 1111110100 10000110001 1100100011 1101010101 1111110010 1100011011 24.875 46.120 999.25 83910 22 14 13 60 50 4 $GNGGA,130727.00,4333.69255,N,00128.74135,E,1,04,1.77,128.6,M,53.8,M,,*41
83 13 07 28 4333.6929700128.74101128.6ó 00128.74101 128.6 110110 1110111 11111111 110110 1110111 11111111 110110 1110111 11111111 1101100111 1100000000 1100100010 1111110100 10000111000 1100100000 1101010101 1111110000 1100011100 24.875 46.120 999.25 84911 21 15 13 58 51 5 $GNGGA,130728.00,4333.69297,N,00128.74101,E,1,04,1.77,128.6,M,53.8,M,,*47
84 13 07 29 4333.6936000128.73948128.6ó 00128.73948 128.6 110110 1110111 11111111 110110 10000000 0 110110 10000000 0 1101100111 1100000000 1100100010 1111111000 10000110111 1100100010 1101011011 1111101100 1100010000 24.875 46.120 999.24 85909 22 14 13 60 50 4 $GNGGA,130729.00,4333.69360,N,00128.73948,E,1,04,1.77,128.6,M,53.8,M,,*4D
85 13 07 30 4333.6937900128.73869128.7ó 00128.73869 128.7 110110 10000000 0 110110 1110111 11111111 110110 1110111 11111111 1101101000 1100000000 1100100001 1111110111 10000110110 1100011110 1101001111 1111101000 1100010111 24.875 46.120 999.24 86909 22 15 14 59 50 4 $GNGGA,130730.00,4333.69379,N,00128.73869,E,1,04,1.77,128.7,M,53.8,M,,*4E
86 13 07 31 4333.6949500128.73720128.7ó 00128.73720 128.7 110110 1110111 11111111 110110 1110111 11111111 110110 1110111 11111111 1101100111 1100000010 1100100101 1111111000 10000110100 1100100101 1101011010 1111101100 1100011110 24.938 46.120 999.23 87908 22 16 14 60 51 3 $GNGGA,130731.00,4333.69495,N,00128.73720,E,1,04,1.77,128.7,M,53.8,M,,*48
87 13 07 32 4333.6943900128.73713128.7ó 00128.73713 128.7 110110 1110111 11111111 110110 1110111 11111111 110110 10000000 0 1101101000 1011111111 1100100001 1111110010 10000110100 1100011110 1101010011 1111110000 1100011001 24.875 46.113 999.23 88906 21 14 14 59 50 4 $GNGGA,130732.00,4333.69439,N,00128.73713,E,1,04,1.77,128.7,M,53.8,M,,*4D
88 13 07 33 4333.6944600128.73756128.6ó 00128.73756 128.6 110110 10000000 0 110110 1110111 11111111 110110 10000000 0 1101100111 1100000000 1100100001 1111110001 10000110001 1100100010 1101010011 1111101111 1100010111 24.875 46.105 999.23 89906 21 16 14 59 52 3 $GNGGA,130733.00,4333.69446,N,00128.73756,E,1,04,1.77,128.6,M,53.8,M,,*44
89 13 07 34 4333.6945300128.73759128.6ó 00128.73759 128.6 110110 1110111 11111111 110110 10000000 0 110110 1110111 11111111 1101100111 1011111110 1100100010 1111110110 10000110101 1100100010 1101010100 1111101110 1100010110 24.938 46.113 999.24 90905 22 15 14 60 50 4 $GNGGA,130734.00,4333.69453,N,00128.73759,E,1,04,1.77,128.6,M,53.8,M,,*48
90 13 07 35 4333.6954900128.73728128.5ó 00128.73728 128.5 110110 10000000 0 110110 10000000 0 110110 1110111 11111111 1101100111 1011111110 1100100010 1111110001 10000110011 1100100101 1101010110 1111110001 1100011010 24.875 46.120 999.25 91904 21 15 15 59 51 3 $GNGGA,130735.00,4333.69549,N,00128.73728,E,1,04,1.77,128.5,M,53.8,M,,*46
91 13 07 36 4333.6953800128.73683128.4ó 00128.73683 128.4 110110 1110111 11111111 110110 1110111 11111111 110110 1110111 11111111 1101101000 1100000000 1100100011 1111110111 10000110011 1100100110 1101011100 1111101101 1100010101 24.813 46.120 999.24 92902 23 14 13 60 50 4 $GNGGA,130736.00,4333.69538,N,00128.73683,E,1,04,1.77,128.4,M,53.8,M,,*42
92 13 07 37 4333.6955600128.73669128.3ó 00128.73669 128.3 110110 1110111 11111111 110110 10000000 0 110110 1110111 11111111 1101101000 1100000000 1100100010 1111110010 10000110100 1100011001 1101001110 1111110101 1100100011 24.875 46.135 999.23 93901 21 14 14 58 51 4 $GNGGA,130737.00,4333.69556,N,00128.73669,E,1,04,1.77,128.3,M,53.8,M,,*48
93 13 07 38 4333.6958800128.73595128.3ó 00128.73595 128.3 110110 1110111 11111111 110110 1110111 11111111 110110 10000000 0 1101100111 1100000001 1100100011 1111110011 10000110100 1100100011 1101010110 1111101110 1100011011 24.813 46.120 999.24 94899 21 16 14 59 52 3 $GNGGA,130738.00,4333.69588,N,00128.73595,E,1,04,1.77,128.3,M,53.8,M,,*44
94 13 07 39 4333.6955400128.73568128.2ó 00128.73568 128.2 110110 10000000 0 110110 1110111 11111111 110110 1110111 11111111 1101101000 1011111110 1100100000 1111111000 10000110100 1100011111 1101010110 1111101001 1100010101 24.875 46.120 999.24 95899 23 15 13 60 50 4 $GNGGA,130739.00,4333.69554,N,00128.73568,E,1,04,1.77,128.2,M,53.8,M,,*47
95 13 07 40 4333.6952300128.73523128.1ó 00128.73523 128.1 110110 10000000 0 110110 1110111 11111111 110110 1110111 11111111 1101100111 1100000000 1100011111 1111110111 10000110100 1100011110 1101010001 1111110011 1100100010 24.875 46.113 999.25 96899 21 16 14 59 51 4 $GNGGA,130740.00,4333.69523,N,00128.73523,E,1,04,1.77,128.1,M,53.8,M,,*45
96 13 07 41 4333.6953000128.73529128.0ó 00128.73529 128.0 110110 1110111 11111111 110110 1110111 11111111 110110 1110111 11111111 1101100111 1011111011 1100011110 1111110110 10000110011 1100100010 1101010110 1111101110 1100011011 24.875 46.113 999.25 97897 22 15 14 60 51 3 $GNGGA,130741.00,4333.69530,N,00128.73529,E,1,04,1.77,128.0,M,53.8,M,,*4D
97 13 07 42 4333.6951300128.73533128.0ó 00128.73533 128.0 110110 1110111 11111111 110110 1110111 11111111 110110 1110111 11111111 1101101000 1011111110 1100100000 1111111000 10000111000 1100011111 1101010010 1111110001 1100011011 24.875 46.113 999.26 98895 21 15 15 59 51 3 $GNGGA,130742.00,4333.69513,N,00128.73533,E,1,03,2.35,128.0,M,53.8,M,,*46
98 13 07 43 4333.6950100128.73549127.9ó 00128.73549 127.9 110110 1110111 11111111 110110 1110111 11111111 110110 1110111 11111111 1101101000 1011111111 1100100011 1111110001 10000110010 1100100100 1101010111 1111101010 1100011010 24.875 46.128 999.27 99896 22 16 14 59 52 3 $GNGGA,130743.00,4333.69501,N,00128.73549,E,1,04,1.77,127.9,M,53.8,M,,*4D
99 13 07 44 4333.6949300128.73493127.8ó 00128.73493 127.8 110110 1110111 11111111 110110 1110111 11111111 110110 1110111 11111111 1101101000 1011111101 1100100001 1111110001 10000110011 1100011010 1101010100 1111101110 1100011101 24.875 46.135 999.27 100894 23 14 13 59 50 4 $GNGGA,130744.00,4333.69493,N,00128.73493,E,1,04,1.77,127.8,M,53.8,M,,*47
100 13 07 45 4333.6949900128.73448127.8ó 00128.73448 127.8 110110 1110111 11111111 110110 1110111 11111111 110110 1110111 11111111 1101100111 1011111101 1100100000 1111101111 10000110001 1100100010 1101010110 1111101010 1100011101 24.875 46.135 999.26 101894 21 16 14 59 52 3 $GNGGA,130745.00,4333.69499,N,00128.73448,E,1,04,1.77,127.8,M,53.8,M,,*4A
101 13 07 46 4333.6945400128.73445127.7ó 00128.73445 127.7 110110 1110111 11111111 110110 10000000 0 110110 1110111 11111111 1101100111 1011111011 1100011111 1111110010 10000110011 1100100000 1101010110 1111101110 1100011111 24.938 46.128 999.26 102892 22 14 13 59 51 4 $GNGGA,130746.00,4333.69454,N,00128.73445,E,1,03,2.35,127.7,M,53.8,M,,*48
102 13 07 47 4333.6945300128.73352127.6ó 00128.73352 127.6 110110 1110111 11111111 110110 1110111 11111111 110110 10000000 0 1101100111 1011111110 1100011111 1111110011 10000110101 1100100010 1101010110 1111101101 1100011100 24.813 46.120 999.27 103891 21 15 15 59 51 3 $GNGGA,130747.00,4333.69453,N,00128.73352,E,1,03,2.35,127.6,M,53.8,M,,*4E
103 13 07 48 Nan Nan Nan 110110 10000000 0 110110 1110111 11111111 110110 1110111 11111111 1101100111 1100000001 1100100100 1111111001 10000110111 1100100011 1101010110 1111101011 1100011010 24.813 46.135 999.27 104878 21 8 11 59 51 4 $GNGGA,130748.00,,,,,0,00,99.9,,,,,,*48
104 13 07 49 4333.6942900128.73267127.6ó 00128.73267 127.6 110110 1110111 11111111 110110 1110111 11111111 110110 1110111 11111111 1101101000 1100000001 1100100101 1111110111 10000110100 1100101000 1101011001 1111101111 1100100101 24.875 46.143 999.27 105888 21 15 15 59 51 3 $GNGGA,130749.00,4333.69429,N,00128.73267,E,1,04,1.77,127.6,M,53.8,M,,*48
105 13 07 50 4333.6941800128.73217127.5ó 00128.73217 127.5 110110 10000000 0 110110 1110111 11111111 110110 1110111 11111111 1101101000 1011111100 1100011111 1111110111 10000110010 1100100000 1101010100 1111101101 1100011100 24.813 46.166 999.26 106890 23 16 13 59 51 4 $GNGGA,130750.00,4333.69418,N,00128.73217,E,1,04,1.77,127.5,M,53.8,M,,*46
106 13 07 51 4333.6940300128.73160127.4ó 00128.73160 127.4 110110 1110111 11111111 110110 1110111 11111111 110110 10000000 0 1101100111 1011111110 1100100010 1111110101 10000110011 1100100110 1101010110 1111110011 1100100010 24.875 46.174 999.26 107887 22 14 13 59 51 4 $GNGGA,130751.00,4333.69403,N,00128.73160,E,1,04,1.77,127.4,M,53.8,M,,*4F
107 13 07 52 4333.6940800128.73085127.3ó 00128.73085 127.3 110110 10000000 0 110110 1100000 0 110110 1110111 11111111 1101101000 1011111110 1100100000 1111110010 10000110000 1100011100 1101010001 1111110011 1100100100 24.813 46.181 999.25 108887 21 16 15 59 51 3 $GNGGA,130752.00,4333.69408,N,00128.73085,E,1,04,1.77,127.3,M,53.8,M,,*4A
108 13 07 53 4333.6939800128.73090127.2ó 00128.73090 127.2 110110 1110111 11111111 110110 1110111 11111111 110110 1110111 11111111 1101100111 1011111110 1100011110 1111110110 10000110100 1100011101 1101010001 1111110001 1100011010 24.813 46.181 999.27 109886 22 14 13 59 51 4 $GNGGA,130753.00,4333.69398,N,00128.73090,E,1,04,1.77,127.2,M,53.8,M,,*40
109 13 07 54 4333.6943000128.73131127.2ó 00128.73131 127.2 110110 1110111 11111111 110110 10000000 0 110110 10000000 0 1101100111 1100000001 1100100000 1111110011 10000110011 1100011110 1101010100 1111101000 1100011110 24.813 46.189 999.26 110884 21 15 15 59 51 3 $GNGGA,130754.00,4333.69430,N,00128.73131,E,1,04,1.77,127.2,M,53.8,M,,*48
110 13 07 55 4333.6945600128.73126127.1ó 00128.73126 127.1 110110 10000000 0 110110 1110111 11111111 110110 10000000 0 1101100111 1011111111 1100100000 1111110111 10000110100 1100100010 1101010100 1111110011 1100100110 24.813 46.197 999.26 111884 22 16 13 59 51 4 $GNGGA,130755.00,4333.69456,N,00128.73126,E,1,04,1.77,127.1,M,53.8,M,,*4C
111 13 07 56 4333.6942700128.73058127.1ó 00128.73058 127.1 110110 10000000 0 110110 1110111 11111111 110110 10000000 0 1101100111 1011111110 1100100001 1111101110 10000101111 1100100000 1101010011 1111110011 1100100000 24.813 46.204 999.26 112882 22 15 13 60 50 4 $GNGGA,130756.00,4333.69427,N,00128.73058,E,1,04,1.77,127.1,M,53.8,M,,*41
112 13 07 57 4333.6940400128.72987127.1ó 00128.72987 127.1 110110 1110111 11111111 110110 10000000 0 110110 10000000 0 1101100111 1011111101 1100100001 1111111011 10000110011 1100100101 1101011011 1111110010 1100011011 24.875 46.212 999.27 113882 20 16 14 59 50 5 $GNGGA,130757.00,4333.69404,N,00128.72987,E,1,04,1.77,127.1,M,53.8,M,,*4B
113 13 07 58 4333.6947800128.72978127.0ó 00128.72978 127.0 110110 1110111 11111111 110110 10000000 0 110110 1110111 11111111 1101101000 1011111110 1100100000 1111110100 10000110101 1100100011 1101011001 1111110001 1100011110 24.938 46.212 999.27 114880 22 14 13 59 51 4 $GNGGA,130758.00,4333.69478,N,00128.72978,E,1,04,1.77,127.0,M,53.8,M,,*4E
114 13 07 59 4333.6951500128.73003127.0ó 00128.73003 127.0 110110 10000000 0 110110 1110111 11111111 110110 1110111 11111111 1101101000 1011111101 1100011111 1111111011 10000110010 1100011111 1101010101 1111111100 1100100001 24.875 46.197 999.29 115878 21 14 14 59 50 4 $GNGGA,130759.00,4333.69515,N,00128.73003,E,1,04,1.77,127.0,M,53.8,M,,*41
115 13 08 00 4333.6956300128.72981127.1ó 00128.72981 127.1 110110 10000000 0 110110 1110111 11111111 110110 10000000 0 1101100111 1100000010 1100100011 1111110011 10000110011 1100100000 1101010100 1111110100 1100011100 24.875 46.181 999.28 116878 22 16 14 59 52 3 $GNGGA,130800.00,4333.69563,N,00128.72981,E,1,04,1.77,127.1,M,53.8,M,,*40
116 13 08 01 4333.6948000128.73042127.1ó 00128.73042 127.1 110110 10000000 0 110110 10000000 0 110110 1110111 11111111 1101101000 1011111110 1100011101 1111110110 10000110010 1100100010 1101010100 1111110101 1100011111 24.875 46.166 999.26 117876 21 14 14 58 51 4 $GNGGA,130801.00,4333.69480,N,00128.73042,E,1,04,1.77,127.1,M,53.8,M,,*4A
117 13 08 02 4333.6947800128.72934127.1ó 00128.72934 127.1 110110 1110111 11111111 110110 1110111 11111111 110110 10000000 0 1101100111 1100000000 1100011111 1111110010 10000110101 1100100100 1101010100 1111111011 1100100000 24.813 46.166 999.26 118877 22 16 13 59 51 4 $GNGGA,130802.00,4333.69478,N,00128.72934,E,1,04,1.77,127.1,M,53.8,M,,*47
118 13 08 03 4333.6951000128.72916127.1ó 00128.72916 127.1 110110 10000000 0 110110 1110111 11111111 110110 10000000 0 1101101000 1011111110 1100100010 1111111001 10000110100 1100100100 1101010110 1111110101 1100100100 24.875 46.166 999.27 119875 22 15 14 60 51 3 $GNGGA,130803.00,4333.69510,N,00128.72916,E,1,03,2.34,127.1,M,53.8,M,,*4A
119 13 08 04 4333.6949300128.72866127.1ó 00128.72866 127.1 110110 1110111 11111111 110110 10000000 0 110110 10000000 0 1101101000 1100000010 1100100010 1111110110 10000110100 1100011111 1101010001 1111110111 1100100000 24.875 46.158 999.29 120875 20 16 15 59 50 4 $GNGGA,130804.00,4333.69493,N,00128.72866,E,1,04,1.77,127.1,M,53.8,M,,*42
120 13 08 05 4333.6951800128.72826127.1ó 00128.72826 127.1 110110 1110111 11111111 110110 10000000 0 110110 10000000 0 1101101000 1100000001 1100100000 1111111001 10000110101 1100100100 1101011011 1111110100 1100011100 24.813 46.143 999.29 121873 22 15 14 60 51 3 $GNGGA,130805.00,4333.69518,N,00128.72826,E,1,04,1.77,127.1,M,53.8,M,,*45
121 13 08 06 4333.6957400128.72779127.1ó 00128.72779 127.1 110110 10000000 0 110110 1110111 11111111 110110 1110111 11111111 1101101000 1100000000 1100100001 1111110101 10000110001 1100011101 1101001111 1111110010 1100011010 24.813 46.128 999.28 122872 21 14 14 59 50 4 $GNGGA,130806.00,4333.69574,N,00128.72779,E,1,04,1.77,127.1,M,53.8,M,,*49
122 13 08 07 4333.6954000128.72753127.2ó 00128.72753 127.2 110110 10000000 0 110110 1110111 11111111 110110 10000000 0 1101100111 1011111111 1100100001 1111111001 10000110100 1100011110 1101001111 1111110011 1100011111 24.813 46.120 999.27 123869 21 15 13 58 52 4 $GNGGA,130807.00,4333.69540,N,00128.72753,E,1,04,1.77,127.2,M,53.8,M,,*44
123 13 08 08 4333.6948700128.72739127.3ó 00128.72739 127.3 110110 10000000 0 110110 1110111 11111111 110110 1110111 11111111 1101101000 1100000001 1100100001 1111110110 10000110101 1100011110 1101010011 1111111000 1100101010 24.938 46.120 999.28 124870 22 15 14 60 51 3 $GNGGA,130808.00,4333.69487,N,00128.72739,E,1,04,1.77,127.3,M,53.8,M,,*4C
124 13 08 09 4333.6945500128.72607127.4ó 00128.72607 127.4 110110 10000000 0 110110 10000000 0 110110 1110111 11111111 1101101000 1011111111 1100011111 1111111001 10000110110 1100100010 1101010110 1111101011 1100011101 24.875 46.135 999.28 125869 21 15 13 58 51 5 $GNGGA,130809.00,4333.69455,N,00128.72607,E,1,04,1.77,127.4,M,53.8,M,,*49
125 13 08 10 4333.6942000128.72537127.4ó 00128.72537 127.4 110110 10000000 0 110110 10000000 0 110110 1110111 11111111 1101101000 1100000000 1100100001 1111111000 10000110110 1100100010 1101011001 1111110110 1100100100 24.813 46.143 999.26 126868 22 14 13 59 51 4 $GNGGA,130810.00,4333.69420,N,00128.72537,E,1,03,2.34,127.4,M,53.8,M,,*40
126 13 08 11 4333.6940400128.72470127.5ó 00128.72470 127.5 110110 1110111 11111111 110110 10000000 0 110110 10000000 0 1101100111 1100000000 1100100010 1111110110 10000110101 1100100000 1101001100 1111110100 1100100010 24.813 46.151 999.27 127866 21 14 14 59 50 4 $GNGGA,130811.00,4333.69404,N,00128.72470,E,1,03,2.34,127.5,M,53.8,M,,*44
127 13 08 12 4333.6938600128.72424127.5ó 00128.72424 127.5 110110 10000000 0 110110 1110111 11111111 110110 1110111 11111111 1101101000 1100000000 1100100011 1111110010 10000110011 1100011110 1101001111 1111110001 1100100101 24.875 46.158 999.28 128866 22 15 13 58 52 4 $GNGGA,130812.00,4333.69386,N,00128.72424,E,1,03,2.34,127.5,M,53.8,M,,*4B
128 13 08 13 4333.6933300128.72490127.6ó 00128.72490 127.6 110110 1110111 11111111 110110 10000000 0 110110 10000000 0 1101101000 1011111100 1100011101 1111110100 10000110100 1100100000 1101010100 1111101111 1100011111 24.875 46.174 999.28 129864 22 14 13 59 51 4 $GNGGA,130813.00,4333.69333,N,00128.72490,E,1,04,1.77,127.6,M,53.8,M,,*4B
129 13 08 14 4333.6926300128.72508127.6ó 00128.72508 127.6 110110 10000000 0 110110 1110111 11111111 110110 1110111 11111111 1101101000 1011111111 1100011111 1111101110 10000110001 1100100111 1101011011 1111110010 1100011001 24.813 46.197 999.28 130865 21 16 14 59 52 3 $GNGGA,130814.00,4333.69263,N,00128.72508,E,1,03,2.34,127.6,M,53.8,M,,*4B
130 13 08 15 4333.6930000128.72460127.7ó 00128.72460 127.7 110110 1110111 11111111 110110 1110111 11111111 110110 1110111 11111111 1101101000 1100000001 1100100011 1111110111 10000110111 1100100001 1101011001 1111110110 1100100010 24.813 46.227 999.28 131863 23 15 13 60 50 4 $GNGGA,130815.00,4333.69300,N,00128.72460,E,1,03,2.34,127.7,M,53.8,M,,*40
131 13 08 16 4333.6934100128.72451127.7ó 00128.72451 127.7 110110 1110111 11111111 110110 1110111 11111111 110110 1110111 11111111 1101100111 1100000000 1100100010 1111110110 10000110101 1100100000 1101010011 1111101111 1100010110 24.813 46.250 999.29 132861 21 15 15 59 51 3 $GNGGA,130816.00,4333.69341,N,00128.72451,E,1,03,2.34,127.7,M,53.8,M,,*44
132 13 08 17 4333.6932800128.72458127.8ó 00128.72458 127.8 110110 1110111 11111111 110110 10000000 0 110110 1110111 11111111 1101101000 1011111101 1100011100 1111110100 10000110010 1100100110 1101011100 1111110011 1100100000 24.875 46.288 999.29 133861 22 15 14 60 51 3 $GNGGA,130817.00,4333.69328,N,00128.72458,E,1,04,1.77,127.8,M,53.8,M,,*4F
133 13 08 18 4333.6932700128.72872127.8ó 00128.72872 127.8 110110 1110111 11111111 110110 10000000 0 110110 10000000 0 1101101000 1011111111 1100100100 1111110000 10000110011 1100011101 1101010101 1111101110 1100011100 24.875 46.311 999.28 134858 20 15 15 59 50 4 $GNGGA,130818.00,4333.69327,N,00128.72872,E,1,04,1.77,127.8,M,53.8,M,,*4B
134 13 08 19 4333.6930100128.72944127.8ó 00128.72944 127.8 110110 1110111 11111111 110110 10000000 0 110110 10000000 0 1101101000 1100000001 1100100001 1111110111 10000110100 1100100010 1101010111 1111101010 1100011110 24.813 46.319 999.28 135859 21 16 14 59 52 3 $GNGGA,130819.00,4333.69301,N,00128.72944,E,1,03,2.34,127.8,M,53.8,M,,*49
135 13 08 20 4333.6933900128.72980127.9ó 00128.72980 127.9 110110 10000000 0 110110 1110111 11111111 110110 1110111 11111111 1101101000 1011111100 1100011110 1111111001 10000110100 1100011110 1101010100 1111110001 1100010110 24.813 46.334 999.27 136857 22 14 13 59 51 4 $GNGGA,130820.00,4333.69339,N,00128.72980,E,1,03,2.34,127.9,M,53.8,M,,*41
136 13 08 21 4333.6941600128.72973127.9ó 00128.72973 127.9 110110 10000000 0 110110 10000000 0 110110 10000000 0 1101101000 1011111110 1100100000 1111111110 10000110100 1100100100 1101011000 1111101100 1100011010 24.813 46.334 999.27 137857 21 16 15 59 51 3 $GNGGA,130821.00,4333.69416,N,00128.72973,E,1,03,2.34,127.9,M,53.8,M,,*46
137 13 08 22 4333.6935300128.73083127.9ó 00128.73083 127.9 110110 1110111 11111111 110110 1110111 11111111 110110 1110111 11111111 1101100111 1011111111 1100100001 1111110001 10000110011 1100100010 1101011000 1111101101 1100011010 24.875 46.326 999.27 138855 23 14 13 60 50 4 $GNGGA,130822.00,4333.69353,N,00128.73083,E,1,03,2.34,127.9,M,53.8,M,,*44
138 13 08 23 4333.6930900128.72993127.9ó 00128.72993 127.9 110110 10000000 0 110110 10000000 0 110110 1110111 11111111 1101100111 1011111100 1100100001 1111101100 10000101111 1100011110 1101010011 1111101101 1100010111 24.875 46.326 999.28 139854 21 15 14 59 50 4 $GNGGA,130823.00,4333.69309,N,00128.72993,E,1,03,2.34,127.9,M,53.8,M,,*43
139 13 08 24 4333.6929100128.73060127.9ó 00128.73060 127.9 110110 1110111 11111111 110110 1110111 11111111 110110 1110111 11111111 1101100111 1011111100 1100011110 1111110001 10000110011 1100011111 1101010111 1111101001 1100010001 24.875 46.326 999.28 140853 23 15 13 59 51 4 $GNGGA,130824.00,4333.69291,N,00128.73060,E,1,03,2.34,127.9,M,53.8,M,,*40
140 13 08 25 4333.6926800128.72952128.0ó 00128.72952 128.0 110110 1110111 11111111 110110 10000000 0 110110 10000000 0 1101101000 1100000000 1100100100 1111111000 10000110011 1100100000 1101011011 1111101101 1100011110 24.875 46.326 999.28 141850 22 14 13 60 50 4 $GNGGA,130825.00,4333.69268,N,00128.72952,E,1,03,2.34,128.0,M,53.8,M,,*48
141 13 08 26 4333.6933100128.73028128.0ó 00128.73028 128.0 110110 10000000 0 110110 10000000 0 110110 1110111 11111111 1101100111 1011111111 1100100011 1111110101 10000110100 1100011100 1101010101 1111100111 1100010111 24.875 46.326 999.29 142851 21 15 13 58 51 5 $GNGGA,130826.00,4333.69331,N,00128.73028,E,1,03,2.34,128.0,M,53.8,M,,*43
142 13 08 27 4333.6931000128.73014128.0ó 00128.73014 128.0 110110 1110111 11111111 110110 10000000 0 110110 10000000 0 1101100111 1011111111 1100100000 1111111101 10000110110 1100011110 1101010010 1111101110 1100011001 24.875 46.319 999.28 143850 22 14 13 59 51 4 $GNGGA,130827.00,4333.69310,N,00128.73014,E,1,03,2.34,128.0,M,53.8,M,,*4E
143 13 08 28 Nan Nan Nan 110110 1110111 11111111 110110 10000000 0 110110 1110111 11111111 1101101000 1100000000 1100100000 1111110101 10000110101 1100100001 1101010101 1111110000 1100011110 24.875 46.311 999.28 144836 22 6 11 60 50 4 $GNGGA,130828.00,,,,,0,00,99.9,,,,,,*41
144 13 08 29 Nan Nan Nan 110110 10000000 0 110110 10000000 0 110110 1110111 11111111 1101100111 1100000000 1100100000 1111110001 10000110011 1100100010 1101010111 1111101110 1100011111 24.813 46.311 999.27 145832 21 6 12 59 50 4 $GNGGA,130829.00,,,,,0,00,99.9,,,,,,*40
145 13 08 30 Nan Nan Nan 110110 10000000 0 110110 10000000 0 110110 1110111 11111111 1101101000 1011111111 1100100010 1111110101 10000110001 1100011101 1101001111 1111100110 1100011001 24.813 46.311 999.27 146834 22 7 11 60 51 3 $GNGGA,130830.00,,,,,0,00,99.9,,,,,,*48
146 13 08 31 Nan Nan Nan 110110 10000000 0 110110 10000000 0 110110 1110111 11111111 1101100111 1100000001 1100100100 1111110011 10000110010 1100011101 1101010111 1111100011 1100010110 24.813 46.303 999.27 147832 21 7 12 59 51 3 $GNGGA,130831.00,,,,,0,00,99.9,,,,,,*49
147 13 08 32 Nan Nan Nan 110110 1110111 11111111 110110 10000000 0 110110 10000000 0 1101101000 1100000001 1100100010 1111111000 10000110001 1100100101 1101010111 1111100111 1100011010 24.813 46.288 999.27 148831 21 7 10 58 52 4 $GNGGA,130832.00,,,,,0,00,99.9,,,,,,*4A
148 13 08 33 4333.6930400128.72893128.0ó 00128.72893 128.0 110110 10000000 0 110110 10000000 0 110110 10000000 0 1101101000 1100000010 1100101000 1111111011 10000111000 1100100001 1101010010 1111101111 1100100000 24.813 45.998 999.26 149843 20 15 15 59 51 3 $GNGGA,130833.00,4333.69304,N,00128.72893,E,1,03,2.34,128.0,M,53.8,M,,*48
149 13 08 34 4333.6935700128.72644128.0ó 00128.72644 128.0 110110 1110111 11111111 110110 1110111 11111111 110110 1110111 11111111 1101101000 1011111110 1100100001 1111101101 10000101111 1100011001 1101000110 1111101010 1100010111 24.875 45.746 999.26 150843 22 15 14 60 51 3 $GNGGA,130834.00,4333.69357,N,00128.72644,E,1,03,2.34,128.0,M,53.8,M,,*4D
150 13 08 35 4333.6947800128.72432127.9ó 00128.72432 127.9 110110 10000000 0 110110 1110111 11111111 110110 1110111 11111111 1101100111 1011111110 1100011111 1111111000 10000110100 1100100001 1101011000 1111110001 1100100100 24.813 45.624 999.26 151842 21 15 15 59 51 3 $GNGGA,130835.00,4333.69478,N,00128.72432,E,1,03,2.34,127.9,M,53.8,M,,*43
151 13 08 36 4333.6947600128.72447128.0ó 00128.72447 128.0 110110 1110111 11111111 110110 1110111 11111111 110110 10000000 0 1101101000 1011111111 1100100100 1111111001 10000110011 1100011110 1101010010 1111101111 1100011100 24.813 45.594 999.25 152839 22 15 13 59 51 4 $GNGGA,130836.00,4333.69476,N,00128.72447,E,1,03,2.34,128.0,M,53.8,M,,*4A
152 13 08 37 Nan Nan Nan 110110 1110111 11111111 110110 10000000 0 110110 10000000 0 1101101000 1100000000 1100100010 1111111001 10000110001 1100100010 1101010110 1111100110 1100010100 24.875 45.662 999.24 153826 22 7 11 59 52 3 $GNGGA,130837.00,,,,,0,00,99.9,,,,,,*4F
153 13 08 38 Nan Nan Nan 110110 1110111 11111111 110110 10000000 0 110110 1110111 11111111 1101100111 1011111110 1100011111 1111111011 10000110100 1100100101 1101011000 1111101001 1100001111 24.813 45.662 999.25 154826 22 7 10 58 51 4 $GNGGA,130838.00,,,,,0,00,99.9,,,,,,*40
154 13 08 39 Nan Nan Nan 110110 10000000 0 110110 1110111 11111111 110110 10000000 0 1101101000 1011111110 1100100000 1111110100 10000110001 1100011101 1101010001 1111101101 1100010110 24.875 45.517 999.25 155824 21 8 11 59 51 4 $GNGGA,130839.00,,,,,0,00,99.9,,,,,,*41
155 13 08 40 Nan Nan Nan 110110 10000000 0 110110 1110111 11111111 110110 10000000 0 1101101000 1011111111 1100100011 1111110111 10000110010 1100100100 1101010100 1111101000 1100100001 24.813 45.380 999.26 156824 22 7 10 60 50 4 $GNGGA,130840.00,,,,,0,00,99.9,,,,,,*4F
156 13 08 41 Nan Nan Nan 110110 10000000 0 110110 1110111 11111111 110110 10000000 0 1101101000 1100000001 1100100010 1111110000 10000110000 1100100100 1101011010 1111101001 1100100111 24.813 45.273 999.26 157824 21 8 12 59 51 3 $GNGGA,130841.00,,,,,0,00,99.9,,,,,,*4E
157 13 08 42 Nan Nan Nan 110110 1110111 11111111 110110 10000000 0 110110 1110111 11111111 1101100111 1100000001 1100100011 1111111000 10000110111 1100100100 1101011010 1111110101 1100100110 24.813 45.197 999.26 158823 22 7 11 60 51 3 $GNGGA,130842.00,,,,,0,00,99.9,,,,,,*4D
158 13 08 43 4333.6949600128.72140128.1ó 00128.72140 128.1 110110 10000000 0 110110 1110111 11111111 110110 1110111 11111111 1101101000 1100000001 1100100100 1111110010 10000110100 1100100100 1101011010 1111101010 1100011011 24.813 45.167 999.27 159834 22 15 13 59 50 5 $GNGGA,130843.00,4333.69496,N,00128.72140,E,1,03,4.80,128.1,M,53.8,M,,*4C
159 13 08 44 4333.6975500128.71852128.1ó 00128.71852 128.1 110110 1110111 11111111 110110 1110111 11111111 110110 10000000 0 1101101000 1100000000 1100100001 1111110111 10000110110 1100100011 1101011000 1111101111 1100011110 24.813 45.121 999.27 160833 22 15 14 60 51 3 $GNGGA,130844.00,4333.69755,N,00128.71852,E,1,03,4.80,128.1,M,53.8,M,,*4E
160 13 08 45 4333.7025000128.71391127.9ó 00128.71391 127.9 110110 1110111 11111111 110110 1110111 11111111 110110 1110111 11111111 1101100111 1100000000 1100100000 1111111110 10000111001 1100100100 1101011010 1111101101 1100100001 24.875 45.098 999.26 161832 21 15 15 59 51 3 $GNGGA,130845.00,4333.70250,N,00128.71391,E,1,03,4.80,127.9,M,53.8,M,,*44
161 13 08 46 4333.7024000128.71289128.0ó 00128.71289 128.0 110110 10000000 0 110110 1110111 11111111 110110 10000000 0 1101100111 1100000001 1100100010 1111111000 10000110110 1100100010 1101011100 1111110000 1100100011 24.813 45.090 999.27 162831 22 15 14 60 51 3 $GNGGA,130846.00,4333.70240,N,00128.71289,E,1,03,4.80,128.0,M,53.8,M,,*48
162 13 08 47 4333.7027500128.71086127.8ó 00128.71086 127.8 110110 10000000 0 110110 1110111 11111111 110110 1110111 11111111 1101101000 1011111110 1100100000 1111110011 10000110010 1100100000 1101010110 1111110000 1100011110 24.813 45.075 999.27 163828 21 14 14 58 51 4 $GNGGA,130847.00,4333.70275,N,00128.71086,E,1,03,4.80,127.8,M,53.8,M,,*45
163 13 08 48 4333.7040400128.70819127.8ó 00128.70819 127.8 110110 10000000 0 110110 1110111 11111111 110110 1110111 11111111 1101100111 1011111111 1100011100 1111110101 10000110110 1100011101 1101001100 1111110100 1100011111 24.875 45.128 999.27 164830 21 15 14 59 52 3 $GNGGA,130848.00,4333.70404,N,00128.70819,E,1,03,4.80,127.8,M,53.8,M,,*45
164 13 08 49 4333.7046600128.70713127.8ó 00128.70713 127.8 110110 1110111 11111111 110110 1110111 11111111 110110 1110111 11111111 1101100111 1011111111 1100011110 1111110110 10000110101 1100100000 1101010001 1111110000 1100101000 24.875 45.113 999.27 165829 22 15 14 60 51 3 $GNGGA,130849.00,4333.70466,N,00128.70713,E,1,03,4.80,127.8,M,53.8,M,,*45
165 13 08 50 4333.7053200128.70519127.8ó 00128.70519 127.8 110110 1110111 11111111 110110 10000000 0 110110 1110111 11111111 1101100111 1100000010 1100100100 1111110011 10000110101 1100011101 1101010100 1111101110 1100100100 24.813 45.083 999.27 166829 21 15 15 59 51 3 $GNGGA,130850.00,4333.70532,N,00128.70519,E,1,03,4.80,127.8,M,53.8,M,,*45
166 13 08 51 4333.7070700128.70237127.8ó 00128.70237 127.8 110110 10000000 0 110110 1110111 11111111 110110 1110111 11111111 1101101000 1100000000 1100100001 1111110100 10000110010 1100100000 1101011001 1111101010 1100100000 24.875 45.067 999.26 167826 23 14 13 60 50 4 $GNGGA,130851.00,4333.70707,N,00128.70237,E,1,03,4.80,127.8,M,53.8,M,,*4B
167 13 08 52 4333.7078500128.70103127.8ó 00128.70103 127.8 110110 1110111 11111111 110110 1110111 11111111 110110 1110111 11111111 1101100111 1011111110 1100100010 1111110010 10000110011 1100010111 1101001110 1111110010 1100100101 24.875 45.136 999.26 168825 22 14 14 59 50 4 $GNGGA,130852.00,4333.70785,N,00128.70103,E,1,03,4.80,127.8,M,53.8,M,,*46
168 13 08 53 4333.7091100128.70031127.8ó 00128.70031 127.8 110110 1110111 11111111 110110 10000000 0 110110 10000000 0 1101101000 1100000000 1100100010 1111110111 10000110101 1100011100 1101010000 1111101101 1100010111 24.813 45.220 999.26 169824 22 15 14 59 52 3 $GNGGA,130853.00,4333.70911,N,00128.70031,E,1,03,4.80,127.8,M,53.8,M,,*44
169 13 08 54 4333.7099500128.69992127.8ó 00128.69992 127.8 110110 10000000 0 110110 1110111 11111111 110110 10000000 0 1101101000 1011111110 1100011110 1111111010 10000110100 1100100100 1101011010 1111101101 1100011101 24.813 45.311 999.26 170823 22 15 14 60 51 3 $GNGGA,130854.00,4333.70995,N,00128.69992,E,1,03,4.80,127.8,M,53.8,M,,*47
170 13 08 55 4333.7108800128.69799127.8ó 00128.69799 127.8 110110 10000000 0 110110 1110111 11111111 110110 1110111 11111111 1101100111 1100000000 1100100001 1111111101 10000110110 1100100001 1101010110 1111101111 1100011111 24.813 45.479 999.27 171823 21 15 13 58 51 5 $GNGGA,130855.00,4333.71088,N,00128.69799,E,1,03,4.80,127.8,M,53.8,M,,*47
171 13 08 56 4333.7118500128.69547127.8ó 00128.69547 127.8 110110 10000000 0 110110 1110111 11111111 110110 1110111 11111111 1101100111 1011111111 1100100010 1111110111 10000110100 1100100110 1101011001 1111101101 1100011101 24.875 45.624 999.26 172822 22 15 14 60 51 3 $GNGGA,130856.00,4333.71185,N,00128.69547,E,1,03,4.80,127.8,M,53.8,M,,*49
172 13 08 57 4333.7139700128.69073127.8ó 00128.69073 127.8 110110 10000000 0 110110 1110111 11111111 110110 10000000 0 1101100111 1011111111 1100100000 1111110100 10000110010 1100100100 1101011010 1111101101 1100011100 24.875 45.647 999.26 173819 21 14 14 58 51 4 $GNGGA,130857.00,4333.71397,N,00128.69073,E,1,03,4.80,127.8,M,53.8,M,,*4B
173 13 08 58 Nan Nan Nan 110110 1110111 11111111 110110 1110111 11111111 110110 1110111 11111111 1101101000 1100000000 1100100001 1111110011 10000110000 1100100011 1101011011 1111101010 1100011100 24.813 45.548 999.26 174803 22 7 11 58 51 4 $GNGGA,130858.00,,,,,0,00,99.9,,,,,,*46
174 13 08 59 4333.7093900128.70552128.4ó 00128.70552 128.4 110110 10000000 0 110110 1110111 11111111 110110 1110111 11111111 1101100111 1100000001 1100100010 1111110111 10000111000 1100100100 1101010101 1111101111 1100100110 24.813 45.502 999.27 175817 22 14 13 59 50 4 $GNGGA,130859.00,4333.70939,N,00128.70552,E,1,03,2.55,128.4,M,53.8,M,,*49
175 13 09 00 4333.7068900128.71352128.3ó 00128.71352 128.3 110110 10000000 0 110110 10000000 0 110110 10000000 0 1101100111 1011111111 1100100000 1111110101 10000110100 1100100110 1101011110 1111110101 1100101011 24.813 45.502 999.26 176817 21 15 14 59 52 3 $GNGGA,130900.00,4333.70689,N,00128.71352,E,1,04,2.13,128.3,M,53.8,M,,*45
