id HH MM SS longitude latitude altitude adc_1_ch0 adc_1_ch1 adc_1_ch2 adc_1_ch3 adc_1_ch4 adc_1_ch5 adc_1_ch6 adc_1_ch7 adc_1_ch8 adc_2_ch0 adc_2_ch1 adc_2_ch2 adc_2_ch3 adc_2_ch4 adc_2_ch5 adc_2_ch6 adc_2_ch7 adc_2_ch8 temp hum pres t_prog t_gps t_split t_adc t_temp t_hum t_pres trame_gga
1 Nan Nan Nan Nan Nan Nan 11111111 11111111 11111111 11111111 11111111 11111111 11111111 11111111 11111111 111111111111 111111111111 111111111111 111111111111 111111111111 111111111111 111111111111 111111111111 111111111111 26.063 41.726 795.83 3219 25 4 9 59 51 4 $GNGGA,,,,,,0,00,99.9,,,,,,*6F
2 Nan Nan Nan Nan Nan Nan 11111111 11111111 11111111 11111111 11111111 11111111 11111111 11111111 11111111 111111111111 111111111111 111111111111 111111111111 111111111111 111111111111 111111111111 111111111111 111111111111 26.000 41.726 999.24 4218 24 4 10 58 51 4 $GNGGA,,,,,,0,00,99.9,,,,,,*6F
3 Nan Nan Nan Nan Nan Nan 11111111 11111111 11111111 11111111 11111111 11111111 11111111 11111111 11111111 111111111111 111111111111 111111111111 111111111111 111111111111 111111111111 111111111111 111111111111 111111111111 26.063 41.634 999.23 5217 24 4 10 59 51 4 $GNGGA,,,,,,0,00,99.9,,,,,,*6F
4 Nan Nan Nan Nan Nan Nan 11111111 11111111 11111111 11111111 11111111 11111111 11111111 11111111 11111111 111111111111 111111111111 111111111111 111111111111 111111111111 111111111111 111111111111 111111111111 111111111111 26.063 41.573 999.23 6216 25 4 9 59 51 4 $GNGGA,,,,,,0,00,99.9,,,,,,*6F
5 Nan Nan Nan Nan Nan Nan 11111111 11111111 11111111 11111111 11111111 11111111 11111111 11111111 11111111 111111111111 111111111111 111111111111 111111111111 111111111111 111111111111 111111111111 111111111111 111111111111 26.063 41.626 999.22 7217 23 4 10 59 52 3 $GNGGA,,,,,,0,00,99.9,,,,,,*6F
6 Nan Nan Nan Nan Nan Nan 11111111 11111111 11111111 11111111 11111111 11111111 11111111 11111111 11111111 111111111111 111111111111 111111111111 111111111111 111111111111 111111111111 111111111111 111111111111 111111111111 26.063 41.504 999.22 8215 24 5 10 60 50 4 $GNGGA,,,,,,0,00,99.9,,,,,,*6F
7 Nan Nan Nan Nan Nan Nan 11111111 11111111 11111111 11111111 11111111 11111111 11111111 11111111 11111111 111111111111 111111111111 111111111111 111111111111 111111111111 111111111111 111111111111 111111111111 111111111111 26.063 41.443 999.21 9213 23 4 11 59 51 3 $GNGGA,,,,,,0,00,99.9,,,,,,*6F
8 Nan Nan Nan Nan Nan Nan 11111111 11111111 11111111 11111111 11111111 11111111 11111111 11111111 11111111 111111111111 111111111111 111111111111 111111111111 111111111111 111111111111 111111111111 111111111111 111111111111 26.125 41.443 999.20 10213 25 4 9 59 51 4 $GNGGA,,,,,,0,00,99.9,,,,,,*6F
9 Nan Nan Nan Nan Nan Nan 11111111 11111111 11111111 11111111 11111111 11111111 11111111 11111111 11111111 111111111111 111111111111 111111111111 111111111111 111111111111 111111111111 111111111111 111111111111 111111111111 26.063 41.367 999.20 11212 25 4 10 59 51 3 $GNGGA,,,,,,0,00,99.9,,,,,,*6F
10 Nan Nan Nan Nan Nan Nan 11111111 11111111 11111111 11111111 11111111 11111111 11111111 11111111 11111111 111111111111 111111111111 111111111111 111111111111 111111111111 111111111111 111111111111 111111111111 111111111111 26.063 41.321 999.21 12212 23 5 10 59 51 4 $GNGGA,,,,,,0,00,99.9,,,,,,*6F
11 Nan Nan Nan Nan Nan Nan 11111111 11111111 11111111 11111111 11111111 11111111 11111111 11111111 11111111 111111111111 111111111111 111111111111 111111111111 111111111111 111111111111 111111111111 111111111111 111111111111 26.125 41.298 999.20 13211 24 4 10 59 51 4 $GNGGA,,,,,,0,00,99.9,,,,,,*6F
12 Nan Nan Nan Nan Nan Nan 11111111 11111111 11111111 11111111 11111111 11111111 11111111 11111111 11111111 111111111111 111111111111 111111111111 111111111111 111111111111 111111111111 111111111111 111111111111 111111111111 26.125 41.291 999.20 14211 24 5 10 59 51 4 $GNGGA,,,,,,0,00,99.9,,,,,,*6F
13 Nan Nan Nan Nan Nan Nan 11111111 11111111 11111111 11111111 11111111 11111111 11111111 11111111 11111111 111111111111 111111111111 111111111111 111111111111 111111111111 111111111111 111111111111 111111111111 111111111111 26.125 41.321 999.19 15209 24 5 10 60 50 4 $GNGGA,,,,,,0,00,99.9,,,,,,*6F
14 Nan Nan Nan Nan Nan Nan 11111111 11111111 11111111 11111111 11111111 11111111 11111111 11111111 11111111 111111111111 111111111111 111111111111 111111111111 111111111111 111111111111 111111111111 111111111111 111111111111 26.063 41.482 999.19 16208 23 4 11 59 50 4 $GNGGA,,,,,,0,00,99.9,,,,,,*6F
15 13 55 56 Nan Nan Nan 11111111 11111111 11111111 11111111 11111111 11111111 11111111 11111111 11111111 111111111111 111111111111 111111111111 111111111111 111111111111 111111111111 111111111111 111111111111 111111111111 26.063 41.482 999.20 17168 24 7 11 60 50 4 $GNGGA,135556.00,,,,,0,00,99.9,,,,,,*40
16 13 55 57 Nan Nan Nan 11111111 11111111 11111111 11111111 11111111 11111111 11111111 11111111 11111111 111111111111 111111111111 111111111111 111111111111 111111111111 111111111111 111111111111 111111111111 111111111111 26.000 41.451 999.22 18167 23 7 12 59 51 3 $GNGGA,135557.00,,,,,0,00,99.9,,,,,,*41
17 13 55 58 Nan Nan Nan 11111111 11111111 11111111 11111111 11111111 11111111 11111111 11111111 11111111 111111111111 111111111111 111111111111 111111111111 111111111111 111111111111 111111111111 111111111111 111111111111 26.063 41.382 999.21 19168 24 7 11 59 51 4 $GNGGA,135558.00,,,,,0,00,99.9,,,,,,*4E
18 13 55 59 Nan Nan Nan 11111111 11111111 11111111 11111111 11111111 11111111 11111111 11111111 11111111 111111111111 111111111111 111111111111 111111111111 111111111111 111111111111 111111111111 111111111111 111111111111 26.063 41.321 999.20 20166 24 7 11 60 51 3 $GNGGA,135559.00,,,,,0,00,99.9,,,,,,*4F
19 13 56 00 Nan Nan Nan 11111111 11111111 11111111 11111111 11111111 11111111 11111111 11111111 11111111 111111111111 111111111111 111111111111 111111111111 111111111111 111111111111 111111111111 111111111111 111111111111 26.063 41.260 999.21 21325 23 6 12 58 51 3 $GNGGA,135600.00,,,,,0,00,99.9,,,,,,*40
20 13 56 01 Nan Nan Nan 11111111 11111111 11111111 11111111 11111111 11111111 11111111 11111111 11111111 111111111111 111111111111 111111111111 111111111111 111111111111 111111111111 111111111111 111111111111 111111111111 26.063 41.199 999.21 22165 24 7 11 60 51 3 $GNGGA,135601.00,,,,,0,00,99.9,,,,,,*41
21 13 56 02 Nan Nan Nan 11111111 11111111 11111111 11111111 11111111 11111111 11111111 11111111 11111111 111111111111 111111111111 111111111111 111111111111 111111111111 111111111111 111111111111 111111111111 111111111111 26.000 41.146 999.19 23163 24 6 11 58 51 4 $GNGGA,135602.00,,,,,0,00,99.9,,,,,,*42
22 13 56 03 Nan Nan Nan 11111111 11111111 11111111 11111111 11111111 11111111 11111111 11111111 11111111 111111111111 111111111111 111111111111 111111111111 111111111111 111111111111 111111111111 111111111111 111111111111 26.063 41.153 999.20 24162 25 6 10 59 51 4 $GNGGA,135603.00,,,,,0,00,99.9,,,,,,*43
23 13 56 04 Nan Nan Nan 11111111 11111111 11111111 11111111 11111111 11111111 11111111 11111111 11111111 111111111111 111111111111 111111111111 111111111111 111111111111 111111111111 111111111111 111111111111 111111111111 26.063 41.138 999.19 25162 25 6 10 58 51 4 $GNGGA,135604.00,,,,,0,00,99.9,,,,,,*44
24 13 56 05 Nan Nan Nan 11111111 11111111 11111111 11111111 11111111 11111111 11111111 11111111 11111111 111111111111 111111111111 111111111111 111111111111 111111111111 111111111111 111111111111 111111111111 111111111111 26.063 41.138 999.20 26161 24 6 10 59 51 4 $GNGGA,135605.00,,,,,0,00,99.9,,,,,,*45
25 13 56 06 Nan Nan Nan 11111111 11111111 11111111 11111111 11111111 11111111 11111111 11111111 11111111 111111111111 111111111111 111111111111 111111111111 111111111111 111111111111 111111111111 111111111111 111111111111 26.063 41.123 999.20 27327 25 6 10 59 51 4 $GNGGA,135606.00,,,,,0,00,99.9,,,,,,*46
26 13 56 07 Nan Nan Nan 11111111 11111111 11111111 11111111 11111111 11111111 11111111 11111111 11111111 111111111111 111111111111 111111111111 111111111111 111111111111 111111111111 111111111111 111111111111 111111111111 26.063 41.077 999.20 28158 23 7 12 59 50 4 $GNGGA,135607.00,,,,,0,00,99.9,,,,,,*47
27 13 56 08 Nan Nan Nan 11111111 11111111 11111111 11111111 11111111 11111111 11111111 11111111 11111111 111111111111 111111111111 111111111111 111111111111 111111111111 111111111111 111111111111 111111111111 111111111111 26.063 41.062 999.20 29158 25 6 10 60 50 4 $GNGGA,135608.00,,,,,0,00,99.9,,,,,,*48
28 13 56 09 Nan Nan Nan 11111111 11111111 11111111 11111111 11111111 11111111 11111111 11111111 11111111 111111111111 111111111111 111111111111 111111111111 111111111111 111111111111 111111111111 111111111111 111111111111 26.000 41.062 999.19 30157 23 6 12 58 51 3 $GNGGA,135609.00,,,,,0,00,99.9,,,,,,*49
29 13 56 10 Nan Nan Nan 11111111 11111111 11111111 11111111 11111111 11111111 11111111 11111111 11111111 111111111111 111111111111 111111111111 111111111111 111111111111 111111111111 111111111111 111111111111 111111111111 26.063 41.070 999.19 31157 25 6 10 58 52 4 $GNGGA,135610.00,,,,,0,00,99.9,,,,,,*41
30 13 56 11 Nan Nan Nan 11111111 11111111 11111111 11111111 11111111 11111111 11111111 11111111 11111111 111111111111 111111111111 111111111111 111111111111 111111111111 111111111111 111111111111 111111111111 111111111111 26.063 41.108 999.18 32155 24 7 11 60 51 3 $GNGGA,135611.00,,,,,0,00,99.9,,,,,,*40
31 13 56 12 Nan Nan Nan 11111111 11111111 11111111 11111111 11111111 11111111 11111111 11111111 11111111 111111111111 111111111111 111111111111 111111111111 111111111111 111111111111 111111111111 111111111111 111111111111 26.063 41.100 999.19 33317 24 6 11 59 50 4 $GNGGA,135612.00,,,,,0,00,99.9,,,,,,*43
32 13 56 13 Nan Nan Nan 11111111 11111111 11111111 11111111 11111111 11111111 11111111 11111111 11111111 111111111111 111111111111 111111111111 111111111111 111111111111 111111111111 111111111111 111111111111 111111111111 26.063 41.100 999.21 34154 25 6 10 60 50 4 $GNGGA,135613.00,,,,,0,00,99.9,,,,,,*42
33 13 56 14 Nan Nan Nan 11111111 11111111 11111111 11111111 11111111 11111111 11111111 11111111 11111111 111111111111 111111111111 111111111111 111111111111 111111111111 111111111111 111111111111 111111111111 111111111111 26.063 41.085 999.20 35186 24 7 11 60 51 3 $GNGGA,135614.00,,,,,0,00,99.9,,,,,,*45
34 13 56 15 Nan Nan Nan 11111111 11111111 11111111 11111111 11111111 11111111 11111111 11111111 11111111 111111111111 111111111111 111111111111 111111111111 111111111111 111111111111 111111111111 111111111111 111111111111 26.125 41.115 999.20 36152 24 7 11 59 52 3 $GNGGA,135615.00,,,,,0,00,99.9,,,,,,*44
35 13 56 16 Nan Nan Nan 11111111 11111111 11111111 11111111 11111111 11111111 11111111 11111111 11111111 111111111111 111111111111 111111111111 111111111111 111111111111 111111111111 111111111111 111111111111 111111111111 26.063 41.169 999.19 37149 24 6 11 60 50 4 $GNGGA,135616.00,,,,,0,00,99.9,,,,,,*47
36 13 56 17 Nan Nan Nan 11111111 11111111 11111111 11111111 11111111 11111111 11111111 11111111 11111111 111111111111 111111111111 111111111111 111111111111 111111111111 111111111111 111111111111 111111111111 111111111111 26.063 41.283 999.18 38148 24 8 10 58 51 5 $GNGGA,135617.00,,,,,0,00,99.9,,,,,,*46
37 13 56 18 Nan Nan Nan 11111111 11111111 11111111 11111111 11111111 11111111 11111111 11111111 11111111 111111111111 111111111111 111111111111 111111111111 111111111111 111111111111 111111111111 111111111111 111111111111 26.000 41.352 999.18 39301 23 8 11 59 51 4 $GNGGA,135618.00,,,,,0,00,99.9,,,,,,*49
38 13 56 19 Nan Nan Nan 11111111 11111111 11111111 11111111 11111111 11111111 11111111 11111111 11111111 111111111111 111111111111 111111111111 111111111111 111111111111 111111111111 111111111111 111111111111 111111111111 26.063 41.596 999.18 40154 23 8 11 59 51 4 $GNGGA,135619.00,,,,,0,00,99.9,,,,,,*48
39 13 56 20 Nan Nan Nan 11111111 11111111 11111111 11111111 11111111 11111111 11111111 11111111 11111111 111111111111 111111111111 111111111111 111111111111 111111111111 111111111111 111111111111 111111111111 111111111111 26.063 41.657 999.19 41152 25 7 10 60 50 4 $GNGGA,135620.00,,,,,0,00,99.9,,,,,,*42
40 13 56 21 Nan Nan Nan 11111111 11111111 11111111 11111111 11111111 11111111 11111111 11111111 11111111 111111111111 111111111111 111111111111 111111111111 111111111111 111111111111 111111111111 111111111111 111111111111 26.063 41.497 999.19 42151 24 7 11 58 51 4 $GNGGA,135621.00,,,,,0,00,99.9,,,,,,*43
41 13 56 22 Nan Nan Nan 11111111 11111111 11111111 11111111 11111111 11111111 11111111 11111111 11111111 111111111111 111111111111 111111111111 111111111111 111111111111 111111111111 111111111111 111111111111 111111111111 26.063 41.390 999.19 43153 24 7 11 60 50 4 $GNGGA,135622.00,,,,,0,00,99.9,,,,,,*40
42 13 56 23 Nan Nan Nan 11111111 11111111 11111111 11111111 11111111 11111111 11111111 11111111 11111111 111111111111 111111111111 111111111111 111111111111 111111111111 111111111111 111111111111 111111111111 111111111111 26.063 41.306 999.19 44151 23 7 11 58 51 4 $GNGGA,135623.00,,,,,0,00,99.9,,,,,,*41
43 13 56 24 Nan Nan Nan 11111111 11111111 11111111 11111111 11111111 11111111 11111111 11111111 11111111 111111111111 111111111111 111111111111 111111111111 111111111111 111111111111 111111111111 111111111111 111111111111 26.000 41.329 999.19 45301 24 6 11 59 50 4 $GNGGA,135624.00,,,,,0,00,99.9,,,,,,*46
44 13 56 25 Nan Nan Nan 11111111 11111111 11111111 11111111 11111111 11111111 11111111 11111111 11111111 111111111111 111111111111 111111111111 111111111111 111111111111 111111111111 111111111111 111111111111 111111111111 26.063 41.451 999.18 46149 24 7 11 60 51 3 $GNGGA,135625.00,,,,,0,00,99.9,,,,,,*47
45 13 56 26 Nan Nan Nan 11111111 11111111 11111111 11111111 11111111 11111111 11111111 11111111 11111111 111111111111 111111111111 111111111111 111111111111 111111111111 111111111111 111111111111 111111111111 111111111111 26.000 41.611 999.17 47147 23 8 12 59 50 4 $GNGGA,135626.00,,,,,0,00,99.9,,,,,,*44
46 13 56 27 Nan Nan Nan 11111111 11111111 11111111 11111111 11111111 11111111 11111111 11111111 11111111 111111111111 111111111111 111111111111 111111111111 111111111111 111111111111 111111111111 111111111111 111111111111 26.000 41.695 999.16 48142 24 7 11 59 52 3 $GNGGA,135627.00,,,,,0,00,99.9,,,,,,*45
47 13 56 28 Nan Nan Nan 11111111 11111111 11111111 11111111 11111111 11111111 11111111 11111111 11111111 111111111111 111111111111 111111111111 111111111111 111111111111 111111111111 111111111111 111111111111 111111111111 26.063 41.825 999.16 49145 23 6 12 59 50 4 $GNGGA,135628.00,,,,,0,00,99.9,,,,,,*4A
48 13 56 29 Nan Nan Nan 11111111 11111111 11111111 11111111 11111111 11111111 11111111 11111111 11111111 111111111111 111111111111 111111111111 111111111111 111111111111 111111111111 111111111111 111111111111 111111111111 26.063 41.970 999.16 50142 23 7 11 59 52 3 $GNGGA,135629.00,,,,,0,00,99.9,,,,,,*4B
49 13 56 30 Nan Nan Nan 11111111 11111111 11111111 11111111 11111111 11111111 11111111 11111111 11111111 111111111111 111111111111 111111111111 111111111111 111111111111 111111111111 111111111111 111111111111 111111111111 26.063 41.855 999.15 51310 24 7 11 60 51 3 $GNGGA,135630.00,,,,,0,00,99.9,,,,,,*43
50 13 56 31 Nan Nan Nan 11111111 11111111 11111111 11111111 11111111 11111111 11111111 11111111 11111111 111111111111 111111111111 111111111111 111111111111 111111111111 111111111111 111111111111 111111111111 111111111111 26.063 41.634 999.16 52144 23 8 11 59 51 4 $GNGGA,135631.00,,,,,0,00,99.9,,,,,,*42
51 13 56 32 Nan Nan Nan 11111111 11111111 11111111 11111111 11111111 11111111 11111111 11111111 11111111 111111111111 111111111111 111111111111 111111111111 111111111111 111111111111 111111111111 111111111111 111111111111 26.063 41.504 999.17 53142 24 7 11 60 51 3 $GNGGA,135632.00,,,,,0,00,99.9,,,,,,*41
52 13 56 33 Nan Nan Nan 11111111 11111111 11111111 11111111 11111111 11111111 11111111 11111111 11111111 111111111111 111111111111 111111111111 111111111111 111111111111 111111111111 111111111111 111111111111 111111111111 26.063 41.459 999.16 54140 24 7 11 58 51 4 $GNGGA,135633.00,,,,,0,00,99.9,,,,,,*40
53 13 56 34 Nan Nan Nan 11111111 11111111 11111111 11111111 11111111 11111111 11111111 11111111 11111111 111111111111 111111111111 111111111111 111111111111 111111111111 111111111111 111111111111 111111111111 111111111111 26.063 41.611 999.15 55140 24 7 11 60 51 3 $GNGGA,135634.00,,,,,0,00,99.9,,,,,,*47
54 13 56 35 Nan Nan Nan 11111111 11111111 11111111 11111111 11111111 11111111 11111111 11111111 11111111 111111111111 111111111111 111111111111 111111111111 111111111111 111111111111 111111111111 111111111111 111111111111 26.063 41.878 999.15 56139 24 7 11 59 50 4 $GNGGA,135635.00,,,,,0,00,99.9,,,,,,*46
55 13 56 36 Nan Nan Nan 11111111 11111111 11111111 11111111 11111111 11111111 11111111 11111111 11111111 111111111111 111111111111 111111111111 111111111111 111111111111 111111111111 111111111111 111111111111 111111111111 26.063 42.000 999.14 57285 25 7 10 60 50 4 $GNGGA,135636.00,,,,,0,00,99.9,,,,,,*45
56 13 56 37 Nan Nan Nan 11111111 11111111 11111111 11111111 11111111 11111111 11111111 11111111 11111111 111111111111 111111111111 111111111111 111111111111 111111111111 111111111111 111111111111 111111111111 111111111111 26.063 42.038 999.14 58136 25 7 10 59 51 4 $GNGGA,135637.00,,,,,0,00,99.9,,,,,,*44
57 13 56 38 Nan Nan Nan 11111111 11111111 11111111 11111111 11111111 11111111 11111111 11111111 11111111 111111111111 111111111111 111111111111 111111111111 111111111111 111111111111 111111111111 111111111111 111111111111 26.125 42.061 999.14 59138 24 8 10 58 51 5 $GNGGA,135638.00,,,,,0,00,99.9,,,,,,*4B
58 13 56 39 Nan Nan Nan 11111111 11111111 11111111 11111111 11111111 11111111 11111111 11111111 11111111 111111111111 111111111111 111111111111 111111111111 111111111111 111111111111 111111111111 111111111111 111111111111 26.125 42.077 999.13 60137 24 7 11 60 51 3 $GNGGA,135639.00,,,,,0,00,99.9,,,,,,*4A
59 13 56 40 Nan Nan Nan 11111111 11111111 11111111 11111111 11111111 11111111 11111111 11111111 11111111 111111111111 111111111111 111111111111 111111111111 111111111111 111111111111 111111111111 111111111111 111111111111 26.063 42.092 999.13 61130 24 7 11 59 51 3 $GNGGA,135640.00,,,,,0,00,99.9,,,,,,*44
60 13 56 40 Nan Nan Nan 11111111 11111111 11111111 11111111 11111111 11111111 11111111 11111111 11111111 111111111111 111111111111 111111111111 111111111111 111111111111 111111111111 111111111111 111111111111 111111111111 26.063 42.115 999.15 61637 24 7 11 60 51 3 $GNGGA,135640.50,,,,,0,00,12.7,,,,,,*4C
61 13 56 41 Nan Nan Nan 11111111 11111111 11111111 11111111 11111111 11111111 11111111 11111111 11111111 111111111111 111111111111 111111111111 111111111111 111111111111 111111111111 111111111111 111111111111 111111111111 26.063 42.115 999.15 62129 24 8 10 58 52 4 $GNGGA,135641.00,,,,,0,00,12.7,,,,,,*48
62 13 56 42 Nan Nan Nan 11111111 11111111 11111111 11111111 11111111 11111111 11111111 11111111 11111111 111111111111 111111111111 111111111111 111111111111 111111111111 111111111111 111111111111 111111111111 111111111111 26.125 42.138 999.16 63128 24 7 11 60 51 3 $GNGGA,135642.00,,,,,0,00,12.7,,,,,,*4B
63 13 56 43 Nan Nan Nan 11111111 11111111 11111111 11111111 11111111 11111111 11111111 11111111 11111111 111111111111 111111111111 111111111111 111111111111 111111111111 111111111111 111111111111 111111111111 111111111111 26.063 42.122 999.16 64129 23 8 12 59 50 4 $GNGGA,135643.00,,,,,0,00,12.8,,,,,,*45
64 13 56 44 Nan Nan Nan 11111111 11111111 11111111 11111111 11111111 11111111 11111111 11111111 11111111 111111111111 111111111111 111111111111 111111111111 111111111111 111111111111 111111111111 111111111111 111111111111 26.125 42.092 999.16 65126 24 7 11 60 51 3 $GNGGA,135644.00,,,,,0,00,12.8,,,,,,*42
65 13 56 45 Nan Nan Nan 11111111 11111111 11111111 11111111 11111111 11111111 11111111 11111111 11111111 111111111111 111111111111 111111111111 111111111111 111111111111 111111111111 111111111111 111111111111 111111111111 26.063 42.138 999.15 66125 23 7 12 59 51 3 $GNGGA,135645.00,,,,,0,00,12.8,,,,,,*43
66 13 56 46 Nan Nan Nan 11111111 11111111 11111111 11111111 11111111 11111111 11111111 11111111 11111111 111111111111 111111111111 111111111111 111111111111 111111111111 111111111111 111111111111 111111111111 111111111111 26.063 42.252 999.15 67125 23 7 11 59 52 3 $GNGGA,135646.00,,,,,0,00,12.8,,,,,,*40
67 13 56 47 Nan Nan Nan 11111111 11111111 11111111 11111111 11111111 11111111 11111111 11111111 11111111 111111111111 111111111111 111111111111 111111111111 111111111111 111111111111 111111111111 111111111111 111111111111 26.063 42.458 999.16 68122 24 7 11 60 51 3 $GNGGA,135647.00,,,,,0,00,12.9,,,,,,*40
68 13 56 48 Nan Nan Nan 11111111 11111111 11111111 11111111 11111111 11111111 11111111 11111111 11111111 111111111111 111111111111 111111111111 111111111111 111111111111 111111111111 111111111111 111111111111 111111111111 26.063 42.557 999.15 69123 23 7 11 59 50 5 $GNGGA,135648.00,,,,,0,00,12.9,,,,,,*4F
69 13 56 49 Nan Nan Nan 11111111 11111111 11111111 11111111 11111111 11111111 11111111 11111111 11111111 111111111111 111111111111 111111111111 111111111111 111111111111 111111111111 111111111111 111111111111 111111111111 26.063 42.496 999.15 70122 25 7 10 59 51 4 $GNGGA,135649.00,,,,,0,00,12.9,,,,,,*4E
70 13 56 50 Nan Nan Nan 11111111 11111111 11111111 11111111 11111111 11111111 11111111 11111111 11111111 111111111111 111111111111 111111111111 111111111111 111111111111 111111111111 111111111111 111111111111 111111111111 26.000 42.618 999.15 71121 23 7 12 59 50 4 $GNGGA,135650.00,,,,,0,00,13.0,,,,,,*4E
71 13 56 51 Nan Nan Nan 11111111 11111111 11111111 11111111 11111111 11111111 11111111 11111111 11111111 111111111111 111111111111 111111111111 111111111111 111111111111 111111111111 111111111111 111111111111 111111111111 26.000 42.649 999.16 72120 25 6 10 60 50 4 $GNGGA,135651.00,,,,,0,00,13.0,,,,,,*4F
72 13 56 52 Nan Nan Nan 11111111 11111111 11111111 11111111 11111111 11111111 11111111 11111111 11111111 111111111111 111111111111 111111111111 111111111111 111111111111 111111111111 111111111111 111111111111 111111111111 26.000 42.527 999.15 73119 24 7 10 58 51 4 $GNGGA,135652.00,,,,,0,00,13.0,,,,,,*4C
73 13 56 53 Nan Nan Nan 11111111 11111111 11111111 11111111 11111111 11111111 11111111 11111111 11111111 111111111111 111111111111 111111111111 111111111111 111111111111 111111111111 111111111111 111111111111 111111111111 26.000 42.496 999.16 74119 23 7 11 59 52 3 $GNGGA,135653.00,,,,,0,00,13.0,,,,,,*4D
74 13 56 54 Nan Nan Nan 11111111 11111111 11111111 11111111 11111111 11111111 11111111 11111111 11111111 111111111111 111111111111 111111111111 111111111111 111111111111 111111111111 111111111111 111111111111 111111111111 26.063 42.557 999.16 75118 24 7 11 60 51 3 $GNGGA,135654.00,,,,,0,00,13.1,,,,,,*4B
75 13 56 55 Nan Nan Nan 11111111 11111111 11111111 11111111 11111111 11111111 11111111 11111111 11111111 111111111111 111111111111 111111111111 111111111111 111111111111 111111111111 111111111111 111111111111 111111111111 26.000 42.588 999.16 76116 23 7 12 59 51 3 $GNGGA,135655.00,,,,,0,00,13.1,,,,,,*4A
76 13 56 56 Nan Nan Nan 11111111 11111111 11111111 11111111 11111111 11111111 11111111 11111111 11111111 111111111111 111111111111 111111111111 111111111111 111111111111 111111111111 111111111111 111111111111 111111111111 26.000 42.595 999.15 77115 25 6 10 60 50 4 $GNGGA,135656.00,,,,,0,00,13.1,,,,,,*49
77 13 56 57 Nan Nan Nan 11111111 11111111 11111111 11111111 11111111 11111111 11111111 11111111 11111111 111111111111 111111111111 111111111111 111111111111 111111111111 111111111111 111111111111 111111111111 111111111111 26.000 42.756 999.15 78114 23 7 12 59 51 3 $GNGGA,135657.00,,,,,0,00,13.2,,,,,,*4B
78 13 56 58 Nan Nan Nan 11111111 11111111 11111111 11111111 11111111 11111111 11111111 11111111 11111111 111111111111 111111111111 111111111111 111111111111 111111111111 111111111111 111111111111 111111111111 111111111111 26.000 42.702 999.14 79112 23 6 11 59 51 4 $GNGGA,135658.00,,,,,0,00,13.2,,,,,,*44
79 13 56 59 Nan Nan Nan 11111111 11111111 11111111 11111111 11111111 11111111 11111111 11111111 11111111 111111111111 111111111111 111111111111 111111111111 111111111111 111111111111 111111111111 111111111111 111111111111 26.000 42.664 999.14 80113 24 7 11 60 51 3 $GNGGA,135659.00,,,,,0,00,13.2,,,,,,*45
80 13 57 00 Nan Nan Nan 11111111 11111111 11111111 11111111 11111111 11111111 11111111 11111111 11111111 111111111111 111111111111 111111111111 111111111111 111111111111 111111111111 111111111111 111111111111 111111111111 26.000 42.725 999.15 81112 23 8 10 58 51 5 $GNGGA,135700.00,,,,,0,00,13.3,,,,,,*49
81 13 57 01 Nan Nan Nan 11111111 11111111 11111111 11111111 11111111 11111111 11111111 11111111 11111111 111111111111 111111111111 111111111111 111111111111 111111111111 111111111111 111111111111 111111111111 111111111111 26.063 42.855 999.15 82112 25 7 10 59 51 4 $GNGGA,135701.00,,,,,0,00,13.3,,,,,,*48
82 13 57 02 Nan Nan Nan 11111111 11111111 11111111 11111111 11111111 11111111 11111111 11111111 11111111 111111111111 111111111111 111111111111 111111111111 111111111111 111111111111 111111111111 111111111111 111111111111 26.000 42.901 999.16 83110 23 7 12 59 50 4 $GNGGA,135702.00,,,,,0,00,13.3,,,,,,*4B
83 13 57 03 Nan Nan Nan 11111111 11111111 11111111 11111111 11111111 11111111 11111111 11111111 11111111 111111111111 111111111111 111111111111 111111111111 111111111111 111111111111 111111111111 111111111111 111111111111 26.000 42.740 999.16 84108 24 7 11 59 52 3 $GNGGA,135703.00,,,,,0,00,13.3,,,,,,*4A
84 13 57 04 Nan Nan Nan 11111111 11111111 11111111 11111111 11111111 11111111 11111111 11111111 11111111 111111111111 111111111111 111111111111 111111111111 111111111111 111111111111 111111111111 111111111111 111111111111 26.000 42.611 999.15 85108 24 7 10 58 51 4 $GNGGA,135704.00,,,,,0,00,13.4,,,,,,*4A
85 13 57 05 Nan Nan Nan 11111111 11111111 11111111 11111111 11111111 11111111 11111111 11111111 11111111 111111111111 111111111111 111111111111 111111111111 111111111111 111111111111 111111111111 111111111111 111111111111 26.000 42.565 999.17 86107 23 7 11 59 50 5 $GNGGA,135705.00,,,,,0,00,13.4,,,,,,*4B
86 13 57 06 Nan Nan Nan 11111111 11111111 11111111 11111111 11111111 11111111 11111111 11111111 11111111 111111111111 111111111111 111111111111 111111111111 111111111111 111111111111 111111111111 111111111111 111111111111 26.000 42.603 999.17 87106 24 7 11 60 50 4 $GNGGA,135706.00,,,,,0,00,13.4,,,,,,*48
87 13 57 07 Nan Nan Nan 11111111 11111111 11111111 11111111 11111111 11111111 11111111 11111111 11111111 111111111111 111111111111 111111111111 111111111111 111111111111 111111111111 111111111111 111111111111 111111111111 26.000 42.573 999.16 88104 24 7 11 58 51 4 $GNGGA,135707.00,,,,,0,00,13.5,,,,,,*48
88 13 57 08 Nan Nan Nan 11111111 11111111 11111111 11111111 11111111 11111111 11111111 11111111 11111111 111111111111 111111111111 111111111111 111111111111 111111111111 111111111111 111111111111 111111111111 111111111111 26.000 42.573 999.17 89103 24 7 11 60 51 3 $GNGGA,135708.00,,,,,0,00,13.5,,,,,,*47
89 13 57 09 Nan Nan Nan 11111111 11111111 11111111 11111111 11111111 11111111 11111111 11111111 11111111 111111111111 111111111111 111111111111 111111111111 111111111111 111111111111 111111111111 111111111111 111111111111 26.000 42.634 999.16 90100 24 7 11 59 51 3 $GNGGA,135709.00,,,,,0,00,13.5,,,,,,*46
90 13 57 10 Nan Nan Nan 11111111 11111111 11111111 11111111 11111111 11111111 11111111 11111111 11111111 111111111111 111111111111 111111111111 111111111111 111111111111 111111111111 111111111111 111111111111 111111111111 26.000 42.649 999.16 91102 23 7 11 59 52 3 $GNGGA,135710.00,,,,,0,00,13.6,,,,,,*4D
91 13 57 11 Nan Nan Nan 11111111 11111111 11111111 11111111 11111111 11111111 11111111 11111111 11111111 111111111111 111111111111 111111111111 111111111111 111111111111 111111111111 111111111111 111111111111 111111111111 26.000 42.634 999.15 92101 24 7 11 60 50 4 $GNGGA,135711.00,,,,,0,00,13.6,,,,,,*4C
92 13 57 12 Nan Nan Nan 11111111 11111111 11111111 11111111 11111111 11111111 11111111 11111111 11111111 111111111111 111111111111 111111111111 111111111111 111111111111 111111111111 111111111111 111111111111 111111111111 26.000 42.580 999.15 93100 23 8 11 58 51 4 $GNGGA,135712.00,,,,,0,00,13.6,,,,,,*4F
93 13 57 13 Nan Nan Nan 11111111 11111111 11111111 11111111 11111111 11111111 11111111 11111111 11111111 111111111111 111111111111 111111111111 111111111111 111111111111 111111111111 111111111111 111111111111 111111111111 26.000 42.458 999.16 94099 25 7 10 60 50 4 $GNGGA,135713.00,,,,,0,00,13.6,,,,,,*4E
94 13 57 14 Nan Nan Nan 11111111 11111111 11111111 11111111 11111111 11111111 11111111 11111111 11111111 111111111111 111111111111 111111111111 111111111111 111111111111 111111111111 111111111111 111111111111 111111111111 26.000 42.389 999.15 95098 23 7 12 59 51 3 $GNGGA,135714.00,,,,,0,00,99.9,,,,,,*44
95 13 57 15 Nan Nan Nan 11111111 11111111 11111111 11111111 11111111 11111111 11111111 11111111 11111111 111111111111 111111111111 111111111111 111111111111 111111111111 111111111111 111111111111 111111111111 111111111111 25.938 42.420 999.16 96095 25 7 10 59 51 4 $GNGGA,135715.00,,,,,0,00,99.9,,,,,,*45
96 13 57 16 Nan Nan Nan 11111111 11111111 11111111 11111111 11111111 11111111 11111111 11111111 11111111 111111111111 111111111111 111111111111 111111111111 111111111111 111111111111 111111111111 111111111111 111111111111 26.000 42.443 999.16 97093 24 7 11 60 50 4 $GNGGA,135716.00,,,,,0,00,99.9,,,,,,*46
97 13 57 17 Nan Nan Nan 11111111 11111111 11111111 11111111 11111111 11111111 11111111 11111111 11111111 111111111111 111111111111 111111111111 111111111111 111111111111 111111111111 111111111111 111111111111 111111111111 26.000 42.405 999.16 98094 23 8 11 59 51 4 $GNGGA,135717.00,,,,,0,00,99.9,,,,,,*47
98 13 57 18 Nan Nan Nan 11111111 11111111 11111111 11111111 11111111 11111111 11111111 11111111 11111111 111111111111 111111111111 111111111111 111111111111 111111111111 111111111111 111111111111 111111111111 111111111111 26.000 42.367 999.15 99091 24 6 11 60 50 4 $GNGGA,135718.00,,,,,0,00,99.9,,,,,,*48
99 13 57 19 Nan Nan Nan 11111111 11111111 11111111 11111111 11111111 11111111 11111111 11111111 11111111 111111111111 111111111111 111111111111 111111111111 111111111111 111111111111 111111111111 111111111111 111111111111 26.000 42.351 999.14 100093 23 7 12 59 51 3 $GNGGA,135719.00,,,,,0,00,99.9,,,,,,*49
100 13 57 20 Nan Nan Nan 11111111 11111111 11111111 11111111 11111111 11111111 11111111 11111111 11111111 111111111111 111111111111 111111111111 111111111111 111111111111 111111111111 111111111111 111111111111 111111111111 26.000 42.374 999.15 101093 24 7 11 60 51 3 $GNGGA,135720.00,,,,,0,00,99.9,,,,,,*43
101 13 57 21 Nan Nan Nan 11111111 11111111 11111111 11111111 11111111 11111111 11111111 11111111 11111111 111111111111 111111111111 111111111111 111111111111 111111111111 111111111111 111111111111 111111111111 111111111111 26.063 42.389 999.15 102090 25 7 10 59 50 4 $GNGGA,135721.00,,,,,0,00,13.9,,,,,,*40
102 13 57 22 Nan Nan Nan 11111111 11111111 11111111 11111111 11111111 11111111 11111111 11111111 11111111 111111111111 111111111111 111111111111 111111111111 111111111111 111111111111 111111111111 111111111111 111111111111 26.000 42.420 999.15 103090 24 7 10 59 51 4 $GNGGA,135722.00,,,,,0,00,13.9,,,,,,*43
103 13 57 23 Nan Nan Nan 11111111 11111111 11111111 11111111 11111111 11111111 11111111 11111111 11111111 111111111111 111111111111 111111111111 111111111111 111111111111 111111111111 111111111111 111111111111 111111111111 26.000 42.420 999.15 104089 24 7 11 60 51 3 $GNGGA,135723.00,,,,,0,00,14.0,,,,,,*4C
104 13 57 24 Nan Nan Nan 11111111 11111111 11111111 11111111 11111111 11111111 11111111 11111111 11111111 111111111111 111111111111 111111111111 111111111111 111111111111 111111111111 111111111111 111111111111 111111111111 26.000 42.420 999.15 105088 23 7 12 59 50 4 $GNGGA,135724.00,,,,,0,00,14.0,,,,,,*4B
105 13 57 25 Nan Nan Nan 11111111 11111111 11111111 11111111 11111111 11111111 11111111 11111111 11111111 111111111111 111111111111 111111111111 111111111111 111111111111 111111111111 111111111111 111111111111 111111111111 26.000 42.405 999.15 106101 25 7 10 58 51 4 $GNGGA,135725.00,,,,,0,00,4.28,,,,,,*41
106 13 57 26 Nan Nan Nan 11111111 11111111 11111111 11111111 11111111 11111111 11111111 11111111 11111111 111111111111 111111111111 111111111111 111111111111 111111111111 111111111111 111111111111 111111111111 111111111111 26.000 42.405 999.16 107086 23 7 12 59 51 3 $GNGGA,135726.00,,,,,0,00,4.28,,,,,,*42
107 13 57 27 Nan Nan Nan 11111111 11111111 11111111 11111111 11111111 11111111 11111111 11111111 11111111 111111111111 111111111111 111111111111 111111111111 111111111111 111111111111 111111111111 111111111111 111111111111 26.000 42.382 999.17 108084 23 7 11 59 52 3 $GNGGA,135727.00,,,,,0,00,4.28,,,,,,*43
108 13 57 28 Nan Nan Nan 11111111 11111111 11111111 11111111 11111111 11111111 11111111 11111111 11111111 111111111111 111111111111 111111111111 111111111111 111111111111 111111111111 111111111111 111111111111 111111111111 26.000 42.443 999.16 109084 24 7 11 60 51 3 $GNGGA,135728.00,,,,,0,00,4.28,,,,,,*4C
109 13 57 29 Nan Nan Nan 11111111 11111111 11111111 11111111 11111111 11111111 11111111 11111111 11111111 111111111111 111111111111 111111111111 111111111111 111111111111 111111111111 111111111111 111111111111 111111111111 26.000 43.366 999.15 110084 24 8 10 58 51 5 $GNGGA,135729.00,,,,,0,00,4.28,,,,,,*4D
110 13 57 30 Nan Nan Nan 11111111 11111111 11111111 11111111 11111111 11111111 11111111 11111111 11111111 111111111111 111111111111 111111111111 111111111111 111111111111 111111111111 111111111111 111111111111 111111111111 26.000 44.350 999.15 111083 24 7 10 59 51 4 $GNGGA,135730.00,,,,,0,00,4.28,,,,,,*45
111 13 57 31 Nan Nan Nan 11111111 11111111 11111111 11111111 11111111 11111111 11111111 11111111 11111111 111111111111 111111111111 111111111111 111111111111 111111111111 111111111111 111111111111 111111111111 111111111111 26.000 44.823 999.15 112082 23 7 12 59 51 3 $GNGGA,135731.00,,,,,0,00,4.28,,,,,,*44
112 13 57 32 Nan Nan Nan 11111111 11111111 11111111 11111111 11111111 11111111 11111111 11111111 11111111 111111111111 111111111111 111111111111 111111111111 111111111111 111111111111 111111111111 111111111111 111111111111 26.000 44.922 999.16 113081 24 7 10 59 51 4 $GNGGA,135732.00,,,,,0,00,4.28,,,,,,*47
113 13 57 33 Nan Nan Nan 11111111 11111111 11111111 11111111 11111111 11111111 11111111 11111111 11111111 111111111111 111111111111 111111111111 111111111111 111111111111 111111111111 111111111111 111111111111 111111111111 26.000 45.144 999.15 114080 25 7 10 59 50 4 $GNGGA,135733.00,,,,,0,00,4.28,,,,,,*46
114 13 57 34 4333.6791300128.72392145.7ó 00128.72392 145.7 11111111 11111111 11111111 11111111 11111111 11111111 11111111 11111111 11111111 111111111111 111111111111 111111111111 111111111111 111111111111 111111111111 111111111111 111111111111 111111111111 26.000 45.228 999.15 115090 24 15 14 60 51 3 $GNGGA,135734.00,4333.67913,N,00128.72392,E,1,04,4.28,145.7,M,53.8,M,,*4D
115 13 57 35 4333.6809200128.72592149.0ó 00128.72592 149.0 11111111 11111111 11111111 11111111 11111111 11111111 11111111 11111111 11111111 111111111111 111111111111 111111111111 111111111111 111111111111 111111111111 111111111111 111111111111 111111111111 26.000 44.846 999.15 116090 24 14 14 59 50 4 $GNGGA,135735.00,4333.68092,N,00128.72592,E,1,05,1.83,149.0,M,53.8,M,,*4B
116 13 57 36 4333.6826400128.72805152.2ó 00128.72805 152.2 11111111 11111111 11111111 11111111 11111111 11111111 11111111 11111111 11111111 111111111111 111111111111 111111111111 111111111111 111111111111 111111111111 111111111111 111111111111 111111111111 26.000 44.060 999.15 117089 25 15 13 59 51 4 $GNGGA,135736.00,4333.68264,N,00128.72805,E,1,05,1.83,152.2,M,53.8,M,,*48
117 13 57 37 4333.6835100128.72904153.0ó 00128.72904 153.0 11111111 11111111 11111111 11111111 11111111 11111111 11111111 11111111 11111111 111111111111 111111111111 111111111111 111111111111 111111111111 111111111111 111111111111 111111111111 111111111111 26.000 43.480 999.15 118088 24 15 14 60 51 3 $GNGGA,135737.00,4333.68351,N,00128.72904,E,1,05,1.83,153.0,M,53.8,M,,*4D
118 13 57 38 4333.6835700128.72892152.5ó 00128.72892 152.5 11111111 11111111 11111111 11111111 11111111 11111111 11111111 11111111 11111111 111111111111 111111111111 111111111111 111111111111 111111111111 111111111111 111111111111 111111111111 111111111111 26.000 43.107 999.15 119086 24 16 13 59 50 5 $GNGGA,135738.00,4333.68357,N,00128.72892,E,1,05,1.83,152.5,M,53.8,M,,*4E
119 13 57 39 4333.6836900128.72901152.8ó 00128.72901 152.8 11111111 11111111 11111111 11111111 11111111 11111111 11111111 11111111 11111111 111111111111 111111111111 111111111111 111111111111 111111111111 111111111111 111111111111 111111111111 111111111111 25.938 42.870 999.14 120085 25 14 13 60 50 4 $GNGGA,135739.00,4333.68369,N,00128.72901,E,1,05,1.83,152.8,M,53.8,M,,*44
120 13 57 40 4333.6840900128.72937154.2ó 00128.72937 154.2 11111111 11111111 11111111 11111111 11111111 11111111 11111111 11111111 11111111 111111111111 111111111111 111111111111 111111111111 111111111111 111111111111 111111111111 111111111111 111111111111 26.000 42.733 999.15 121084 23 15 15 59 51 3 $GNGGA,135740.00,4333.68409,N,00128.72937,E,1,05,1.83,154.2,M,53.8,M,,*42
121 13 57 41 4333.6836900128.72868154.2ó 00128.72868 154.2 11111111 11111111 11111111 11111111 11111111 11111111 11111111 11111111 11111111 111111111111 111111111111 111111111111 111111111111 111111111111 111111111111 111111111111 111111111111 111111111111 26.000 42.664 999.15 122084 24 16 14 60 51 3 $GNGGA,135741.00,4333.68369,N,00128.72868,E,1,05,1.83,154.2,M,53.8,M,,*49
122 13 57 42 4333.6839700128.72894155.2ó 00128.72894 155.2 11111111 11111111 11111111 11111111 11111111 11111111 11111111 11111111 11111111 111111111111 111111111111 111111111111 111111111111 111111111111 111111111111 111111111111 111111111111 111111111111 26.000 42.573 999.15 123082 23 14 14 58 51 4 $GNGGA,135742.00,4333.68397,N,00128.72894,E,1,05,1.83,155.2,M,53.8,M,,*49
123 13 57 43 4333.6840600128.72900155.9ó 00128.72900 155.9 11111111 11111111 11111111 11111111 11111111 11111111 11111111 11111111 11111111 111111111111 111111111111 111111111111 111111111111 111111111111 111111111111 111111111111 111111111111 111111111111 26.000 42.443 999.15 124084 24 16 14 59 52 3 $GNGGA,135743.00,4333.68406,N,00128.72900,E,1,05,1.83,155.9,M,53.8,M,,*40
124 13 57 44 4333.6841500128.72923156.8ó 00128.72923 156.8 11111111 11111111 11111111 11111111 11111111 11111111 11111111 11111111 11111111 111111111111 111111111111 111111111111 111111111111 111111111111 111111111111 111111111111 111111111111 111111111111 26.000 42.336 999.15 125081 24 14 13 59 51 4 $GNGGA,135744.00,4333.68415,N,00128.72923,E,1,05,1.83,156.8,M,53.8,M,,*46
125 13 57 45 4333.6846000128.72993158.3ó 00128.72993 158.3 11111111 11111111 11111111 11111111 11111111 11111111 11111111 11111111 11111111 111111111111 111111111111 111111111111 111111111111 111111111111 111111111111 111111111111 111111111111 111111111111 26.000 42.260 999.15 126080 23 15 15 59 51 3 $GNGGA,135745.00,4333.68460,N,00128.72993,E,1,05,1.83,158.3,M,53.8,M,,*4B
126 13 57 46 4333.6848900128.73032159.1ó 00128.73032 159.1 11111111 11111111 11111111 11111111 11111111 11111111 11111111 11111111 11111111 111111111111 111111111111 111111111111 111111111111 111111111111 111111111111 111111111111 111111111111 111111111111 26.000 42.222 999.15 127080 24 15 14 60 51 3 $GNGGA,135746.00,4333.68489,N,00128.73032,E,1,05,1.83,159.1,M,53.8,M,,*4F
127 13 57 47 4333.6848100128.73032158.8ó 00128.73032 158.8 11111111 11111111 11111111 11111111 11111111 11111111 11111111 11111111 11111111 111111111111 111111111111 111111111111 111111111111 111111111111 111111111111 111111111111 111111111111 111111111111 26.000 42.679 999.15 128079 23 15 15 59 50 4 $GNGGA,135747.00,4333.68481,N,00128.73032,E,1,06,1.78,158.8,M,53.8,M,,*49
128 13 57 48 4333.6845200128.72991158.4ó 00128.72991 158.4 11111111 11111111 11111111 11111111 11111111 11111111 11111111 11111111 11111111 111111111111 111111111111 111111111111 111111111111 111111111111 111111111111 111111111111 111111111111 111111111111 25.938 42.923 999.15 129079 24 16 14 59 52 3 $GNGGA,135748.00,4333.68452,N,00128.72991,E,1,06,1.78,158.4,M,53.8,M,,*45
129 13 57 49 4333.6846100128.73003158.6ó 00128.73003 158.6 11111111 11111111 11111111 11111111 11111111 11111111 11111111 11111111 11111111 111111111111 111111111111 111111111111 111111111111 111111111111 111111111111 111111111111 111111111111 111111111111 25.938 42.962 999.15 130076 24 15 14 60 51 3 $GNGGA,135749.00,4333.68461,N,00128.73003,E,1,06,1.78,158.6,M,53.8,M,,*45
130 13 57 50 4333.6846200128.72998158.5ó 00128.72998 158.5 11111111 11111111 11111111 11111111 11111111 11111111 11111111 11111111 11111111 111111111111 111111111111 111111111111 111111111111 111111111111 111111111111 111111111111 111111111111 111111111111 26.000 42.763 999.15 131077 23 16 14 59 51 4 $GNGGA,135750.00,4333.68462,N,00128.72998,E,1,05,1.83,158.5,M,53.8,M,,*40
131 13 57 51 4333.6850400128.73056159.2ó 00128.73056 159.2 11111111 11111111 11111111 11111111 11111111 11111111 11111111 11111111 11111111 111111111111 111111111111 111111111111 111111111111 111111111111 111111111111 111111111111 111111111111 111111111111 26.000 42.534 999.15 132075 24 15 14 60 51 3 $GNGGA,135751.00,4333.68504,N,00128.73056,E,1,05,1.83,159.2,M,53.8,M,,*4C
132 13 57 52 4333.6855100128.73119159.9ó 00128.73119 159.9 11111111 11111111 11111111 11111111 11111111 11111111 11111111 11111111 11111111 111111111111 111111111111 111111111111 111111111111 111111111111 111111111111 111111111111 111111111111 111111111111 26.000 42.428 999.15 133074 24 15 14 59 50 4 $GNGGA,135752.00,4333.68551,N,00128.73119,E,1,05,1.83,159.9,M,53.8,M,,*4E
133 13 57 53 4333.6858500128.73167160.4ó 00128.73167 160.4 11111111 11111111 11111111 11111111 11111111 11111111 11111111 11111111 11111111 111111111111 111111111111 111111111111 111111111111 111111111111 111111111111 111111111111 111111111111 111111111111 26.000 42.328 999.16 134073 25 16 13 60 50 4 $GNGGA,135753.00,4333.68585,N,00128.73167,E,1,05,1.83,160.4,M,53.8,M,,*48
134 13 57 54 4333.6855900128.73143159.9ó 00128.73143 159.9 11111111 11111111 11111111 11111111 11111111 11111111 11111111 11111111 11111111 111111111111 111111111111 111111111111 111111111111 111111111111 111111111111 111111111111 111111111111 111111111111 26.000 42.222 999.15 135071 23 14 15 59 51 3 $GNGGA,135754.00,4333.68559,N,00128.73143,E,1,05,1.83,159.9,M,53.8,M,,*4F
135 13 57 55 4333.6856800128.73162159.6ó 00128.73162 159.6 11111111 11111111 11111111 11111111 11111111 11111111 11111111 11111111 11111111 111111111111 111111111111 111111111111 111111111111 111111111111 111111111111 111111111111 111111111111 111111111111 26.000 42.145 999.15 136071 23 16 14 59 52 3 $GNGGA,135755.00,4333.68568,N,00128.73162,E,1,05,1.83,159.6,M,53.8,M,,*40
136 13 57 56 4333.6863800128.73259160.6ó 00128.73259 160.6 11111111 11111111 11111111 11111111 11111111 11111111 11111111 11111111 11111111 111111111111 111111111111 111111111111 111111111111 111111111111 111111111111 111111111111 111111111111 111111111111 26.000 42.122 999.14 137068 25 14 13 60 50 4 $GNGGA,135756.00,4333.68638,N,00128.73259,E,1,05,1.83,160.6,M,53.8,M,,*44
137 13 57 57 4333.6864400128.73270160.4ó 00128.73270 160.4 11111111 11111111 11111111 11111111 11111111 11111111 11111111 11111111 11111111 111111111111 111111111111 111111111111 111111111111 111111111111 111111111111 111111111111 111111111111 111111111111 26.000 42.168 999.14 138068 23 15 15 59 51 3 $GNGGA,135757.00,4333.68644,N,00128.73270,E,1,04,4.27,160.4,M,53.8,M,,*4D
138 13 57 58 4333.6865000128.73284160.4ó 00128.73284 160.4 11111111 11111111 11111111 11111111 11111111 11111111 11111111 11111111 11111111 111111111111 111111111111 111111111111 111111111111 111111111111 111111111111 111111111111 111111111111 111111111111 26.000 42.206 999.14 139067 25 14 13 60 50 4 $GNGGA,135758.00,4333.68650,N,00128.73284,E,1,04,4.27,160.4,M,53.8,M,,*4C
139 13 57 59 4333.6868200128.73350161.2ó 00128.73350 161.2 11111111 11111111 11111111 11111111 11111111 11111111 11111111 11111111 11111111 111111111111 111111111111 111111111111 111111111111 111111111111 111111111111 111111111111 111111111111 111111111111 26.000 42.229 999.13 140066 23 15 15 59 51 3 $GNGGA,135759.00,4333.68682,N,00128.73350,E,1,04,4.27,161.2,M,53.8,M,,*4D
140 13 58 00 4333.6870500128.73396161.8ó 00128.73396 161.8 11111111 11111111 11111111 11111111 11111111 11111111 11111111 11111111 11111111 111111111111 111111111111 111111111111 111111111111 111111111111 111111111111 111111111111 111111111111 111111111111 26.000 42.252 999.12 141066 24 16 14 59 52 3 $GNGGA,135800.00,4333.68705,N,00128.73396,E,1,04,4.27,161.8,M,53.8,M,,*40
141 13 58 01 4333.6871800128.73429162.0ó 00128.73429 162.0 11111111 11111111 11111111 11111111 11111111 11111111 11111111 11111111 11111111 111111111111 111111111111 111111111111 111111111111 111111111111 111111111111 111111111111 111111111111 111111111111 26.000 42.237 999.11 142065 25 14 13 60 50 4 $GNGGA,135801.00,4333.68718,N,00128.73429,E,1,04,4.27,162.0,M,53.8,M,,*45
142 13 58 02 4333.6873400128.73459162.4ó 00128.73459 162.4 11111111 11111111 11111111 11111111 11111111 11111111 11111111 11111111 11111111 111111111111 111111111111 111111111111 111111111111 111111111111 111111111111 111111111111 111111111111 111111111111 26.000 42.183 999.12 143064 23 15 13 59 51 5 $GNGGA,135802.00,4333.68734,N,00128.73459,E,1,04,4.27,162.4,M,53.8,M,,*4B
143 13 58 03 4333.6875400128.73504162.9ó 00128.73504 162.9 11111111 11111111 11111111 11111111 11111111 11111111 11111111 11111111 11111111 111111111111 111111111111 111111111111 111111111111 111111111111 111111111111 111111111111 111111111111 111111111111 26.000 42.161 999.12 144063 24 15 14 60 51 3 $GNGGA,135803.00,4333.68754,N,00128.73504,E,1,04,4.27,162.9,M,53.8,M,,*48
144 13 58 04 4333.6881000128.73588163.6ó 00128.73588 163.6 11111111 11111111 11111111 11111111 11111111 11111111 11111111 11111111 11111111 111111111111 111111111111 111111111111 111111111111 111111111111 111111111111 111111111111 111111111111 111111111111 26.000 42.138 999.13 145062 24 15 14 59 50 4 $GNGGA,135804.00,4333.68810,N,00128.73588,E,1,05,1.83,163.6,M,53.8,M,,*40
145 13 58 05 4333.6886200128.73670164.5ó 00128.73670 164.5 11111111 11111111 11111111 11111111 11111111 11111111 11111111 11111111 11111111 111111111111 111111111111 111111111111 111111111111 111111111111 111111111111 111111111111 111111111111 111111111111 26.000 42.122 999.13 146062 24 16 14 59 52 3 $GNGGA,135805.00,4333.68862,N,00128.73670,E,1,05,1.83,164.5,M,53.8,M,,*44
146 13 58 06 4333.6892300128.73761165.4ó 00128.73761 165.4 11111111 11111111 11111111 11111111 11111111 11111111 11111111 11111111 11111111 111111111111 111111111111 111111111111 111111111111 111111111111 111111111111 111111111111 111111111111 111111111111 26.000 42.115 999.14 147061 24 14 14 59 50 4 $GNGGA,135806.00,4333.68923,N,00128.73761,E,1,05,1.83,165.4,M,53.8,M,,*42
147 13 58 07 4333.6895100128.73804165.6ó 00128.73804 165.6 11111111 11111111 11111111 11111111 11111111 11111111 11111111 11111111 11111111 111111111111 111111111111 111111111111 111111111111 111111111111 111111111111 111111111111 111111111111 111111111111 26.000 42.214 999.12 148059 23 15 13 58 51 5 $GNGGA,135807.00,4333.68951,N,00128.73804,E,1,04,4.27,165.6,M,53.8,M,,*42
148 13 58 08 4333.6898800128.73859165.9ó 00128.73859 165.9 11111111 11111111 11111111 11111111 11111111 11111111 11111111 11111111 11111111 111111111111 111111111111 111111111111 111111111111 111111111111 111111111111 111111111111 111111111111 111111111111 26.000 42.237 999.12 149058 25 14 13 60 50 4 $GNGGA,135808.00,4333.68988,N,00128.73859,E,1,04,4.27,165.9,M,53.8,M,,*4E
149 13 58 09 4333.6901700128.73906166.3ó 00128.73906 166.3 11111111 11111111 11111111 11111111 11111111 11111111 11111111 11111111 11111111 111111111111 111111111111 111111111111 111111111111 111111111111 111111111111 111111111111 111111111111 111111111111 25.938 42.290 999.12 150057 24 14 14 59 50 4 $GNGGA,135809.00,4333.69017,N,00128.73906,E,1,04,4.27,166.3,M,53.8,M,,*43
150 13 58 10 4333.6890500128.73782163.5ó 00128.73782 163.5 11111111 11111111 11111111 11111111 11111111 11111111 11111111 11111111 11111111 111111111111 111111111111 111111111111 111111111111 111111111111 111111111111 111111111111 111111111111 111111111111 26.000 42.244 999.12 151057 24 14 13 59 51 4 $GNGGA,135810.00,4333.68905,N,00128.73782,E,1,05,2.09,163.5,M,53.8,M,,*4A
151 13 58 11 4333.6882800128.73698161.4ó 00128.73698 161.4 11111111 11111111 11111111 11111111 11111111 11111111 11111111 11111111 11111111 111111111111 111111111111 111111111111 111111111111 111111111111 111111111111 111111111111 111111111111 111111111111 26.000 42.176 999.13 152056 23 15 15 59 50 4 $GNGGA,135811.00,4333.68828,N,00128.73698,E,1,05,2.09,161.4,M,53.8,M,,*4C
152 13 58 12 4333.6883100128.73722161.2ó 00128.73722 161.2 11111111 11111111 11111111 11111111 11111111 11111111 11111111 11111111 11111111 111111111111 111111111111 111111111111 111111111111 111111111111 111111111111 111111111111 111111111111 111111111111 26.000 42.138 999.13 153055 24 16 14 59 52 3 $GNGGA,135812.00,4333.68831,N,00128.73722,E,1,05,2.09,161.2,M,53.8,M,,*41
153 13 58 13 4333.6885100128.73752161.3ó 00128.73752 161.3 11111111 11111111 11111111 11111111 11111111 11111111 11111111 11111111 11111111 111111111111 111111111111 111111111111 111111111111 111111111111 111111111111 111111111111 111111111111 111111111111 26.000 42.107 999.13 154053 24 15 14 60 51 3 $GNGGA,135813.00,4333.68851,N,00128.73752,E,1,04,4.27,161.3,M,53.8,M,,*4B
154 13 58 14 4333.6887100128.73788161.4ó 00128.73788 161.4 11111111 11111111 11111111 11111111 11111111 11111111 11111111 11111111 11111111 111111111111 111111111111 111111111111 111111111111 111111111111 111111111111 111111111111 111111111111 111111111111 26.000 42.084 999.12 155055 23 16 14 59 51 4 $GNGGA,135814.00,4333.68871,N,00128.73788,E,1,04,4.27,161.4,M,53.8,M,,*4E
155 13 58 15 4333.6889800128.73837161.9ó 00128.73837 161.9 11111111 11111111 11111111 11111111 11111111 11111111 11111111 11111111 11111111 111111111111 111111111111 111111111111 111111111111 111111111111 111111111111 111111111111 111111111111 111111111111 26.000 42.077 999.13 156052 24 14 13 59 51 4 $GNGGA,135815.00,4333.68898,N,00128.73837,E,1,04,4.26,161.9,M,53.8,M,,*4F
156 13 58 16 4333.6891000128.73863162.0ó 00128.73863 162.0 11111111 11111111 11111111 11111111 11111111 11111111 11111111 11111111 11111111 111111111111 111111111111 111111111111 111111111111 111111111111 111111111111 111111111111 111111111111 111111111111 26.000 42.069 999.13 157050 23 14 14 58 51 4 $GNGGA,135816.00,4333.68910,N,00128.73863,E,1,04,4.26,162.0,M,53.8,M,,*46
157 13 58 17 4333.6892000128.73881162.1ó 00128.73881 162.1 11111111 11111111 11111111 11111111 11111111 11111111 11111111 11111111 11111111 111111111111 111111111111 111111111111 111111111111 111111111111 111111111111 111111111111 111111111111 111111111111 25.938 42.046 999.12 158049 25 15 13 59 51 4 $GNGGA,135817.00,4333.68920,N,00128.73881,E,1,04,4.26,162.1,M,53.8,M,,*49
158 13 58 18 4333.6892900128.73903162.3ó 00128.73903 162.3 11111111 11111111 11111111 11111111 11111111 11111111 11111111 11111111 11111111 111111111111 111111111111 111111111111 111111111111 111111111111 111111111111 111111111111 111111111111 111111111111 26.000 42.046 999.12 159046 24 14 13 59 51 4 $GNGGA,135818.00,4333.68929,N,00128.73903,E,1,04,4.26,162.3,M,53.8,M,,*46
159 13 58 19 4333.6895700128.73950163.0ó 00128.73950 163.0 11111111 11111111 11111111 11111111 11111111 11111111 11111111 11111111 11111111 111111111111 111111111111 111111111111 111111111111 111111111111 111111111111 111111111111 111111111111 111111111111 26.000 42.054 999.13 160048 23 15 13 58 51 5 $GNGGA,135819.00,4333.68957,N,00128.73950,E,1,04,4.26,163.0,M,53.8,M,,*4A
160 13 58 20 4333.6896600128.73973163.5ó 00128.73973 163.5 11111111 11111111 11111111 11111111 11111111 11111111 11111111 11111111 11111111 111111111111 111111111111 111111111111 111111111111 111111111111 111111111111 111111111111 111111111111 111111111111 26.000 42.069 999.12 161047 24 15 14 60 51 3 $GNGGA,135820.00,4333.68966,N,00128.73973,E,1,04,4.26,163.5,M,53.8,M,,*46
161 13 58 21 4333.6898400128.74005164.1ó 00128.74005 164.1 11111111 11111111 11111111 11111111 11111111 11111111 11111111 11111111 11111111 111111111111 111111111111 111111111111 111111111111 111111111111 111111111111 111111111111 111111111111 111111111111 26.000 42.084 999.12 162045 24 14 14 59 50 4 $GNGGA,135821.00,4333.68984,N,00128.74005,E,1,04,4.26,164.1,M,53.8,M,,*47
162 13 58 22 4333.6899100128.74013164.4ó 00128.74013 164.4 11111111 11111111 11111111 11111111 11111111 11111111 11111111 11111111 11111111 111111111111 111111111111 111111111111 111111111111 111111111111 111111111111 111111111111 111111111111 111111111111 26.000 42.077 999.12 163045 24 15 14 60 51 3 $GNGGA,135822.00,4333.68991,N,00128.74013,E,1,04,4.26,164.4,M,53.8,M,,*42
163 13 58 23 4333.6897900128.73986164.2ó 00128.73986 164.2 11111111 11111111 11111111 11111111 11111111 11111111 11111111 11111111 11111111 111111111111 111111111111 111111111111 111111111111 111111111111 111111111111 111111111111 111111111111 111111111111 26.000 42.069 999.13 164043 23 14 14 58 51 4 $GNGGA,135823.00,4333.68979,N,00128.73986,E,1,04,4.26,164.2,M,53.8,M,,*41
164 13 58 24 4333.6899300128.73944164.8ó 00128.73944 164.8 11111111 11111111 11111111 11111111 11111111 11111111 11111111 11111111 11111111 111111111111 111111111111 111111111111 111111111111 111111111111 111111111111 111111111111 111111111111 111111111111 25.938 42.046 999.13 165042 25 15 13 59 51 4 $GNGGA,135824.00,4333.68993,N,00128.73944,E,1,04,4.26,164.8,M,53.8,M,,*46
165 13 58 25 4333.6900600128.73955165.1ó 00128.73955 165.1 11111111 11111111 11111111 11111111 11111111 11111111 11111111 11111111 11111111 111111111111 111111111111 111111111111 111111111111 111111111111 111111111111 111111111111 111111111111 111111111111 25.938 42.008 999.13 166041 24 15 14 60 51 3 $GNGGA,135825.00,4333.69006,N,00128.73955,E,1,05,2.09,165.1,M,53.8,M,,*41
166 13 58 26 4333.6890100128.73836163.2ó 00128.73836 163.2 11111111 11111111 11111111 11111111 11111111 11111111 11111111 11111111 11111111 111111111111 111111111111 111111111111 111111111111 111111111111 111111111111 111111111111 111111111111 111111111111 25.938 42.054 999.13 167041 24 15 14 59 50 4 $GNGGA,135826.00,4333.68901,N,00128.73836,E,1,05,2.09,163.2,M,53.8,M,,*4C
167 13 58 27 4333.6885700128.73810162.4ó 00128.73810 162.4 11111111 11111111 11111111 11111111 11111111 11111111 11111111 11111111 11111111 111111111111 111111111111 111111111111 111111111111 111111111111 111111111111 111111111111 111111111111 111111111111 25.938 42.100 999.13 168040 25 14 13 60 50 4 $GNGGA,135827.00,4333.68857,N,00128.73810,E,1,05,2.09,162.4,M,53.8,M,,*4C
168 13 58 28 4333.6877700128.73719161.4ó 00128.73719 161.4 11111111 11111111 11111111 11111111 11111111 11111111 11111111 11111111 11111111 111111111111 111111111111 111111111111 111111111111 111111111111 111111111111 111111111111 111111111111 111111111111 25.938 42.176 999.13 169039 23 15 15 59 51 3 $GNGGA,135828.00,4333.68777,N,00128.73719,E,1,05,2.09,161.4,M,53.8,M,,*4B
169 13 58 29 4333.6870200128.73698160.3ó 00128.73698 160.3 11111111 11111111 11111111 11111111 11111111 11111111 11111111 11111111 11111111 111111111111 111111111111 111111111111 111111111111 111111111111 111111111111 111111111111 111111111111 111111111111 25.938 42.344 999.13 170038 25 15 13 59 51 4 $GNGGA,135829.00,4333.68702,N,00128.73698,E,1,05,2.09,160.3,M,53.8,M,,*46
170 13 58 30 4333.6863300128.73614159.5ó 00128.73614 159.5 11111111 11111111 11111111 11111111 11111111 11111111 11111111 11111111 11111111 111111111111 111111111111 111111111111 111111111111 111111111111 111111111111 111111111111 111111111111 111111111111 25.938 42.382 999.13 171037 24 15 14 60 51 3 $GNGGA,135830.00,4333.68633,N,00128.73614,E,1,05,2.09,159.5,M,53.8,M,,*45
171 13 58 31 4333.6853500128.73514158.0ó 00128.73514 158.0 11111111 11111111 11111111 11111111 11111111 11111111 11111111 11111111 11111111 111111111111 111111111111 111111111111 111111111111 111111111111 111111111111 111111111111 111111111111 111111111111 25.938 42.382 999.13 172038 23 16 14 59 52 3 $GNGGA,135831.00,4333.68535,N,00128.73514,E,1,05,2.09,158.0,M,53.8,M,,*46
172 13 58 32 4333.6852700128.73523157.9ó 00128.73523 157.9 11111111 11111111 11111111 11111111 11111111 11111111 11111111 11111111 11111111 111111111111 111111111111 111111111111 111111111111 111111111111 111111111111 111111111111 111111111111 111111111111 25.938 42.382 999.14 173036 24 15 14 60 51 3 $GNGGA,135832.00,4333.68527,N,00128.73523,E,1,05,2.09,157.9,M,53.8,M,,*44
173 13 58 33 4333.6856800128.73620158.1ó 00128.73620 158.1 11111111 11111111 11111111 11111111 11111111 11111111 11111111 11111111 11111111 111111111111 111111111111 111111111111 111111111111 111111111111 111111111111 111111111111 111111111111 111111111111 25.938 42.214 999.14 174036 23 15 15 59 51 3 $GNGGA,135833.00,4333.68568,N,00128.73620,E,1,05,2.09,158.1,M,53.8,M,,*49
174 13 58 34 4333.6862200128.73714158.7ó 00128.73714 158.7 11111111 11111111 11111111 11111111 11111111 11111111 11111111 11111111 11111111 111111111111 111111111111 111111111111 111111111111 111111111111 111111111111 111111111111 111111111111 111111111111 25.938 42.008 999.14 175034 24 14 13 59 51 4 $GNGGA,135834.00,4333.68622,N,00128.73714,E,1,05,2.09,158.7,M,53.8,M,,*43
175 13 58 35 4333.6862800128.73723158.7ó 00128.73723 158.7 11111111 11111111 11111111 11111111 11111111 11111111 11111111 11111111 11111111 111111111111 111111111111 111111111111 111111111111 111111111111 111111111111 111111111111 111111111111 111111111111 25.938 41.916 999.12 176031 23 14 14 58 51 4 $GNGGA,135835.00,4333.68628,N,00128.73723,E,1,04,4.26,158.7,M,53.8,M,,*46
176 13 58 36 4333.6863200128.73730158.5ó 00128.73730 158.5 11111111 11111111 11111111 11111111 11111111 11111111 11111111 11111111 11111111 111111111111 111111111111 111111111111 111111111111 111111111111 111111111111 111111111111 111111111111 111111111111 25.938 41.726 999.13 177029 24 15 13 59 50 5 $GNGGA,135836.00,4333.68632,N,00128.73730,E,1,04,4.26,158.5,M,53.8,M,,*4E
177 13 58 37 4333.6863600128.73742158.4ó 00128.73742 158.4 11111111 11111111 11111111 11111111 11111111 11111111 11111111 11111111 11111111 111111111111 111111111111 111111111111 111111111111 111111111111 111111111111 111111111111 111111111111 111111111111 25.938 41.947 999.13 178030 24 14 13 60 51 4 $GNGGA,135837.00,4333.68636,N,00128.73742,E,1,04,4.26,158.4,M,53.8,M,,*4F
178 13 58 38 4333.6863700128.73744158.2ó 00128.73744 158.2 11111111 11111111 11111111 11111111 11111111 11111111 11111111 11111111 11111111 111111111111 111111111111 111111111111 111111111111 111111111111 111111111111 111111111111 111111111111 111111111111 25.938 41.916 999.13 179028 23 14 14 58 51 4 $GNGGA,135838.00,4333.68637,N,00128.73744,E,1,04,4.26,158.2,M,53.8,M,,*41
179 13 58 39 4333.6863400128.73740157.9ó 00128.73740 157.9 11111111 11111111 11111111 11111111 11111111 11111111 11111111 11111111 11111111 111111111111 111111111111 111111111111 111111111111 111111111111 111111111111 111111111111 111111111111 111111111111 26.000 41.848 999.13 180027 25 14 13 60 50 4 $GNGGA,135839.00,4333.68634,N,00128.73740,E,1,04,4.26,157.9,M,53.8,M,,*43
