id HH MM SS longitude latitude altitude adc_1_ch0 adc_1_ch1 adc_1_ch2 adc_1_ch3 adc_1_ch4 adc_1_ch5 adc_1_ch6 adc_1_ch7 adc_1_ch8 adc_2_ch0 adc_2_ch1 adc_2_ch2 adc_2_ch3 adc_2_ch4 adc_2_ch5 adc_2_ch6 adc_2_ch7 adc_2_ch8 temp hum pres t_prog t_gps t_split t_adc t_temp t_hum t_pres trame_gga
1 Nan Nan Nan Nan Nan Nan 110110 1110111 11111111 110110 1110111 11111111 110110 1110111 11111111 1101100111 100 1101101 100 1101001 111111111111 111111111111 111111111111 1 25.813 43.168 795.83 3218 22 4 10 60 51 3 $GNGGA,,,,,,0,00,99.9,,,,,,*6F
2 Nan Nan Nan Nan Nan Nan 110110 1110111 11111111 110110 1110111 11111111 110110 1110111 11111111 1101100111 100 1101101 100 1100100 111111111111 111111111111 111111111111 1 25.813 43.435 998.95 4217 20 4 11 59 51 3 $GNGGA,,,,,,0,00,99.9,,,,,,*6F
3 Nan Nan Nan Nan Nan Nan 110110 1110111 11111111 110110 1110111 11111111 110110 1110111 11111111 1101100111 100 1101100 100 100011110 111111111111 111111111111 111111111111 1 25.813 44.014 998.97 5216 20 4 10 58 52 4 $GNGGA,,,,,,0,00,99.9,,,,,,*6F
4 Nan Nan Nan Nan Nan Nan 110110 1110111 11111111 110110 1110111 11111111 110110 1110111 11111111 1101100111 100 1101100 100 111100011 111111111111 111111111111 111111111111 1 25.813 44.144 998.97 6215 22 4 10 60 51 3 $GNGGA,,,,,,0,00,99.9,,,,,,*6F
5 Nan Nan Nan Nan Nan Nan 110110 1010111 11111111 110110 1110111 11111111 110110 1110111 11111111 1101100111 100 1101001 100 1001010101 111111111111 111111111111 111111111111 1 25.813 44.167 998.97 7215 21 4 9 58 51 5 $GNGGA,,,,,,0,00,99.9,,,,,,*6F
6 Nan Nan Nan Nan Nan Nan 110110 1110111 11111111 110110 1110111 11111111 110110 1110111 11111111 1101100111 100 1100111 100 1010011101 111111111111 111111111111 111111111111 1 25.813 43.885 998.96 8213 21 4 10 59 51 4 $GNGGA,,,,,,0,00,99.9,,,,,,*6F
7 Nan Nan Nan Nan Nan Nan 110110 1110111 11111111 110110 1110111 11111111 110110 1110111 11111111 1101100111 100 1100101 100 1011001000 111111111111 111111111111 111111111111 1 25.813 43.572 998.96 9212 20 5 11 59 50 4 $GNGGA,,,,,,0,00,99.9,,,,,,*6F
8 Nan Nan Nan Nan Nan Nan 110110 1110111 11111111 110110 1110111 11111111 110110 1110111 11111111 1101100111 100 1111111 100 1011101011 111111111111 111111111111 111111111111 1 25.813 43.366 998.95 10212 21 4 10 60 51 3 $GNGGA,,,,,,0,00,99.9,,,,,,*6F
9 Nan Nan Nan Nan Nan Nan 110110 1110111 11111111 110110 1110111 11111111 110110 1110111 11111111 1101100111 100 11100101 11 1100000011 111111111111 111111111111 111111111111 1 25.813 43.191 998.95 11211 21 4 10 59 51 3 $GNGGA,,,,,,0,00,99.9,,,,,,*6F
10 Nan Nan Nan Nan Nan Nan 110110 1110111 11111111 110110 1110111 11111111 110110 1110111 11111111 1101100111 1101 101000101 100 1100010101 111111111111 110011110011 111111111111 1 25.813 43.046 998.96 12210 20 4 10 59 51 4 $GNGGA,,,,,,0,00,99.9,,,,,,*6F
11 Nan Nan Nan Nan Nan Nan 110110 1110111 11111111 110110 1110111 11111111 110110 1110111 11111111 1101100111 1111010 110010000 100 1100100010 101110111111 101001100101 111111111111 1 25.813 42.954 998.96 13210 22 4 10 59 51 3 $GNGGA,,,,,,0,00,99.9,,,,,,*6F
12 Nan Nan Nan Nan Nan Nan 110110 1100000 0 110110 1110111 11111111 110110 1110111 11111111 1101100111 11010000 111001011 110 1100110010 100110100101 100011010010 111111111111 1 25.813 43.000 998.96 14210 20 6 11 59 51 3 $GNGGA,,,,,,0,00,99.9,,,,,,*6F
13 Nan Nan Nan Nan Nan Nan 110110 1110111 11111111 110110 1110111 11111111 110110 1110111 11111111 1101100111 100010110 111111101 10000001 1100111101 100001100001 11111001001 111111111111 1 25.813 43.023 998.96 15207 22 4 10 60 50 4 $GNGGA,,,,,,0,00,99.9,,,,,,*6F
14 Nan Nan Nan Nan Nan Nan 110110 1110111 11111111 110110 1110111 11111111 110110 1110111 11111111 1101100111 101001101 1000100100 11101010 1101000100 11101111011 11100001100 111111111111 1 25.813 43.030 998.97 16207 21 4 10 58 51 4 $GNGGA,,,,,,0,00,99.9,,,,,,*6F
15 Nan Nan Nan Nan Nan Nan 110110 1110111 11111111 110110 1110111 11111111 110110 1110111 11111111 1101100111 101110110 1000111011 101001101 1101010000 11011011001 11010001001 111111111111 1 25.813 43.030 998.97 17207 21 4 10 59 52 3 $GNGGA,,,,,,0,00,99.9,,,,,,*6F
16 Nan Nan Nan Nan Nan Nan 110110 1110111 11111111 110110 1110111 11111111 110110 1110111 11111111 1101100111 110100000 1001011011 110010011 1101010111 11001100000 11000100000 111111111111 1 25.813 43.099 998.96 18206 22 5 10 60 50 4 $GNGGA,,,,,,0,00,99.9,,,,,,*6F
17 Nan Nan Nan Nan Nan Nan 110110 1110111 11111111 110110 1110111 11111111 110110 1110111 11111111 1101100111 110111010 1001101010 111001001 1101011100 10111111001 10111001001 111111111111 1 25.813 43.099 998.96 19204 21 4 10 59 51 4 $GNGGA,,,,,,0,00,99.9,,,,,,*6F
18 Nan Nan Nan Nan Nan Nan 110110 1110111 11111111 110110 1110111 11111111 110110 1110111 11111111 1101100111 111001111 1001111010 1000000000 1101100011 10110101101 10110000111 111111111111 1 25.813 43.030 998.96 20203 22 4 10 60 51 3 $GNGGA,,,,,,0,00,99.9,,,,,,*6F
19 Nan Nan Nan Nan Nan Nan 110110 1110111 11111111 110110 1110111 11111111 110110 1110111 11111111 1101100110 111100011 1010000110 1000110011 1101101011 10101111000 10101010100 111100001010 1 25.813 43.015 998.96 21202 21 4 11 59 51 3 $GNGGA,,,,,,0,00,99.9,,,,,,*6F
20 Nan Nan Nan Nan Nan Nan 110110 1110111 11111111 110110 1110111 11111111 110110 1110111 11111111 1101100111 111110101 1010010011 1001001110 1101101011 10100111101 10100101000 111000010101 1 25.875 43.000 998.95 22201 22 4 10 60 51 3 $GNGGA,,,,,,0,00,99.9,,,,,,*6F
21 Nan Nan Nan Nan Nan Nan 110110 1110111 11111111 110110 1100000 0 110110 1110111 11111111 1101100111 1000000011 1010011100 1001111010 1101110101 10100010011 10100000111 110100111000 1 25.813 43.007 998.95 23200 22 4 9 58 51 4 $GNGGA,,,,,,0,00,99.9,,,,,,*6F
22 Nan Nan Nan Nan Nan Nan 110110 1110111 11111111 110110 1110111 11111111 110110 1110111 11111111 1101100111 1000010000 1010100110 1010010001 1101111000 10011101101 10011101000 110001110010 1 25.813 43.000 998.94 24199 21 4 9 58 52 4 $GNGGA,,,,,,0,00,99.9,,,,,,*6F
23 14 27 21 Nan Nan Nan 110110 1110111 11111111 110110 1110111 11111111 110110 1110111 11111111 1101100111 1000011111 1010110000 1010110101 1110000000 10011001011 10011001000 101111000001 1 25.813 43.000 998.95 25218 21 8 12 59 51 3 $GNGGA,142721.28,,,,,0,00,99.9,,,,,,*48
24 14 27 22 Nan Nan Nan 110110 1110111 11111111 110110 1100000 0 110110 1110111 11111111 1101100111 1000100111 1010110101 1010110110 1101111000 10010110001 10010110010 101101000101 1 25.813 43.053 998.95 25928 22 6 10 60 50 4 $GNGGA,142722.00,,,,,0,00,99.9,,,,,,*41
25 14 27 23 Nan Nan Nan 110110 10100000 0 110110 1110111 11111111 110110 1110111 11111111 1101100110 1000101110 1010111001 1011010101 1110000010 10010011001 10010011111 101010111000 1 25.875 43.038 998.95 26928 21 7 10 58 51 5 $GNGGA,142723.00,,,,,0,00,99.9,,,,,,*40
26 14 27 24 Nan Nan Nan 110110 1110111 11111111 110110 1100000 0 110110 1110111 11111111 1101100111 1000110100 1010111110 1011110111 1110010010 10001111011 10010000110 101000100110 1 25.875 44.022 998.96 28085 21 7 11 59 52 3 $GNGGA,142724.00,,,,,0,00,99.9,,,,,,*47
27 14 27 25 Nan Nan Nan 110110 1100000 0 110110 1000000 0 110110 1010111 11111111 1101100111 1000111010 1010111100 1100000110 1110010101 10001101100 10001110010 100110111110 1 25.875 44.617 998.96 28925 21 6 11 59 50 4 $GNGGA,142725.00,,,,,0,00,99.9,,,,,,*46
28 14 27 26 Nan Nan Nan 110110 10000000 0 110110 10000000 0 110110 1010111 11111111 1101100110 1001001001 1011001001 1100011111 1110011000 10001010100 10001100111 100101011001 1 25.875 44.953 998.97 29927 22 6 10 60 50 4 $GNGGA,142726.00,,,,,0,00,99.9,,,,,,*45
29 14 27 27 Nan Nan Nan 110110 1100000 0 110110 1110111 11111111 110110 1110111 11111111 1101100111 1001001100 1011001000 1100111111 1110101101 1110000001 1111001010 100011110101 1 25.875 45.144 998.96 30924 21 7 11 59 51 3 $GNGGA,142727.00,,,,,0,00,99.9,,,,,,*44
30 14 27 28 Nan Nan Nan 110110 1110111 11111111 110110 1110111 11111111 110110 1100000 0 1101100110 1001010100 1011001110 1100101001 1110011011 10010100100 10010110101 100010100000 0 25.813 45.411 998.96 31935 22 7 11 60 51 3 $GNGGA,142728.00,,,,,0,00,99.9,,,,,,*4B
31 14 27 28 Nan Nan Nan 110110 1100000 0 110110 1110111 11111111 110110 1100000 0 1101100110 1001010110 1011010001 1100101011 1110100000 10010001001 10010010110 100001110010 1 25.813 45.357 998.97 32451 21 7 11 60 51 3 $GNGGA,142728.50,,,,,0,00,4.48,,,,,,*4F
32 14 27 29 Nan Nan Nan 110110 1110111 11111111 110110 1110111 11111111 110110 1110111 11111111 1101100101 1001011001 1011010011 1100101110 1110011010 10001101000 10001110111 100001001101 1 25.875 45.220 998.96 32935 21 7 12 59 51 3 $GNGGA,142729.00,,,,,0,00,4.48,,,,,,*4B
33 14 27 30 Nan Nan Nan 110110 1100000 0 110110 10000000 0 110110 1100000 0 1101100111 1001011111 1011010011 1100110100 1110100011 10001001001 10001011010 100000001011 1 25.813 44.945 998.97 33936 21 7 11 60 51 3 $GNGGA,142730.00,,,,,0,00,4.48,,,,,,*43
34 14 27 31 Nan Nan Nan 110110 10000000 0 110110 10000000 0 110110 1110111 11111111 1101100110 1001100100 1011010101 1100110101 1110100000 10000101110 10001000101 11111000010 1 25.813 44.709 998.96 34950 20 6 11 59 51 4 $GNGGA,142731.00,,,,,0,00,3.80,,,,,,*41
35 14 27 32 Nan Nan Nan 110110 10000000 0 110110 1110111 11111111 110110 1110111 11111111 1101100111 1001101000 1011011011 1101001010 1110101101 10000011101 10000110001 11101111001 1 25.813 44.335 998.96 35931 20 7 11 59 50 5 $GNGGA,142732.00,,,,,0,00,3.80,,,,,,*42
36 14 27 33 Nan Nan Nan 110110 1110111 11111111 110110 1110111 11111111 110110 1110111 11111111 1101100111 1001101000 1011010111 1100111001 1110100010 10000000101 10000011011 11101010010 1 25.813 43.709 998.96 36924 22 7 11 60 51 3 $GNGGA,142733.00,,,,,0,00,3.80,,,,,,*43
37 14 27 34 Nan Nan Nan 110110 1110111 11111111 110110 1110111 11111111 110110 1110111 11111111 1101100111 1001101101 1011011110 1100111101 1110101000 10000000000 10000010111 11100100001 1 25.875 43.534 998.96 37923 21 7 12 59 51 3 $GNGGA,142734.00,,,,,0,00,3.80,,,,,,*44
38 14 27 35 Nan Nan Nan 110110 1110111 11111111 110110 1110111 11111111 110110 1110111 11111111 1101100111 1001110010 1011011111 1101010000 1110101101 1111110101 10000010011 11011100111 1 25.813 44.083 998.97 38922 21 6 11 59 51 4 $GNGGA,142735.00,,,,,0,00,3.80,,,,,,*45
39 14 27 36 Nan Nan Nan 110110 1110111 11111111 110110 1110111 11111111 110110 1110111 11111111 1101100111 1001110101 1011100011 1101001110 1110101110 1111101000 10000000110 11010111110 1 25.813 44.114 998.97 39921 22 7 11 60 51 3 $GNGGA,142736.00,,,,,0,00,3.80,,,,,,*46
40 14 27 37 Nan Nan Nan 110110 1110111 11111111 110110 1110111 11111111 110110 1110111 11111111 1101100111 1001111010 1011100010 1101001100 1110110010 1111100000 1111111001 11010010110 1 25.813 43.969 998.97 40922 21 8 11 59 51 4 $GNGGA,142737.00,,,,,0,00,3.80,,,,,,*47
41 14 27 38 Nan Nan Nan 110110 1110111 11111111 110110 1110111 11111111 110110 1110111 11111111 1101100111 1001111101 1011101000 1101100000 1110111010 1111011101 1111111111 11001101100 1 25.813 43.709 998.99 41919 22 7 11 60 51 3 $GNGGA,142738.00,,,,,0,00,3.80,,,,,,*48
42 14 27 39 Nan Nan Nan 110110 1110111 11111111 110110 1110111 11111111 110110 1110111 11111111 1101100111 1001111101 1011100111 1101010111 1110110111 1111011011 1111111001 11001001110 1 25.813 43.572 998.97 42917 21 6 11 59 50 4 $GNGGA,142739.00,,,,,0,00,3.80,,,,,,*49
43 14 27 40 Nan Nan Nan 110110 1110111 11111111 110110 1110111 11111111 110110 1110111 11111111 1101100111 1001111111 1011101000 1101010110 1110110110 1111010101 1111110011 11000110011 1 25.813 43.152 998.97 43919 21 7 11 60 50 4 $GNGGA,142740.00,,,,,0,00,5.12,,,,,,*4A
44 14 27 41 Nan Nan Nan 110110 1110111 11111111 110110 1110111 11111111 110110 1110111 11111111 1101100111 1010000011 1011101001 1101011110 1110111100 1111001100 1111100110 11000001101 1 25.813 42.809 998.97 44916 21 7 11 59 51 3 $GNGGA,142741.00,,,,,0,00,5.13,,,,,,*4A
45 14 27 42 Nan Nan Nan 110110 1110111 11111111 110110 1110111 11111111 110110 1110111 11111111 1101100111 1010000011 1011101001 1101101001 1111000001 1111000111 1111100111 10111110010 1 25.813 42.611 998.98 45915 21 7 10 59 50 5 $GNGGA,142742.00,,,,,0,00,5.13,,,,,,*49
46 14 27 43 Nan Nan Nan 110110 1110111 11111111 110110 1110111 11111111 110110 1110111 11111111 1101100111 1010001000 1011101100 1101100000 1110111110 1111000100 1111100101 10111011111 1 25.813 42.496 998.97 46914 22 6 10 60 50 4 $GNGGA,142743.00,,,,,0,00,5.14,,,,,,*4F
47 14 27 44 Nan Nan Nan 110110 1110111 11111111 110110 1110111 11111111 110110 1110111 11111111 1101100111 1010001010 1011101110 1101101111 1111000100 1110111010 1111011100 10111000100 1 25.938 42.412 998.99 47939 22 7 10 59 51 4 $GNGGA,142744.00,,,,,0,00,5.14,,,,,,*48
48 14 27 45 Nan Nan Nan 110110 1110111 11111111 110110 1110111 11111111 110110 1110111 11111111 1101100111 1010001111 1011101111 1101110101 1111000100 1110110001 1111010111 10110110010 1 25.813 42.389 999.00 48911 22 7 11 60 51 3 $GNGGA,142745.00,,,,,0,00,3.80,,,,,,*42
49 14 27 46 4333.6995300128.72684169.1ó 00128.72684 169.1 110110 1110111 11111111 110110 10100000 0 110110 1110111 11111111 1101100111 1010001101 1011101110 1101110000 1111000111 1110110110 1111011011 10110011011 1 25.875 42.473 998.99 49920 21 15 14 59 50 4 $GNGGA,142746.00,4333.69953,N,00128.72684,E,1,04,3.80,169.1,M,53.8,M,,*4D
50 14 27 47 4333.6996800128.72737167.7ó 00128.72737 167.7 110110 1110111 11111111 110110 1110111 11111111 110110 1110111 11111111 1101100111 1010010000 1011101100 1101101111 1111000111 1110110000 1111010011 10110000110 1 25.813 42.954 998.98 50920 21 15 14 60 51 3 $GNGGA,142747.00,4333.69968,N,00128.72737,E,1,04,3.80,167.7,M,53.8,M,,*45
51 14 27 48 4333.6979100128.72689166.3ó 00128.72689 166.3 110110 1110111 11111111 110110 1110111 11111111 110110 1110111 11111111 1101100111 1010010111 1011110010 1101111000 1111001010 1110101100 1111001101 10101110000 1 25.875 43.175 998.98 51919 20 15 15 59 51 3 $GNGGA,142748.00,4333.69791,N,00128.72689,E,1,04,3.80,166.3,M,53.8,M,,*43
52 14 27 49 4333.6943100128.72573165.4ó 00128.72573 165.4 110110 1110111 11111111 110110 1110111 11111111 110110 1110111 11111111 1101100111 1010010111 1011110010 1101111101 1111001111 1110100110 1111001101 10101101011 1 25.875 43.175 998.98 52917 20 16 14 59 52 3 $GNGGA,142749.00,4333.69431,N,00128.72573,E,1,04,3.80,165.4,M,53.8,M,,*49
53 14 27 50 4333.6936300128.72575164.6ó 00128.72575 164.6 110110 1110111 11111111 110110 1110111 11111111 110110 1110111 11111111 1101100111 1010011001 1011110101 1110000010 1111010000 1110100001 1111001010 10101100110 1 25.875 43.236 998.99 53917 21 15 14 60 50 4 $GNGGA,142750.00,4333.69363,N,00128.72575,E,1,04,3.80,164.6,M,53.8,M,,*44
54 14 27 51 4333.6912300128.72494163.6ó 00128.72494 163.6 110110 1110111 11111111 110110 1110111 11111111 110110 1110111 11111111 1101100111 1010011110 1011110110 1110001110 1111010010 1110011100 1111000111 10101010011 1 25.875 43.252 998.99 54916 21 15 13 59 50 5 $GNGGA,142751.00,4333.69123,N,00128.72494,E,1,04,3.80,163.6,M,53.8,M,,*4A
55 14 27 52 4333.6905000128.72539162.5ó 00128.72539 162.5 110110 1110111 11111111 110110 1110111 11111111 110110 1110111 11111111 1101100111 1010011100 1011110011 1110001011 1111010010 1110011011 1111000110 10101001111 1 25.875 43.206 998.99 55915 22 15 14 60 51 3 $GNGGA,142752.00,4333.69050,N,00128.72539,E,1,04,3.80,162.5,M,53.8,M,,*48
56 14 27 53 4333.6883600128.72455161.8ó 00128.72455 161.8 110110 1110111 11111111 110110 1110111 11111111 110110 1110111 11111111 1101100111 1010011100 1011110001 1110000000 1111001111 1110010011 1110111011 10101001000 1 25.875 43.023 998.98 56914 20 15 15 59 51 3 $GNGGA,142753.00,4333.68836,N,00128.72455,E,1,04,3.80,161.8,M,53.8,M,,*45
57 14 27 54 4333.6880800128.72497161.2ó 00128.72497 161.2 110110 1110111 11111111 110110 1110111 11111111 110110 1110111 11111111 1101100111 1010100100 1011110110 1110010000 1111011001 1110010101 1111000000 10100111110 1 25.875 42.916 998.97 57914 21 15 14 60 51 3 $GNGGA,142754.00,4333.68808,N,00128.72497,E,1,04,3.80,161.2,M,53.8,M,,*4B
58 14 27 55 4333.6868400128.72440160.2ó 00128.72440 160.2 110110 1110111 11111111 110110 1110111 11111111 110110 1110111 11111111 1101100111 1010100000 1011110100 1110010001 1111011010 1110010000 1110111011 10100111001 1 25.938 42.893 998.97 58912 20 15 15 59 51 3 $GNGGA,142755.00,4333.68684,N,00128.72440,E,1,04,3.80,160.2,M,53.8,M,,*4B
59 14 27 56 4333.6868200128.72526160.1ó 00128.72526 160.1 110110 1110111 11111111 110110 1110111 11111111 110110 1110111 11111111 1101101001 1010100010 1011110100 1110001011 1111010110 1110001011 1110111001 10100101111 1 25.875 42.977 998.98 59912 20 16 14 59 52 3 $GNGGA,142756.00,4333.68682,N,00128.72526,E,1,04,3.80,160.1,M,53.8,M,,*4C
60 14 27 57 4333.6875300128.72573161.4ó 00128.72573 161.4 110110 1110111 11111111 110110 1110111 11111111 110110 1110111 11111111 1101100111 1010101000 1011111100 1110010011 1111011001 1110001011 1110110111 10100110110 1 25.875 43.191 998.98 60909 22 14 13 60 50 4 $GNGGA,142757.00,4333.68753,N,00128.72573,E,1,03,4.47,161.4,M,53.8,M,,*4F
61 14 27 58 4333.6877500128.72573161.4ó 00128.72573 161.4 110110 1110111 11111111 110110 1110111 11111111 110110 1110111 11111111 1101100111 1010100100 1011110100 1110010100 1111011011 1110001110 1110111010 10100101101 1 25.813 43.229 998.98 61910 20 16 15 59 51 3 $GNGGA,142758.00,4333.68775,N,00128.72573,E,1,03,4.47,161.4,M,53.8,M,,*44
62 14 27 59 4333.6879700128.72596161.3ó 00128.72596 161.3 110110 1110111 11111111 110110 1110111 11111111 110110 1110111 11111111 1101100111 1010101010 1011111001 1110010110 1111011100 1110001000 1110110111 10100100111 1 25.875 43.107 998.98 62908 22 15 13 60 50 4 $GNGGA,142759.00,4333.68797,N,00128.72596,E,1,03,4.47,161.3,M,53.8,M,,*45
63 14 28 00 4333.6882000128.72639161.2ó 00128.72639 161.2 110110 1110111 11111111 110110 1110111 11111111 110110 1110111 11111111 1101100111 1010101100 1011111011 1110011111 1111011110 1110001010 1110101111 10100100111 1 25.875 43.976 998.97 63905 21 14 14 59 50 4 $GNGGA,142800.00,4333.68820,N,00128.72639,E,1,03,4.47,161.2,M,53.8,M,,*42
64 14 28 01 4333.6920900128.72875161.0ó 00128.72875 161.0 110110 1110111 11111111 110110 1110111 11111111 110110 1110111 11111111 1101100111 1010101100 1011111011 1110100010 1111011110 1110000011 1110110000 10100100100 1 25.938 43.892 998.97 64905 21 15 13 58 52 4 $GNGGA,142801.00,4333.69209,N,00128.72875,E,1,03,4.47,161.0,M,53.8,M,,*47
65 14 28 02 4333.6899400128.72958158.8ó 00128.72958 158.8 110110 1110111 11111111 110110 1110111 11111111 110110 1110111 11111111 1101100111 1010101111 1011111011 1110101000 1111100000 1110000000 1110110101 10100100101 1 25.875 43.679 998.97 65905 22 14 13 60 50 4 $GNGGA,142802.00,4333.68994,N,00128.72958,E,1,04,2.24,158.8,M,53.8,M,,*42
66 14 28 03 4333.6889800128.72973157.5ó 00128.72973 157.5 110110 1110111 11111111 110110 1110111 11111111 110110 1110111 11111111 1101100111 1010110100 1011111101 1110100010 1111011111 1101111101 1110110011 10100101000 1 25.875 43.259 998.97 66906 20 16 14 59 51 4 $GNGGA,142803.00,4333.68898,N,00128.72973,E,1,04,2.24,157.5,M,53.8,M,,*45
67 14 28 04 4333.6879200128.73007157.2ó 00128.73007 157.2 110110 1110111 11111111 110110 1110111 11111111 110110 1110111 11111111 1101100111 1010110000 1011111100 1110100011 1111011111 1101111110 1110101111 10100100001 1 25.875 42.870 998.96 67903 22 14 13 59 51 4 $GNGGA,142804.00,4333.68792,N,00128.73007,E,1,04,2.24,157.2,M,53.8,M,,*4B
68 14 28 05 4333.6876600128.72956157.6ó 00128.72956 157.6 110110 1110111 11111111 110110 1110111 11111111 110110 1110111 11111111 1101100111 1010110011 1011111101 1110101000 1111100001 1110000011 1110101111 10100100001 1 25.875 42.634 998.96 68902 20 15 15 59 51 3 $GNGGA,142805.00,4333.68766,N,00128.72956,E,1,03,5.24,157.6,M,53.8,M,,*49
69 14 28 06 Nan Nan Nan 110110 1110111 11111111 110110 10010111 11111111 110110 1110111 11111111 1101100111 1010110100 1011111011 1110101010 1111100100 1101111010 1110101100 10100010110 1 25.875 42.588 998.96 69889 20 8 12 59 51 3 $GNGGA,142806.00,,,,,0,00,99.9,,,,,,*48
70 14 28 07 4333.6880400128.73026157.2ó 00128.73026 157.2 110110 1110111 11111111 110110 1110111 11111111 110110 1110111 11111111 1101100111 1010110111 1011111101 1110101011 1111100110 1110000001 1110101000 10100011001 1 25.938 42.626 998.95 70899 21 15 14 60 51 3 $GNGGA,142807.00,4333.68804,N,00128.73026,E,1,03,14.9,157.2,M,53.8,M,,*44
71 14 28 08 4333.6880200128.73102157.1ó 00128.73102 157.1 110110 1110111 11111111 110110 1110111 11111111 110110 1110111 11111111 1101100111 1010110110 1011111101 1110101010 1111101101 1101110111 1110100010 10100001011 1 25.875 42.618 998.94 71900 21 15 13 58 52 4 $GNGGA,142808.00,4333.68802,N,00128.73102,E,1,03,14.8,157.1,M,53.8,M,,*48
72 14 28 09 4333.6884300128.73201157.0ó 00128.73201 157.0 110110 1110111 11111111 110110 1110111 11111111 110110 1110111 11111111 1101100111 1010110111 1011111110 1110101000 1111100101 1101111010 1110101001 10100001100 1 25.875 43.282 998.94 72898 22 15 14 60 51 3 $GNGGA,142809.00,4333.68843,N,00128.73201,E,1,03,14.8,157.0,M,53.8,M,,*4D
73 14 28 10 4333.6904800128.73444157.1ó 00128.73444 157.1 110110 1110111 11111111 110110 1110111 11111111 110110 1110111 11111111 1101100111 1010110111 1011111111 1110101001 1111101011 1101110101 1110100011 10100001001 1 25.875 43.473 998.94 73897 21 15 15 59 51 3 $GNGGA,142810.00,4333.69048,N,00128.73444,E,1,04,4.60,157.1,M,53.8,M,,*49
74 14 28 11 4333.6907000128.73543157.2ó 00128.73543 157.2 110110 1110111 11111111 110110 1110111 11111111 110110 1110111 11111111 1101100111 1010111000 1100000000 1110101000 1111101001 1101110111 1110100110 10100000110 1 25.875 43.412 998.95 74898 22 14 13 59 51 4 $GNGGA,142811.00,4333.69070,N,00128.73543,E,1,04,4.60,157.2,M,53.8,M,,*46
75 14 28 12 4333.6874100128.73106157.6ó 00128.73106 157.6 110110 1110111 11111111 110110 1100000 0 110110 1110111 11111111 1101100111 1010111110 1100000010 1110101001 1111101101 1101101101 1110011110 10011111000 1 25.938 43.397 998.96 75896 21 14 14 58 51 4 $GNGGA,142812.00,4333.68741,N,00128.73106,E,1,05,2.15,157.6,M,53.8,M,,*45
76 14 28 13 4333.6848800128.72954157.7ó 00128.72954 157.7 110110 1110111 11111111 110110 1110111 11111111 110110 1110111 11111111 1101100111 1010111010 1100000000 1110101000 1111101101 1101110001 1110011011 10011101100 1 25.938 43.511 998.96 76897 21 16 14 59 52 3 $GNGGA,142813.00,4333.68488,N,00128.72954,E,1,05,2.15,157.7,M,53.8,M,,*4D
77 14 28 14 4333.6844500128.73115157.7ó 00128.73115 157.7 110110 1110111 11111111 110110 1110111 11111111 110110 1110111 11111111 1101100111 1010111111 1100000010 1110100001 1111101011 1101110101 1110100100 10011100011 1 25.875 43.572 998.97 77894 22 14 13 59 51 4 $GNGGA,142814.00,4333.68445,N,00128.73115,E,1,05,2.15,157.7,M,53.8,M,,*47
78 14 28 15 4333.6843800128.73167157.6ó 00128.73167 157.6 110110 1110111 11111111 110110 1110111 11111111 110110 1110111 11111111 1101100111 1010111011 1100000000 1110101001 1111110011 1101101101 1110011100 10011100001 1 25.875 43.633 998.97 78893 21 15 13 59 50 5 $GNGGA,142815.00,4333.68438,N,00128.73167,E,1,05,2.15,157.6,M,53.8,M,,*48
79 14 28 16 4333.6839600128.73217157.4ó 00128.73217 157.4 110110 1110111 11111111 110110 1110111 11111111 110110 1110111 11111111 1101100111 1010111101 1100000000 1110100101 1111101110 1101110011 1110100000 10011011000 1 25.875 43.679 998.97 79893 21 15 14 60 51 3 $GNGGA,142816.00,4333.68396,N,00128.73217,E,1,05,2.15,157.4,M,53.8,M,,*4E
80 14 28 17 4333.6834400128.73210157.2ó 00128.73210 157.2 110110 1110111 11111111 110110 1110111 11111111 110110 1110111 11111111 1101100111 1011000000 1100000100 1110100001 1111101100 1101110000 1110011100 10011010101 1 25.938 43.610 998.96 80891 21 14 14 58 51 4 $GNGGA,142817.00,4333.68344,N,00128.73210,E,1,05,2.15,157.2,M,53.8,M,,*41
81 14 28 18 4333.6822900128.73104157.2ó 00128.73104 157.2 110110 1110111 11111111 110110 1110111 11111111 110110 1110111 11111111 1101100111 1010111011 1011111101 1110011101 1111110000 1101101110 1110011011 10011010000 1 25.875 43.397 998.96 81889 21 16 14 59 52 3 $GNGGA,142818.00,4333.68229,N,00128.73104,E,1,05,2.15,157.2,M,53.8,M,,*42
82 14 28 19 4333.6814200128.73033157.4ó 00128.73033 157.4 110110 1110111 11111111 110110 1110111 11111111 110110 1110111 11111111 1101100111 1010111111 1100000000 1110100010 1111110010 1101101011 1110010110 10010111110 1 25.938 43.419 998.95 82890 20 15 15 59 51 3 $GNGGA,142819.00,4333.68142,N,00128.73033,E,1,05,2.15,157.4,M,53.8,M,,*4E
83 14 28 20 4333.6820800128.73119157.5ó 00128.73119 157.5 110110 1110111 11111111 110110 1110111 11111111 110110 1110111 11111111 1101100111 1011000000 1100000011 1110110000 1111111011 1101101011 1110010101 10010110111 1 25.875 43.274 998.95 83889 21 16 13 59 50 5 $GNGGA,142820.00,4333.68208,N,00128.73119,E,1,04,4.60,157.5,M,53.8,M,,*44
84 14 28 21 4333.6824100128.73127156.7ó 00128.73127 156.7 110110 1110111 11111111 110110 1110111 11111111 110110 1110111 11111111 1101100111 1011000001 1100000011 1110100010 1111110000 1101101110 1110011000 10011000010 1 25.875 43.099 998.96 84887 22 14 14 60 51 3 $GNGGA,142821.00,4333.68241,N,00128.73127,E,1,04,4.60,156.7,M,53.8,M,,*46
85 14 28 22 4333.6817300128.73078157.0ó 00128.73078 157.0 110110 1110111 11111111 110110 1110111 11111111 110110 1110111 11111111 1101100111 1011000001 1100000100 1110100111 1111110110 1101101011 1110010101 10010111001 1 25.938 43.084 998.95 85888 20 16 15 59 51 3 $GNGGA,142822.00,4333.68173,N,00128.73078,E,1,05,2.15,157.0,M,53.8,M,,*4F
86 14 28 23 4333.6808200128.72981156.7ó 00128.72981 156.7 110110 1110111 11111111 110110 1110111 11111111 110110 1110111 11111111 1101100111 1011000000 1100000001 1110100110 1111110111 1101101011 1110011001 10010110110 1 25.938 43.091 998.96 86887 21 15 14 60 51 3 $GNGGA,142823.00,4333.68082,N,00128.72981,E,1,05,2.15,156.7,M,53.8,M,,*49
87 14 28 24 4333.6805100128.72898157.0ó 00128.72898 157.0 110110 1110111 11111111 110110 1110111 11111111 110110 1110111 11111111 1101100111 1011000010 1100000010 1110100101 1111110110 1101100011 1110010110 10010111010 1 25.938 43.099 998.97 87884 21 14 14 58 51 4 $GNGGA,142824.00,4333.68051,N,00128.72898,E,1,05,2.15,157.0,M,53.8,M,,*4F
88 14 28 25 4333.6774800128.72676155.2ó 00128.72676 155.2 110110 1110111 11111111 110110 1110111 11111111 110110 1110111 11111111 1101100111 1011000100 1100000010 1110101101 1111110100 1101100011 1110010101 10010111110 1 25.938 43.213 998.97 88885 20 16 14 59 52 3 $GNGGA,142825.00,4333.67748,N,00128.72676,E,1,05,2.15,155.2,M,53.8,M,,*40
89 14 28 26 4333.6772200128.72676155.4ó 00128.72676 155.4 110110 1110111 11111111 110110 1110111 11111111 110110 1110111 11111111 1101100111 1011000111 1100000100 1110110010 1111111000 1101011010 1110001011 10011000111 1 25.938 43.389 998.97 89883 22 14 13 59 51 4 $GNGGA,142826.00,4333.67722,N,00128.72676,E,1,05,2.15,155.4,M,53.8,M,,*49
90 14 28 27 4333.6768600128.72721154.8ó 00128.72721 154.8 110110 1110111 11111111 110110 1110111 11111111 110110 1110111 11111111 1101100111 1011000100 1100000010 1110100110 1111110101 1101011100 1110010000 10011000000 1 25.875 43.343 998.97 90883 21 16 14 59 51 4 $GNGGA,142827.00,4333.67686,N,00128.72721,E,1,05,2.15,154.8,M,53.8,M,,*49
91 14 28 28 4333.6768400128.72780154.0ó 00128.72780 154.0 110110 1110111 11111111 110110 1110111 11111111 110110 1110111 11111111 1101100111 1011001010 1100000010 1110110010 1111111001 1101011110 1110001111 10011000111 1 25.938 43.107 998.96 91881 22 15 14 60 51 3 $GNGGA,142828.00,4333.67684,N,00128.72780,E,1,05,2.15,154.0,M,53.8,M,,*47
92 14 28 29 4333.6760500128.72821152.8ó 00128.72821 152.8 110110 1110111 11111111 110110 1110111 11111111 110110 1110111 11111111 1101100111 1011001000 1100000010 1110110011 1111111001 1101011110 1110010010 10011010000 1 25.938 42.878 998.97 92878 21 14 14 59 50 4 $GNGGA,142829.00,4333.67605,N,00128.72821,E,1,05,2.15,152.8,M,53.8,M,,*45
93 14 28 30 4333.6754700128.72698157.2ó 00128.72698 157.2 110110 1110111 11111111 110110 1110111 11111111 110110 1110111 11111111 1101100111 1011001110 1100000111 1110110100 1111111000 1101010101 1110001001 10011001111 1 25.875 42.786 998.96 93879 21 16 14 59 52 3 $GNGGA,142830.00,4333.67547,N,00128.72698,E,1,03,14.1,157.2,M,53.8,M,,*4F
94 14 28 31 4333.6751500128.72714157.1ó 00128.72714 157.1 110110 1110111 11111111 110110 1110111 11111111 110110 1110111 11111111 1101100111 1011001000 1100000000 1110111100 1111111011 1101010111 1110001100 10011011011 1 25.875 42.824 998.96 94878 21 15 14 60 51 3 $GNGGA,142831.00,4333.67515,N,00128.72714,E,1,04,2.26,157.1,M,53.8,M,,*4A
95 14 28 32 4333.6762600128.72762157.1ó 00128.72762 157.1 110110 1110111 11111111 110110 1110111 11111111 110110 1110111 11111111 1101100111 1011001101 1100000100 1110111101 1111111101 1101011110 1110001100 10011010000 1 25.875 42.740 998.96 95877 21 15 13 59 50 5 $GNGGA,142832.00,4333.67626,N,00128.72762,E,1,03,14.1,157.1,M,53.8,M,,*4E
96 14 28 33 Nan Nan Nan 110110 1110111 11111111 110110 1110111 11111111 110110 1110111 11111111 1101100111 1011010000 1100000110 1111000011 1111111101 1101010101 1110001010 10011100001 1 25.875 42.725 998.96 96863 21 7 10 58 52 4 $GNGGA,142833.00,,,,,0,00,99.9,,,,,,*4E
97 14 28 34 4333.6757800128.72831157.2ó 00128.72831 157.2 110110 1110111 11111111 110110 1110111 11111111 110110 1110111 11111111 1101100111 1011001100 1100000111 1110111100 1111111110 1101011010 1110001010 10011011101 1 25.875 42.801 998.96 97875 21 14 14 58 51 4 $GNGGA,142834.00,4333.67578,N,00128.72831,E,1,03,14.0,157.2,M,53.8,M,,*4B
98 14 28 35 4333.6739200128.72486157.9ó 00128.72486 157.9 110110 1110111 11111111 110110 1110111 11111111 110110 1110111 11111111 1101100111 1011001111 1100000110 1111000110 10000000000 1101011010 1110010001 10011100001 1 25.875 42.939 998.96 98875 22 14 13 59 51 4 $GNGGA,142835.00,4333.67392,N,00128.72486,E,1,05,2.16,157.9,M,53.8,M,,*45
99 14 28 36 4333.6737900128.72368158.2ó 00128.72368 158.2 110110 1110111 11111111 110110 1110111 11111111 110110 1110111 11111111 1101101000 1011010000 1100001001 1111001100 10000000101 1101010100 1110000010 10011011100 1 25.875 42.962 998.95 99871 21 15 15 59 51 3 $GNGGA,142836.00,4333.67379,N,00128.72368,E,1,04,2.26,158.2,M,53.8,M,,*42
100 14 28 37 4333.6727400128.72154158.5ó 00128.72154 158.5 110110 1110111 11111111 110110 1110111 11111111 110110 1110111 11111111 1101100111 1011010010 1100001000 1111000011 1111111111 1101010100 1110001011 10011011111 1 25.875 42.962 998.96 100873 21 15 13 59 51 4 $GNGGA,142837.00,4333.67274,N,00128.72154,E,1,04,2.26,158.5,M,53.8,M,,*45
101 14 28 38 4333.6728200128.72126158.6ó 00128.72126 158.6 110110 1110111 11111111 110110 1110111 11111111 110110 1110111 11111111 1101100111 1011010010 1100000111 1111000010 1111111110 1101010001 1110000101 10011100101 1 25.938 43.015 998.96 101872 22 14 14 60 51 3 $GNGGA,142838.00,4333.67282,N,00128.72126,E,1,03,13.9,158.6,M,53.8,M,,*4F
102 14 28 39 4333.6727000128.72092158.7ó 00128.72092 158.7 110110 1110111 11111111 110110 1110111 11111111 110110 1110111 11111111 1101100111 1011010010 1100001000 1111001101 10000000101 1101010010 1110001000 10011100100 1 25.875 43.023 998.96 102872 20 16 15 59 51 3 $GNGGA,142839.00,4333.67270,N,00128.72092,E,1,03,13.9,158.7,M,53.8,M,,*4C
103 14 28 40 4333.6735400128.72084158.9ó 00128.72084 158.9 110110 1110111 11111111 110110 1110111 11111111 110110 1110111 11111111 1101100111 1011010000 1100001000 1111001000 10000000000 1101011000 1110001111 10011110010 1 25.875 43.191 998.97 103869 21 15 14 60 50 4 $GNGGA,142840.00,4333.67354,N,00128.72084,E,1,03,13.8,158.9,M,53.8,M,,*4D
104 14 28 41 4333.6745800128.72125159.1ó 00128.72125 159.1 110110 1110111 11111111 110110 1110111 11111111 110110 1110111 11111111 1101100111 1011010001 1100000101 1111000101 10000000011 1101010000 1110000001 10011101100 1 25.875 43.206 998.97 104868 21 14 14 58 51 4 $GNGGA,142841.00,4333.67458,N,00128.72125,E,1,04,4.61,159.1,M,53.8,M,,*4A
105 14 28 42 4333.6756300128.72169159.3ó 00128.72169 159.3 110110 1110111 11111111 110110 1110111 11111111 110110 1110111 11111111 1101100111 1011010001 1100000100 1111001010 10000000000 1101010001 1110000101 10011111001 1 25.875 43.046 998.97 105868 21 16 14 59 52 3 $GNGGA,142842.00,4333.67563,N,00128.72169,E,1,04,4.62,159.3,M,53.8,M,,*49
106 14 28 43 4333.6766500128.72270159.4ó 00128.72270 159.4 110110 1110111 11111111 110110 1110111 11111111 110110 1110111 11111111 1101100111 1011010111 1100000111 1111001111 10000000011 1101010101 1110000111 10100000001 1 25.875 42.954 998.97 106867 22 14 13 58 51 4 $GNGGA,142843.00,4333.67665,N,00128.72270,E,1,04,4.62,159.4,M,53.8,M,,*41
107 14 28 44 4333.6771900128.72377159.4ó 00128.72377 159.4 110110 1110111 11111111 110110 1110111 11111111 110110 1110111 11111111 1101100111 1011010011 1100000001 1111001101 1111111111 1101010100 1110010000 10100000101 1 25.938 43.099 998.97 107871 22 16 14 59 52 3 $GNGGA,142844.00,4333.67719,N,00128.72377,E,1,04,4.62,159.4,M,53.8,M,,*4A
108 14 28 45 4333.6763200128.72302159.6ó 00128.72302 159.6 110110 1110111 11111111 110110 1110111 11111111 110110 1110111 11111111 1101100111 1011010111 1100001010 1111001111 10000000010 1101010101 1110001101 10011111100 1 25.938 43.145 998.97 108865 21 15 14 60 51 3 $GNGGA,142845.00,4333.67632,N,00128.72302,E,1,04,4.62,159.6,M,53.8,M,,*43
109 14 28 46 4333.6746600128.72141159.8ó 00128.72141 159.8 110110 1110111 11111111 110110 1110111 11111111 110110 1110111 11111111 1101100111 1011010100 1100000101 1111010011 10000000110 1101010010 1110000110 10100000001 1 25.875 43.168 998.96 109863 21 14 14 58 51 4 $GNGGA,142846.00,4333.67466,N,00128.72141,E,1,04,4.62,159.8,M,53.8,M,,*48
110 14 28 47 4333.6760300128.72259159.9ó 00128.72259 159.9 110110 1110111 11111111 110110 1110111 11111111 110110 1110111 11111111 1101100111 1011010101 1100000111 1111010100 10000000110 1101001100 1110000110 10011111100 1 25.938 43.152 998.95 110861 22 15 13 59 51 4 $GNGGA,142847.00,4333.67603,N,00128.72259,E,1,04,4.62,159.9,M,53.8,M,,*43
111 14 28 48 4333.6767000128.72386159.9ó 00128.72386 159.9 110110 1110111 11111111 110110 1110111 11111111 110110 1110111 11111111 1101100111 1011011000 1100001010 1111010111 10000001010 1101010001 1110000010 10011111000 1 25.875 43.053 998.94 111861 21 14 14 59 50 4 $GNGGA,142848.00,4333.67670,N,00128.72386,E,1,04,4.62,159.9,M,53.8,M,,*4B
112 14 28 49 4333.6772400128.72414160.0ó 00128.72414 160.0 110110 1110111 11111111 110110 1110111 11111111 110110 1110111 11111111 1101100111 1011011010 1100001001 1111001111 10000000101 1101010000 1110000101 10011110100 1 25.875 43.030 998.94 112861 21 16 14 59 52 3 $GNGGA,142849.00,4333.67724,N,00128.72414,E,1,04,4.62,160.0,M,53.8,M,,*45
113 14 28 50 4333.6781000128.72446160.0ó 00128.72446 160.0 110110 1110111 11111111 110110 1110111 11111111 110110 1110111 11111111 1101100111 1011011000 1100001010 1111010000 10000000101 1101001101 1110001001 10011111011 1 25.875 43.046 998.94 113859 22 14 13 59 51 4 $GNGGA,142850.00,4333.67810,N,00128.72446,E,1,04,4.62,160.0,M,53.8,M,,*42
114 14 28 51 4333.6773400128.72275160.2ó 00128.72275 160.2 110110 1110111 11111111 110110 1110111 11111111 110110 1110111 11111111 1101100111 1011010111 1100000110 1111010001 10000001011 1101010100 1110001011 10100000001 1 25.875 43.076 998.95 114860 21 15 14 58 51 4 $GNGGA,142851.00,4333.67734,N,00128.72275,E,1,04,4.62,160.2,M,53.8,M,,*4E
115 14 28 52 4333.6770700128.72233160.3ó 00128.72233 160.3 110110 1110111 11111111 110110 1110111 11111111 110110 1110111 11111111 1101100111 1011011000 1100001010 1111010100 10000000111 1101010000 1110000100 10011111111 1 25.875 43.061 998.95 115858 22 14 13 59 51 4 $GNGGA,142852.00,4333.67707,N,00128.72233,E,1,03,13.5,160.3,M,53.8,M,,*4E
116 14 28 53 4333.6766900128.72149160.5ó 00128.72149 160.5 110110 1110111 11111111 110110 1110111 11111111 110110 1110111 11111111 1101100111 1011010111 1100000111 1111100111 10000010010 1101001100 1110000011 10100000001 1 25.875 43.091 998.95 116857 21 15 15 59 51 3 $GNGGA,142853.00,4333.67669,N,00128.72149,E,1,04,4.62,160.5,M,53.8,M,,*4E
117 14 28 54 4333.6747600128.71898160.8ó 00128.71898 160.8 110110 1110111 11111111 110110 1110111 11111111 110110 1110111 11111111 1101100111 1011011010 1100001010 1111010001 10000001000 1101010011 1101111111 10011111000 1 25.875 43.122 998.95 117857 22 15 13 59 51 4 $GNGGA,142854.00,4333.67476,N,00128.71898,E,1,04,4.62,160.8,M,53.8,M,,*4E
118 14 28 55 4333.6738200128.71871161.0ó 00128.71871 161.0 110110 1110111 11111111 110110 1110111 11111111 110110 1110111 11111111 1101100111 1011010111 1100000111 1111001011 10000001000 1101010001 1110001000 10011110100 1 25.875 43.603 998.94 118857 21 15 14 60 51 3 $GNGGA,142855.00,4333.67382,N,00128.71871,E,1,04,4.62,161.0,M,53.8,M,,*4D
119 14 28 56 4333.6721400128.71671161.3ó 00128.71671 161.3 110110 1110111 11111111 110110 1110111 11111111 110110 1110111 11111111 1101100111 1011011001 1100001010 1111000101 10000000111 1101010001 1110000001 10011110001 1 25.938 43.854 998.95 119857 21 16 14 59 52 3 $GNGGA,142856.00,4333.67214,N,00128.71671,E,1,05,2.16,161.3,M,53.8,M,,*49
120 14 28 57 4333.6693900128.71574161.3ó 00128.71574 161.3 110110 1110111 11111111 110110 1110111 11111111 110110 1110111 11111111 1101100111 1011011000 1100001001 1111001110 10000001010 1101010000 1110000011 10011011110 1 25.938 44.175 998.96 120856 22 14 14 60 51 3 $GNGGA,142857.00,4333.66939,N,00128.71574,E,1,05,2.17,161.3,M,53.8,M,,*4A
121 14 28 58 4333.6684800128.71547161.2ó 00128.71547 161.2 110110 1110111 11111111 110110 1110111 11111111 110110 1110111 11111111 1101100111 1011011011 1100001010 1111001011 10000001100 1101010010 1110000011 10011011001 1 25.875 44.220 998.97 121853 21 14 14 59 50 4 $GNGGA,142858.00,4333.66848,N,00128.71547,E,1,05,3.50,161.2,M,53.8,M,,*41
122 14 28 59 4333.6674400128.71470161.2ó 00128.71470 161.2 110110 1110111 11111111 110110 1110111 11111111 110110 1110111 11111111 1101100111 1011011010 1100001001 1111000001 10000001100 1101010111 1110001000 10011010000 1 25.938 43.984 998.98 122853 22 14 13 59 51 4 $GNGGA,142859.00,4333.66744,N,00128.71470,E,1,04,6.45,161.2,M,53.8,M,,*46
123 14 29 00 4333.6661200128.71371161.2ó 00128.71371 161.2 110110 1110111 11111111 110110 1110111 11111111 110110 1110111 11111111 1101100111 1011011001 1100001011 1110111111 10000001000 1101001011 1101111100 10011010011 1 25.875 43.717 998.97 123852 20 15 15 59 51 3 $GNGGA,142900.00,4333.66612,N,00128.71371,E,1,04,6.46,161.2,M,53.8,M,,*4C
124 14 29 01 4333.6649700128.71298161.1ó 00128.71298 161.1 110110 1110111 11111111 110110 1110111 11111111 110110 1110111 11111111 1101100111 1011011001 1100001011 1111000100 10000001100 1101010000 1110000011 10011001101 1 25.875 43.442 998.97 124852 21 15 14 59 52 3 $GNGGA,142901.00,4333.66497,N,00128.71298,E,1,04,6.46,161.1,M,53.8,M,,*47
125 14 29 02 4333.6640700128.71219161.1ó 00128.71219 161.1 110110 1110111 11111111 110110 1110111 11111111 110110 1110111 11111111 1101100111 1011011001 1100001000 1111000010 10000001010 1101001100 1101111101 10011000110 1 25.875 43.473 998.96 125851 22 14 13 59 51 4 $GNGGA,142902.00,4333.66407,N,00128.71219,E,1,04,6.46,161.1,M,53.8,M,,*44
126 14 29 03 4333.6635200128.71144161.1ó 00128.71144 161.1 110110 1110111 11111111 110110 1110111 11111111 110110 1110111 11111111 1101100111 1011011011 1100001100 1110111101 10000001100 1101010010 1110000001 10011000001 1 25.875 43.244 998.95 126851 21 15 14 59 51 4 $GNGGA,142903.00,4333.66352,N,00128.71144,E,1,04,6.47,161.1,M,53.8,M,,*48
127 14 29 04 4333.6634900128.71156161.1ó 00128.71156 161.1 110110 1110111 11111111 110110 1110111 11111111 110110 1110111 11111111 1101100111 1011011010 1100001011 1110111010 10000001011 1101010000 1101111111 10010110011 1 25.938 43.152 998.96 127850 22 14 13 59 51 4 $GNGGA,142904.00,4333.66349,N,00128.71156,E,1,05,3.50,161.1,M,53.8,M,,*44
128 14 29 05 4333.6634200128.71202161.2ó 00128.71202 161.2 110110 1110111 11111111 110110 1110111 11111111 110110 1110111 11111111 1101100111 1011011000 1100001100 1110111011 10000001110 1101001101 1101111111 10010101110 1 25.938 43.129 998.96 128847 21 14 14 59 50 4 $GNGGA,142905.00,4333.66342,N,00128.71202,E,1,05,3.50,161.2,M,53.8,M,,*4F
129 14 29 06 4333.6625900128.71162161.2ó 00128.71162 161.2 110110 1110111 11111111 110110 1110111 11111111 110110 1110111 11111111 1101100111 1011010111 1100001011 1110111000 10000001010 1101001011 1101111100 10010100111 1 25.938 43.091 998.95 129847 22 16 13 59 51 4 $GNGGA,142906.00,4333.66259,N,00128.71162,E,1,05,3.50,161.2,M,53.8,M,,*42
130 14 29 07 4333.6621200128.71171161.1ó 00128.71171 161.1 110110 1110111 11111111 110110 1110111 11111111 110110 1110111 11111111 1101100111 1011011001 1100001011 1110110101 10000010001 1101001000 1101111001 10010011100 1 25.938 42.969 998.96 130846 22 15 13 60 50 4 $GNGGA,142907.00,4333.66212,N,00128.71171,E,1,05,3.50,161.1,M,53.8,M,,*4D
131 14 29 08 4333.6622300128.71172161.1ó 00128.71172 161.1 110110 1110111 11111111 110110 1110111 11111111 110110 1110111 11111111 1101100111 1011010111 1100001010 1110111100 10000010000 1101001100 1101111001 10010010010 1 25.938 42.817 998.96 131844 21 15 13 59 50 5 $GNGGA,142908.00,4333.66223,N,00128.71172,E,1,03,4.45,161.1,M,53.8,M,,*46
132 14 29 09 4333.6619300128.71166161.1ó 00128.71166 161.1 110110 1110111 11111111 110110 1110111 11111111 110110 1110111 11111111 1101100111 1011011000 1100001010 1110110111 10000010000 1101010100 1110000011 10010001001 1 25.875 42.725 998.97 132841 21 15 14 60 50 4 $GNGGA,142909.00,4333.66193,N,00128.71166,E,1,03,4.44,161.1,M,53.8,M,,*4B
133 14 29 10 4333.6611700128.71160161.0ó 00128.71160 161.0 110110 1110111 11111111 110110 1110111 11111111 110110 1110111 11111111 1101100111 1011011001 1100001100 1110110001 10000001101 1101001110 1101111101 10010000110 1 25.938 42.794 998.96 133840 21 14 14 58 51 4 $GNGGA,142910.00,4333.66117,N,00128.71160,E,1,03,4.44,161.0,M,53.8,M,,*48
