id HH MM SS longitude latitude altitude adc_1_ch0 adc_1_ch1 adc_1_ch2 adc_1_ch3 adc_1_ch4 adc_1_ch5 adc_1_ch6 adc_1_ch7 adc_1_ch8 adc_2_ch0 adc_2_ch1 adc_2_ch2 adc_2_ch3 adc_2_ch4 adc_2_ch5 adc_2_ch6 adc_2_ch7 adc_2_ch8 temp hum pres t_prog t_gps t_split t_adc t_temp t_hum t_pres trame_gga
1 14 29 26 4333.6616500128.71230160.6ó 00128.71230 160.6 1101100111 1101100111 1100001101 1110101110 10000010100 1101001110 1101111101 10001001101 1 1101101111 111010010 1001000011 1010010010 1100111011 1110100011 1110000001 1110101111 1110010110 25.938 43.191 795.83 2906 16 15 13 58 51 5 $GNGGA,142926.00,4333.66165,N,00128.71230,E,1,03,4.44,160.6,M,53.8,M,,*49
2 14 29 27 4333.6615200128.71146160.6ó 00128.71146 160.6 1101100111 1101100111 1100001110 1110110111 10000010110 1101000101 1101110100 10001010010 1 1101101111 111011010 1001001000 1010010111 1100111101 1110100011 1110000001 1110110100 1110010011 25.938 43.145 998.96 3904 17 15 14 60 51 3 $GNGGA,142927.00,4333.66152,N,00128.71146,E,1,03,4.44,160.6,M,53.8,M,,*4E
3 14 29 28 4333.6612700128.71129160.6ó 00128.71129 160.6 1101100111 1101100111 1100001100 1110111000 10000010010 1101001011 1101111011 10001010011 1 1101101111 111011001 1001000111 1010100001 1100111111 1110011011 1101110110 1110101101 1110010000 25.938 43.183 998.96 4904 16 14 14 59 50 4 $GNGGA,142928.00,4333.66127,N,00128.71129,E,1,03,4.44,160.6,M,53.8,M,,*4A
4 14 29 29 4333.6615300128.71152160.5ó 00128.71152 160.5 1101100111 1101100111 1100001100 1110111010 10000011001 1101000100 1101110110 10001000110 1 1101101111 111011100 1001001011 1010100011 1101000010 1110100010 1101111010 1110101001 1110001001 25.875 43.297 998.95 5904 16 15 14 60 51 3 $GNGGA,142929.00,4333.66153,N,00128.71152,E,1,03,4.44,160.5,M,53.8,M,,*47
5 14 29 30 4333.6608800128.71161160.6ó 00128.71161 160.6 1101100111 1101100111 1100001101 1110111110 10000010101 1101000100 1101110010 10001001110 1 1101101111 111011011 1001001000 1010100010 1101000010 1110100010 1101111110 1110101001 1110001011 25.875 43.374 998.95 6902 16 15 15 59 51 3 $GNGGA,142930.00,4333.66088,N,00128.71161,E,1,03,4.44,160.6,M,53.8,M,,*4B
6 14 29 31 4333.6623700128.71289160.7ó 00128.71289 160.7 1101100111 1101100111 1100001100 1110110100 10000001101 1101000100 1101110110 10001000110 1 1101101111 111011101 1001001011 1010100100 1101000101 1110100101 1110000100 1110101001 1110001010 25.875 43.374 998.95 7902 15 16 14 59 51 4 $GNGGA,142931.00,4333.66237,N,00128.71289,E,1,03,4.44,160.7,M,53.8,M,,*48
7 14 29 32 4333.6622600128.71281160.6ó 00128.71281 160.6 1101100111 1101100111 1100001111 1110110111 10000010100 1101000110 1101110111 10001000100 1 1101101111 111100101 1001010000 1010100100 1101000111 1110100000 1101111110 1110101001 1110001000 25.875 43.343 998.96 8900 17 14 13 60 50 4 $GNGGA,142932.00,4333.66226,N,00128.71281,E,1,03,4.44,160.6,M,53.8,M,,*42
8 14 29 33 4333.6648500128.71499160.7ó 00128.71499 160.7 1101100111 1101100111 1100001001 1111000001 10000010110 1101001010 1101110111 10001001010 1 1101101111 111011110 1001001011 1010100101 1101001000 1110100101 1101111110 1110101011 1110001101 25.938 43.358 998.96 9900 16 15 14 59 50 4 $GNGGA,142933.00,4333.66485,N,00128.71499,E,1,03,4.44,160.7,M,53.8,M,,*42
9 14 29 34 4333.6639500128.71415160.6ó 00128.71415 160.6 1101100111 1101100111 1100001100 1110111010 10000010100 1101001001 1101110111 10001001010 1 1101101111 111100011 1001010000 1010101000 1101001001 1110011111 1101111101 1110011110 1110001010 25.875 43.366 998.97 10899 17 14 13 59 51 4 $GNGGA,142934.00,4333.66395,N,00128.71415,E,1,03,4.44,160.6,M,53.8,M,,*46
10 14 29 35 4333.6643900128.71568160.4ó 00128.71568 160.4 1101100111 1101100111 1100001110 1110111101 10000010101 1101000110 1101110100 10001000111 1 1101101111 111100001 1001010000 1010011111 1101001010 1110011110 1101110101 1110100001 1110000111 25.875 43.397 998.97 11899 16 15 15 59 51 3 $GNGGA,142935.00,4333.66439,N,00128.71568,E,1,03,4.44,160.4,M,53.8,M,,*4F
11 14 29 36 4333.6639400128.71535160.3ó 00128.71535 160.3 1101100111 1101100111 1100001110 1110111111 10000010110 1101001011 1101111011 10001001001 1 1101101111 111011111 1001001110 1010100011 1101001101 1110011100 1101111010 1110011010 1110000011 25.875 43.404 998.98 12898 16 15 13 59 51 4 $GNGGA,142936.00,4333.66394,N,00128.71535,E,1,03,4.44,160.3,M,53.8,M,,*43
12 14 29 37 4333.6635200128.71598160.2ó 00128.71598 160.2 1101100111 1101100111 1100001111 1110111011 10000010111 1101000101 1101110101 10001000110 1 1101101111 111100010 1001001111 1010011101 1101001101 1110011001 1101110101 1110101000 1110001101 25.875 43.389 998.98 13896 17 14 13 60 50 4 $GNGGA,142937.00,4333.66352,N,00128.71598,E,1,03,4.44,160.2,M,53.8,M,,*4E
13 14 29 38 4333.6651600128.71634160.3ó 00128.71634 160.3 1101100111 1101100111 1100001101 1111000000 10000011001 1101000100 1101110101 10000110110 1 1101101111 111100001 1001001111 1010101010 1101001111 1110011010 1101111001 1110101000 1110010101 25.875 43.381 998.97 14894 16 15 13 59 51 5 $GNGGA,142938.00,4333.66516,N,00128.71634,E,1,03,4.44,160.3,M,53.8,M,,*43
14 14 29 39 4333.6659000128.71632160.2ó 00128.71632 160.2 1101100111 1101100111 1100001101 1111000011 10000011010 1101001010 1101111010 10000111010 1 1101101111 111100111 1001010110 1010101011 1101010010 1110011100 1101111001 1110100011 1110000011 25.875 43.374 998.97 15896 17 14 13 60 50 4 $GNGGA,142939.00,4333.66590,N,00128.71632,E,1,03,4.44,160.2,M,53.8,M,,*4B
15 14 29 40 4333.6669700128.71697160.1ó 00128.71697 160.1 1101100111 1101100111 1100001110 1110111010 10000010111 1101000010 1101111000 10001000010 1 1101101111 111100110 1001010101 1010101010 1101010010 1110100000 1101111100 1110011111 1110001100 25.875 43.351 998.97 16896 16 16 15 59 51 3 $GNGGA,142940.00,4333.66697,N,00128.71697,E,1,03,4.44,160.1,M,53.8,M,,*4D
16 14 29 41 4333.6710400128.72323162.3ó 00128.72323 162.3 1101100111 1101100111 1100001111 1111000010 10000010111 1101000010 1101110011 10001000000 1 1101101111 111101000 1001010110 1010101010 1101010100 1110011100 1101111010 1110011011 1110001100 25.938 43.343 998.96 17894 17 15 13 60 50 4 $GNGGA,142941.00,4333.67104,N,00128.72323,E,1,04,4.41,162.3,M,53.8,M,,*4B
17 14 29 42 4333.6738000128.72811163.0ó 00128.72811 163.0 1101100111 1101100111 1100001111 1111000001 10000011001 1100111101 1101101010 10001000110 0 1101101111 111101010 1001010111 1010101001 1101010101 1110011001 1101111010 1110100001 1110001101 25.875 43.313 998.95 18892 16 14 14 58 51 4 $GNGGA,142942.00,4333.67380,N,00128.72811,E,1,05,2.57,163.0,M,53.8,M,,*4E
18 14 29 43 4333.6766100128.73219163.4ó 00128.73219 163.4 1101100111 1101100111 1100001101 1111000111 10000011001 1101000100 1101110001 10000111111 1 1101101111 111101001 1001010111 1010100111 1101010111 1110011110 1101111010 1110010101 1110001000 25.875 43.282 998.95 19891 16 15 13 59 51 4 $GNGGA,142943.00,4333.67661,N,00128.73219,E,1,05,2.57,163.4,M,53.8,M,,*42
19 14 29 44 4333.6793100128.73471163.7ó 00128.73471 163.7 1101100111 1101100111 1100001011 1111000011 10000011000 1100111110 1101110001 10000111101 1 1101101111 111101101 1001010111 1010101011 1101011001 1110010111 1101110101 1110011011 1110000011 25.875 43.252 998.96 20893 17 14 13 59 51 4 $GNGGA,142944.00,4333.67931,N,00128.73471,E,1,05,2.57,163.7,M,53.8,M,,*44
20 14 29 45 4333.6816400128.73722164.0ó 00128.73722 164.0 1101100111 1101100111 1100010000 1111001000 10000011001 1101000000 1101110011 10001000100 1 1101101111 111101111 1001010101 1010110011 1101011010 1110010111 1101110101 1110011110 1110001101 25.938 43.229 998.95 21890 16 16 14 59 50 4 $GNGGA,142945.00,4333.68164,N,00128.73722,E,1,05,2.57,164.0,M,53.8,M,,*47
21 14 29 46 4333.6853600128.74135164.4ó 00128.74135 164.4 1101100111 1101100111 1100010011 1111000011 10000011001 1101000011 1101110011 10000111001 1 1101101111 111110001 1001011000 1010110111 1101011000 1110010110 1101110011 1110011110 1110000100 25.938 43.198 998.93 22890 17 14 13 59 51 4 $GNGGA,142946.00,4333.68536,N,00128.74135,E,1,05,2.57,164.4,M,53.8,M,,*44
22 14 29 47 4333.6867500128.74222164.5ó 00128.74222 164.5 1101100111 1101100111 1100001111 1111000011 10000011000 1101000010 1101110101 10001000001 0 1101101111 111110001 1001011000 1010111011 1101011011 1110011001 1101110000 1110011110 1110000111 25.875 43.145 998.95 23889 16 14 14 58 51 4 $GNGGA,142947.00,4333.68675,N,00128.74222,E,1,05,2.57,164.5,M,53.8,M,,*45
23 14 29 48 4333.6893700128.74520164.0ó 00128.74520 164.0 1101100111 1101100111 1100001111 1110111110 10000010111 1101000000 1101101111 10000111010 1 1101101111 111110101 1001011010 1011000001 1101011111 1110010110 1101110101 1110011101 1110000100 25.875 43.076 998.96 24888 15 16 14 59 52 3 $GNGGA,142948.00,4333.68937,N,00128.74520,E,1,05,2.57,164.0,M,53.8,M,,*43
24 14 29 49 4333.6912900128.74701163.9ó 00128.74701 163.9 1101100111 1101100111 1100001110 1111000101 10000011001 1101000001 1101110100 10000111101 1 1101101111 111110011 1001011001 1011000000 1101011111 1110010100 1101101111 1110011111 1110001001 25.938 43.030 998.95 25885 17 14 13 60 50 4 $GNGGA,142949.00,4333.69129,N,00128.74701,E,1,05,2.57,163.9,M,53.8,M,,*4B
25 14 29 50 4333.6940900128.74846164.0ó 00128.74846 164.0 1101100111 1101100111 1100001110 1111001001 10000011011 1101000000 1101101101 10001000010 1 1101101111 111111101 1001011111 1011000111 1101100000 1110010011 1101110011 1110010000 1101111110 25.938 43.023 998.97 26886 16 15 14 59 52 3 $GNGGA,142950.00,4333.69409,N,00128.74846,E,1,05,2.58,164.0,M,53.8,M,,*49
26 14 29 51 4333.6961300128.75049163.6ó 00128.75049 163.6 1101100111 1101100111 1100001111 1111000100 10000011011 1101000101 1101110110 10000110111 1 1101101111 111110000 1001011010 1011001011 1101100011 1110010111 1101111001 1110010111 1110000010 25.938 42.985 998.96 27885 17 14 13 60 50 4 $GNGGA,142951.00,4333.69613,N,00128.75049,E,1,05,2.58,163.6,M,53.8,M,,*46
27 14 29 52 4333.6966400128.75043163.5ó 00128.75043 163.5 1101100111 1101100111 1100010010 1111000000 10000011010 1101001000 1101110100 10000110101 1 1101101111 111110011 1001011011 1011001000 1101100100 1110010011 1101110010 1110010011 1110000010 25.875 42.954 998.95 28884 15 15 15 59 51 3 $GNGGA,142952.00,4333.69664,N,00128.75043,E,1,04,4.40,163.5,M,53.8,M,,*42
28 14 29 53 4333.6967200128.75045163.1ó 00128.75045 163.1 1101100111 1101100111 1100001111 1111000011 10000011011 1101000100 1101110100 10000111011 1 1101101111 111110101 1001011101 1011001000 1101100010 1110010000 1101110100 1110010010 1101111011 25.938 42.962 998.94 29882 17 14 13 59 51 4 $GNGGA,142953.00,4333.69672,N,00128.75045,E,1,04,4.40,163.1,M,53.8,M,,*46
29 14 29 54 4333.6983500128.75263162.3ó 00128.75263 162.3 1101100111 1101100111 1100010011 1111001000 10000011010 1101000001 1101110001 10000110000 1 1101101111 111111010 1001100000 1011001000 1101100101 1110010001 1101110110 1110010110 1101111110 25.938 42.985 998.95 30881 16 15 15 59 51 3 $GNGGA,142954.00,4333.69835,N,00128.75263,E,1,04,4.40,162.3,M,53.8,M,,*49
30 14 29 55 4333.6979300128.75199162.1ó 00128.75199 162.1 1101100111 1101100111 1100001110 1111001000 10000011000 1100111111 1101110001 10000110110 1 1101101111 111110101 1001011111 1011000011 1101100100 1110001101 1101101110 1110010000 1101110111 25.938 43.007 998.95 31880 16 15 13 59 51 4 $GNGGA,142955.00,4333.69793,N,00128.75199,E,1,04,4.40,162.1,M,53.8,M,,*4F
31 14 29 56 4333.6999900128.75319161.8ó 00128.75319 161.8 1101100111 1101100111 1100010100 1111000110 10000011010 1100111101 1101110100 10000110110 1 1101101111 111111010 1001100000 1011001000 1101100111 1110001100 1101101101 1110010000 1101111000 25.875 43.015 998.95 32877 17 14 14 60 51 3 $GNGGA,142956.00,4333.69999,N,00128.75319,E,1,05,2.58,161.8,M,53.8,M,,*46
32 14 29 57 4333.7017600128.75319161.8ó 00128.75319 161.8 1101100111 1101100111 1100001011 1111000000 10000011001 1100111111 1101110010 10000101111 1 1101101111 111110110 1001100001 1011001011 1101101010 1110010000 1101110101 1110010010 1101111100 25.938 43.000 998.97 33879 16 15 14 59 50 4 $GNGGA,142957.00,4333.70176,N,00128.75319,E,1,05,2.58,161.8,M,53.8,M,,*46
33 14 29 58 4333.7024600128.75351161.7ó 00128.75351 161.7 1101100111 1101100111 1100010011 1111000100 10000011011 1100111011 1101110010 10000110100 1 1101101111 111111100 1001100010 1011001111 1101101011 1110010110 1101110001 1110010101 1101111010 25.938 42.985 998.97 34878 17 15 14 60 51 3 $GNGGA,142958.00,4333.70246,N,00128.75351,E,1,05,2.58,161.7,M,53.8,M,,*4A
34 14 29 59 4333.7022100128.75310161.5ó 00128.75310 161.5 1101100111 1101100111 1100010001 1111000111 10000011001 1101000011 1101110110 10000101110 1 1101101111 111111110 1001100100 1011001011 1101101100 1110010000 1101110011 1110010011 1101111111 25.938 42.969 998.95 35875 16 15 15 59 51 3 $GNGGA,142959.00,4333.70221,N,00128.75310,E,1,04,4.39,161.5,M,53.8,M,,*4D
35 14 30 00 4333.7025900128.75369161.2ó 00128.75369 161.2 1101100111 1101100111 1100010000 1111001000 10000011100 1100111010 1101101010 10000101000 1 1101101111 111111011 1001100001 1011001111 1101101100 1110010011 1101110001 1110010001 1101111000 25.938 42.992 998.95 36874 16 15 13 59 51 4 $GNGGA,143000.00,4333.70259,N,00128.75369,E,1,04,4.39,161.2,M,53.8,M,,*4F
36 14 30 01 4333.7023600128.75300161.1ó 00128.75300 161.1 1101100111 1101100111 1100010000 1111001011 10000011001 1101000000 1101110110 10000101111 1 1101101111 111111111 1001100101 1011001101 1101101111 1110010001 1101110010 1110010010 1101111111 25.938 43.084 998.96 37872 17 14 13 60 50 4 $GNGGA,143001.00,4333.70236,N,00128.75300,E,1,04,4.39,161.1,M,53.8,M,,*4B
37 14 30 02 4333.7031800128.75334160.9ó 00128.75334 160.9 1101100111 1101100111 1100010000 1111001000 10000011101 1100111111 1101110000 10000101110 1 1101101111 111111101 1001100011 1011010010 1101110010 1110001111 1101110000 1110010000 1101111001 25.938 43.114 998.96 38872 16 16 15 59 51 3 $GNGGA,143002.00,4333.70318,N,00128.75334,E,1,03,4.99,160.9,M,53.8,M,,*46
38 14 30 03 4333.7031600128.75304160.7ó 00128.75304 160.7 1101100111 1101100111 1100001111 1111001010 10000011100 1100111110 1101110011 10000101000 0 1101101111 1000000000 1001101001 1011001100 1101101111 1110010011 1101111000 1110001000 1101110100 25.938 43.084 998.96 39870 17 15 14 60 51 3 $GNGGA,143003.00,4333.70316,N,00128.75304,E,1,03,5.00,160.7,M,53.8,M,,*45
39 14 30 04 4333.7040000128.75347160.4ó 00128.75347 160.4 1101100111 1101100111 1100010001 1111001111 10000011101 1100111011 1101101111 10000110010 1 1101101111 111111111 1001100011 1011001100 1101110010 1110001011 1101110001 1110010001 1101111101 25.938 43.015 998.96 40869 16 15 15 59 51 3 $GNGGA,143004.00,4333.70400,N,00128.75347,E,1,03,5.00,160.4,M,53.8,M,,*46
40 14 30 05 4333.7046000128.75399160.2ó 00128.75399 160.2 1101100111 1101100111 1100010100 1111001000 10000011001 1101000001 1101110001 10000100110 1 1101101111 1000000111 1001101001 1011001100 1101110001 1110001111 1101101110 1110010000 1101111011 25.938 42.954 998.97 41869 16 15 13 58 52 4 $GNGGA,143005.00,4333.70460,N,00128.75399,E,1,03,5.00,160.2,M,53.8,M,,*44
41 14 30 06 4333.7042800128.75414160.1ó 00128.75414 160.1 1101100111 1101100111 1100010010 1111000110 10000011110 1100111110 1101101101 10000101110 1 1101101111 1000000011 1001100111 1011010001 1101110101 1110001011 1101101111 1110010100 1101110110 25.875 42.916 998.98 42867 17 14 13 58 51 4 $GNGGA,143006.00,4333.70428,N,00128.75414,E,1,03,5.01,160.1,M,53.8,M,,*4B
42 14 30 07 4333.7044700128.75372160.0ó 00128.75372 160.0 1101100111 1101100111 1100010010 1111001011 10000011111 1100111111 1101110001 10000101001 1 1101101111 1000001001 1001101010 1011010101 1101110100 1110001000 1101101001 1110001001 1101101100 25.938 42.878 998.97 43866 15 16 14 59 50 5 $GNGGA,143007.00,4333.70447,N,00128.75372,E,1,03,5.01,160.0,M,53.8,M,,*45
43 14 30 08 4333.7038900128.75311159.9ó 00128.75311 159.9 1101100111 1101100111 1100001111 1111001100 10000011100 1100111110 1101110100 10000101110 1 1101101111 1000000111 1001101100 1011010101 1101111000 1110001011 1101101101 1110000110 1101101111 25.938 42.870 998.96 44866 17 15 14 60 51 3 $GNGGA,143008.00,4333.70389,N,00128.75311,E,1,03,5.02,159.9,M,53.8,M,,*4A
44 14 30 09 4333.7052000128.75248160.4ó 00128.75248 160.4 1101100111 1101100111 1100010001 1111001100 10000011100 1100111100 1101101101 10000101011 1 1101101111 1000000110 1001101011 1011011010 1101110111 1110001000 1101101011 1110010010 1101111011 25.875 42.939 998.96 45865 16 14 14 58 51 4 $GNGGA,143009.00,4333.70520,N,00128.75248,E,1,04,2.81,160.4,M,53.8,M,,*4F
45 14 30 10 4333.7071400128.75212160.6ó 00128.75212 160.6 1101100111 1101100111 1100010000 1111001111 10000011110 1101000011 1101110010 10000100111 1 1101101111 1000000011 1001100111 1011011001 1101110111 1110000111 1101100111 1110010000 1101110111 25.875 43.068 998.96 46865 17 14 13 60 50 4 $GNGGA,143010.00,4333.70714,N,00128.75212,E,1,04,2.81,160.6,M,53.8,M,,*4F
46 14 30 11 4333.7065700128.75065160.6ó 00128.75065 160.6 1101100111 1101100111 1100001111 1111001001 10000011101 1100111100 1101101101 10000101100 1 1101101111 1000000101 1001101010 1011010111 1101111000 1110000100 1101101000 1110001101 1101110110 25.938 43.114 998.94 47864 16 14 14 58 51 4 $GNGGA,143011.00,4333.70657,N,00128.75065,E,1,03,5.03,160.6,M,53.8,M,,*40
47 14 30 12 4333.7060000128.75004160.6ó 00128.75004 160.6 1101100111 1101100111 1100010001 1111000101 10000011011 1100111101 1101110000 10000101011 1 1101101111 1000001000 1001101010 1011010110 1101111010 1110000001 1101100100 1110000111 1101110111 25.938 43.129 998.93 48863 16 15 13 58 52 4 $GNGGA,143012.00,4333.70600,N,00128.75004,E,1,03,5.03,160.6,M,53.8,M,,*46
48 14 30 13 4333.7057800128.74963160.5ó 00128.74963 160.5 1101100111 1101100111 1100001111 1111000101 10000011101 1100111100 1101101011 10000110011 1 1101101111 1000001100 1001101110 1011010011 1101111010 1110001010 1101101001 1110001000 1101101111 25.938 43.053 998.93 49861 17 14 13 59 51 4 $GNGGA,143013.00,4333.70578,N,00128.74963,E,1,03,5.04,160.5,M,53.8,M,,*46
49 14 30 14 4333.7062900128.74953160.4ó 00128.74953 160.4 1101100111 1101100111 1100010000 1111000101 10000011011 1100111100 1101110001 10000110000 1 1101101111 1000001010 1001101111 1011011111 1101111101 1110001001 1101101011 1110000010 1101110000 25.938 42.985 998.93 50860 16 16 15 59 51 3 $GNGGA,143014.00,4333.70629,N,00128.74953,E,1,03,5.04,160.4,M,53.8,M,,*44
50 14 30 15 4333.7049900128.74892160.4ó 00128.74892 160.4 1101100111 1101100111 1100010010 1111001100 10000100001 1100111001 1101101100 10000100111 1 1101101111 1000001011 1001101101 1011100101 1101111110 1110001000 1101101001 1110000101 1101110000 25.938 43.015 998.93 51860 16 15 14 60 50 4 $GNGGA,143015.00,4333.70499,N,00128.74892,E,1,03,5.04,160.4,M,53.8,M,,*40
51 14 30 16 4333.7055400128.74850160.4ó 00128.74850 160.4 1101100111 1101100111 1100010011 1111000011 10000011010 1100111101 1101101100 10000101000 1 1101101111 1000001100 1001101100 1011100010 1101111111 1110001011 1101101001 1110000110 1101111010 25.875 43.084 998.94 52858 16 14 14 59 50 4 $GNGGA,143016.00,4333.70554,N,00128.74850,E,1,03,5.05,160.4,M,53.8,M,,*4C
52 14 30 17 4333.7055000128.74767160.3ó 00128.74767 160.3 1101100111 1101100111 1100001110 1111001111 10000011101 1100110110 1101100111 10000100011 1 1101101111 1000001010 1001101101 1011011011 1110000000 1110001010 1101101001 1110000010 1101101111 25.938 43.145 998.93 53858 16 16 14 59 52 3 $GNGGA,143017.00,4333.70550,N,00128.74767,E,1,03,5.05,160.3,M,53.8,M,,*45
53 14 30 18 4333.7047100128.74724160.3ó 00128.74724 160.3 1101100111 1101100111 1100010010 1111000101 10000011110 1100111110 1101110011 10000011110 1 1101101111 1000001100 1001101110 1011011101 1110000000 1110000111 1101100101 1110001001 1101101111 25.875 43.252 998.95 54855 17 15 14 60 51 3 $GNGGA,143018.00,4333.70471,N,00128.74724,E,1,03,5.06,160.3,M,53.8,M,,*4C
54 14 30 19 4333.7032800128.74749160.2ó 00128.74749 160.2 1101100111 1101100111 1100010011 1111000110 10000011111 1101000000 1101110000 10000101000 1 1101101111 1000001100 1001110000 1011011110 1110000001 1110001001 1101100100 1110000010 1101101110 25.875 43.343 998.94 55856 16 16 14 59 51 4 $GNGGA,143019.00,4333.70328,N,00128.74749,E,1,03,5.06,160.2,M,53.8,M,,*4C
55 14 30 20 4333.7026900128.74649160.1ó 00128.74649 160.1 1101100111 1101100111 1100010010 1111000111 10000011011 1100111001 1101101100 10000101000 1 1101101111 1000001111 1001110000 1011011011 1110000010 1110000111 1101101000 1110001001 1101110010 25.875 43.374 998.94 56854 17 15 14 60 51 3 $GNGGA,143020.00,4333.70269,N,00128.74649,E,1,03,5.06,160.1,M,53.8,M,,*40
56 14 30 21 4333.7030500128.74701160.0ó 00128.74701 160.0 1101100111 1101100111 1100010011 1111001110 10000100000 1100111011 1101101100 10000100100 1 1101101111 1000010000 1001110010 1011100001 1110000100 1110000110 1101101011 1110000101 1101101010 25.875 43.389 998.93 57853 16 14 14 58 51 4 $GNGGA,143021.00,4333.70305,N,00128.74701,E,1,03,5.07,160.0,M,53.8,M,,*47
57 14 30 22 4333.7025600128.74644159.5ó 00128.74644 159.5 1101100111 1101100111 1100001111 1111000110 10000100001 1100111011 1101101001 10000011100 1 1101101111 1000001110 1001101111 1011100010 1110000010 1110000110 1101100111 1110000011 1101110000 25.938 43.328 998.94 58852 17 14 13 60 50 4 $GNGGA,143022.00,4333.70256,N,00128.74644,E,1,03,5.07,159.5,M,53.8,M,,*4C
58 14 30 23 4333.7029000128.74615159.3ó 00128.74615 159.3 1101100111 1101100111 1100010001 1111000110 10000011101 1101000010 1101110111 10000100001 1 1101101111 1000010001 1001110000 1011100101 1110000101 1110000100 1101100101 1110000101 1101110000 25.938 43.297 998.94 59852 16 15 15 59 51 3 $GNGGA,143023.00,4333.70290,N,00128.74615,E,1,03,5.08,159.3,M,53.8,M,,*4A
59 14 30 24 4333.7023700128.74733159.2ó 00128.74733 159.2 1101100111 1101100111 1100010001 1111000111 10000011101 1101000011 1101110110 10000101000 1 1101101111 1000010010 1001110010 1011100100 1110000110 1110000011 1101101000 1101111110 1101101010 25.938 43.305 998.96 60851 16 16 14 59 52 3 $GNGGA,143024.00,4333.70237,N,00128.74733,E,1,03,5.08,159.2,M,53.8,M,,*44
60 14 30 25 4333.7018700128.74657159.2ó 00128.74657 159.2 1101100111 1101100111 1100010000 1111001101 10000100000 1101000010 1101110100 10000100010 1 1101101111 1000010101 1001110011 1011100000 1110000110 1110000010 1101100011 1101111001 1101101110 25.938 43.297 998.95 61848 17 15 14 60 51 3 $GNGGA,143025.00,4333.70187,N,00128.74657,E,1,03,5.08,159.2,M,53.8,M,,*4E
61 14 30 26 4333.7016800128.74591159.2ó 00128.74591 159.2 1101100111 1101100111 1100010010 1111010001 10000100011 1100111010 1101101011 10000100101 1 1101101111 1000010101 1001110100 1011101100 1110001011 1110000101 1101100100 1110000100 1101101100 25.938 43.313 998.96 62849 15 16 15 59 51 3 $GNGGA,143026.00,4333.70168,N,00128.74591,E,1,03,5.09,159.2,M,53.8,M,,*44
62 14 30 27 4333.7014200128.74633159.1ó 00128.74633 159.1 1101100111 1101100111 1100010011 1111001010 10000011110 1100111001 1101101001 10000011101 1 1101101111 1000010100 1001110001 1011100101 1110000111 1110001010 1101101001 1101111111 1101101011 25.938 43.297 998.96 63847 17 14 13 59 51 4 $GNGGA,143027.00,4333.70142,N,00128.74633,E,1,03,5.09,159.1,M,53.8,M,,*45
63 14 30 28 4333.7016100128.74605159.2ó 00128.74605 159.2 1101100111 1101100111 1100010001 1111000111 10000100000 1100111100 1101101110 10000011110 1 1101101111 1000010100 1001110101 1011101011 1110001001 1110000001 1101100100 1110000000 1101101111 25.938 43.404 998.96 64846 16 15 15 59 51 3 $GNGGA,143028.00,4333.70161,N,00128.74605,E,1,03,5.10,159.2,M,53.8,M,,*45
64 14 30 29 4333.6989300128.74487158.5ó 00128.74487 158.5 1101100111 1101100111 1100010010 1111001001 10000011110 1100111110 1101101101 10000011101 1 1101101111 1000011001 1001111001 1011110000 1110001011 1110000100 1101100100 1101111111 1101101001 25.875 43.419 998.96 65846 16 15 13 58 52 4 $GNGGA,143029.00,4333.69893,N,00128.74487,E,1,04,4.37,158.5,M,53.8,M,,*45
65 14 30 30 4333.6972600128.74305158.0ó 00128.74305 158.0 1101100111 1101100111 1100010000 1111001001 10000011101 1100111010 1101101100 10000010101 1 1101101111 1000011010 1001110111 1011110000 1110001011 1110000100 1101100110 1101111000 1101101000 25.875 43.358 998.96 66845 17 15 14 60 51 3 $GNGGA,143030.00,4333.69726,N,00128.74305,E,1,04,4.37,158.0,M,53.8,M,,*44
66 14 30 31 4333.6972700128.74226157.6ó 00128.74226 157.6 1101100111 1101100111 1100010100 1111000111 10000011101 1100111110 1101110001 10000010100 1 1101101111 1000011010 1001111000 1011110010 1110001011 1110000010 1101100110 1101111100 1101101101 25.875 43.389 998.97 67845 16 16 14 59 51 4 $GNGGA,143031.00,4333.69727,N,00128.74226,E,1,04,4.37,157.6,M,53.8,M,,*4D
67 14 30 32 Nan Nan Nan 1101100111 1101100111 1100010100 1111001010 10000011101 1100111101 1101110000 10000011101 1 1101101111 1000011101 1001111001 1011110000 1110001010 1110000100 1101101000 1101111100 1101101001 25.938 43.412 998.97 68832 16 7 10 59 51 4 $GNGGA,143032.00,,,,,0,00,28.9,,,,,,*4C
68 14 30 33 Nan Nan Nan 1101100111 1101100111 1100010000 1111001010 10000011110 1100111011 1101110001 10000011010 1 1101101111 1000010111 1001110101 1011111101 1110001111 1110000100 1101011110 1101111011 1101100010 25.938 43.381 998.98 69831 17 7 10 60 50 4 $GNGGA,143033.00,,,,,0,00,29.0,,,,,,*45
69 14 30 34 4333.6918700128.74023156.6ó 00128.74023 156.6 1101100111 1101100111 1100010011 1111001001 10000100000 1101000000 1101110001 10000011010 1 1101101111 1000011011 1001110111 1011111001 1110001110 1110000010 1101100010 1101111111 1101101100 25.938 43.305 998.97 70841 16 14 13 59 51 4 $GNGGA,143034.00,4333.69187,N,00128.74023,E,1,04,4.37,156.6,M,53.8,M,,*42
70 14 30 35 4333.6926100128.73976156.3ó 00128.73976 156.3 1101100111 1101100111 1100010110 1111001010 10000011111 1100111110 1101110000 10000011010 1 1101101111 1000011110 1001111001 1011110110 1110010001 1101111110 1101100100 1101111011 1101101100 25.938 43.191 998.96 71841 16 15 14 59 50 4 $GNGGA,143035.00,4333.69261,N,00128.73976,E,1,04,4.37,156.3,M,53.8,M,,*43
71 14 30 36 4333.6937000128.73952155.9ó 00128.73952 155.9 1101100111 1101100111 1100001111 1111001011 10000011111 1100111011 1101101010 10000010000 1 1101101111 1000011000 1001110101 1011110011 1110001111 1101111011 1101011111 1101111001 1101100110 25.938 43.107 998.96 72838 16 15 13 59 51 4 $GNGGA,143036.00,4333.69370,N,00128.73952,E,1,04,4.37,155.9,M,53.8,M,,*4E
72 14 30 37 4333.6918500128.73891155.5ó 00128.73891 155.5 1101100111 1101100111 1100010001 1111001001 10000011111 1100111010 1101101111 10000010011 1 1101101111 1000100100 1001111100 1100000011 1110010110 1110000001 1101101001 1101110100 1101011110 25.875 43.053 998.95 73838 17 15 14 60 51 3 $GNGGA,143037.00,4333.69185,N,00128.73891,E,1,04,4.37,155.5,M,53.8,M,,*45
73 14 30 38 4333.6906900128.73864155.3ó 00128.73864 155.3 1101100111 1101100111 1100010000 1111000110 10000011110 1100110110 1101101001 10000100001 1 1101101111 1000011111 1001111001 1100000010 1110010010 1101111011 1101100100 1101111101 1101110011 25.875 43.000 998.95 74838 16 16 14 59 50 4 $GNGGA,143038.00,4333.69069,N,00128.73864,E,1,04,4.37,155.3,M,53.8,M,,*45
74 14 30 39 4333.6885900128.73952154.8ó 00128.73952 154.8 1101100111 1101100111 1100010001 1111001110 10000100001 1100110111 1101101000 10000011010 1 1101101111 1000011111 1001111000 1011111111 1110010011 1101111110 1101100011 1101110010 1101100101 25.938 42.969 998.95 75836 17 14 13 59 51 4 $GNGGA,143039.00,4333.68859,N,00128.73952,E,1,04,4.37,154.8,M,53.8,M,,*40
75 14 30 40 4333.6870200128.74089154.6ó 00128.74089 154.6 1101100111 1101100111 1100001111 1111010001 10000100010 1100111111 1101110100 10000011000 1 1101101111 1000011101 1001110111 1100000010 1110010010 1101111011 1101011111 1101111011 1101101011 25.875 42.969 998.95 76835 16 15 14 59 50 4 $GNGGA,143040.00,4333.68702,N,00128.74089,E,1,04,4.37,154.6,M,53.8,M,,*49
76 14 30 41 4333.6823200128.74186154.3ó 00128.74186 154.3 1101100111 1101100111 1100010001 1111010001 10000100011 1100111010 1101110010 10000011010 1 1101101111 1000100111 1001111111 1100000101 1110010100 1110000001 1101100110 1101110110 1101100100 25.938 42.977 998.96 77835 16 16 14 59 52 3 $GNGGA,143041.00,4333.68232,N,00128.74186,E,1,04,4.37,154.3,M,53.8,M,,*45
77 14 30 42 4333.6797900128.74285154.2ó 00128.74285 154.2 1101100111 1101100111 1100010011 1111001001 10000011100 1100110111 1101101010 10000100000 1 1101101111 1000100001 1001111101 1100000111 1110010011 1110000000 1101100011 1101111100 1101101101 25.938 43.000 998.96 78834 17 15 14 60 51 3 $GNGGA,143042.00,4333.67979,N,00128.74285,E,1,04,4.36,154.2,M,53.8,M,,*4D
78 14 30 43 4333.6785700128.74427154.3ó 00128.74427 154.3 1101100111 1101100111 1100010110 1111000110 10000011110 1100110110 1101101010 10000011101 1 1101101111 1000100000 1001111010 1100010011 1110011010 1101111101 1101011111 1101111011 1101101000 25.875 43.053 998.95 79832 16 15 13 59 50 5 $GNGGA,143043.00,4333.67857,N,00128.74427,E,1,04,4.36,154.3,M,53.8,M,,*4E
79 14 30 44 4333.6750400128.74435154.4ó 00128.74435 154.4 1101100111 1101100111 1100010110 1111001010 10000100011 1100110110 1101100110 10000011010 1 1101101111 1000100011 1001111011 1100001011 1110011000 1101111110 1101100100 1101110100 1101100111 25.938 43.198 998.95 80834 17 15 14 60 51 3 $GNGGA,143044.00,4333.67504,N,00128.74435,E,1,04,3.42,154.4,M,53.8,M,,*42
80 14 30 45 4333.6781900128.74398154.7ó 00128.74398 154.7 1101100111 1101100111 1100010010 1111001100 10000100010 1100110000 1101101001 10000011011 1 1101101111 1000100001 1001111100 1100000111 1110010110 1101111100 1101011011 1101110110 1101100001 25.938 43.267 998.95 81830 15 15 15 59 50 4 $GNGGA,143045.00,4333.67819,N,00128.74398,E,1,04,3.42,154.7,M,53.8,M,,*41
81 14 30 46 4333.6796900128.74336154.8ó 00128.74336 154.8 1101100111 1101100111 1100010001 1111001010 10000100010 1100111100 1101101100 10000011110 1 1101101111 1000100110 1001111110 1100000101 1110011000 1101111001 1101011101 1101110110 1101011100 25.875 43.297 998.93 82830 15 16 14 59 52 3 $GNGGA,143046.00,4333.67969,N,00128.74336,E,1,04,3.42,154.8,M,53.8,M,,*4F
82 14 30 47 4333.6817700128.74191155.0ó 00128.74191 155.0 1101100111 1101100111 1100010011 1111001011 10000100001 1100110111 1101101001 10000011000 1 1101101111 1000100110 1010000000 1100001011 1110011100 1101111011 1101011110 1101111101 1101011111 25.875 43.282 998.93 83827 16 15 14 60 51 3 $GNGGA,143047.00,4333.68177,N,00128.74191,E,1,04,3.42,155.0,M,53.8,M,,*40
83 14 30 48 4333.6826400128.74163154.9ó 00128.74163 154.9 1101100111 1101100111 1100010100 1111010000 10000100000 1100110010 1101100100 10000010111 1 1101101111 1000100100 1001111110 1100001010 1110011010 1101111010 1101100010 1101110000 1101011101 25.875 43.297 998.94 84828 15 16 14 59 52 3 $GNGGA,143048.00,4333.68264,N,00128.74163,E,1,04,3.43,154.9,M,53.8,M,,*4A
84 14 30 49 4333.6818300128.74102155.0ó 00128.74102 155.0 1101100111 1101100111 1100010100 1111010011 10000100100 1100101100 1101100100 10000010111 1 1101101111 1000100111 1010000000 1100001010 1110011011 1101111110 1101100011 1101111100 1101100100 25.875 43.328 998.94 85827 16 15 14 60 50 4 $GNGGA,143049.00,4333.68183,N,00128.74102,E,1,04,3.43,155.0,M,53.8,M,,*4E
85 14 30 50 4333.6807300128.74076155.1ó 00128.74076 155.1 1101100111 1101100111 1100010000 1111010010 10000100011 1100110110 1101101011 10000010011 1 1101101111 1000101000 1001111111 1100010001 1110011110 1101111100 1101011101 1101101101 1101100000 25.938 43.351 998.95 86825 16 14 15 58 51 3 $GNGGA,143050.00,4333.68073,N,00128.74076,E,1,05,2.61,155.1,M,53.8,M,,*4B
86 14 30 51 4333.6797700128.74151155.1ó 00128.74151 155.1 1101100111 1101100111 1100010001 1111010101 10000100011 1100110111 1101101000 10000011010 1 1101101111 1000101100 1010000001 1100010101 1110011101 1101110111 1101100001 1101110100 1101100000 25.938 43.351 998.94 87825 17 14 13 60 50 4 $GNGGA,143051.00,4333.67977,N,00128.74151,E,1,05,2.61,155.1,M,53.8,M,,*4C
87 14 30 52 4333.6793100128.74009155.1ó 00128.74009 155.1 1101100111 1101100111 1100010011 1111010100 10000100101 1100110111 1101011110 10000100001 1 1101101111 1000100111 1001111111 1100010010 1110100010 1101111100 1101011101 1101101110 1101011010 25.938 43.366 998.95 88823 16 14 14 59 50 4 $GNGGA,143052.00,4333.67931,N,00128.74009,E,1,05,2.61,155.1,M,53.8,M,,*41
88 14 30 53 4333.6795800128.74046155.1ó 00128.74046 155.1 1101100111 1101100111 1100010101 1111001011 10000100000 1100110111 1101101011 10000100101 1 1101101111 1000101011 1010000011 1100001010 1110011101 1101111010 1101011011 1101110011 1101100001 25.938 43.374 998.94 89824 16 16 14 59 52 3 $GNGGA,143053.00,4333.67958,N,00128.74046,E,1,05,2.61,155.1,M,53.8,M,,*44
89 14 30 54 4333.6795800128.74150155.0ó 00128.74150 155.0 1101100111 1101100111 1100010010 1111010010 10000100001 1100110111 1101101001 10000011101 1 1101101111 1000101000 1010000000 1100010111 1110100001 1101111000 1101100001 1101110010 1101011101 25.875 43.320 998.96 90820 17 14 13 60 50 4 $GNGGA,143054.00,4333.67958,N,00128.74150,E,1,04,4.36,155.0,M,53.8,M,,*41
90 14 30 55 4333.6812200128.74505154.6ó 00128.74505 154.6 1101100111 1101100111 1100010011 1111010000 10000100001 1100111010 1101101010 10000100000 1 1101101111 1000101001 1010000010 1100010000 1110011100 1101111111 1101100001 1101111001 1101101011 25.938 43.252 998.95 91821 16 15 13 58 51 5 $GNGGA,143055.00,4333.68122,N,00128.74505,E,1,05,2.61,154.6,M,53.8,M,,*4C
91 14 30 56 4333.6815200128.74540154.8ó 00128.74540 154.8 1101100111 1101100111 1100010110 1111011010 10000100100 1100111000 1101101101 10000010100 1 1101101111 1000100110 1010000000 1100010111 1110100011 1101111010 1101100000 1101101111 1101101000 25.938 43.198 998.95 92819 17 14 13 59 51 4 $GNGGA,143056.00,4333.68152,N,00128.74540,E,1,04,4.69,154.8,M,53.8,M,,*48
92 14 30 57 4333.6829200128.74565154.8ó 00128.74565 154.8 1101100111 1101100111 1100010001 1111010100 10000100100 1100110111 1101101101 10000010101 1 1101101111 1000101100 1010000010 1100010100 1110100001 1101111011 1101100001 1101111011 1101101101 25.875 43.160 998.96 93818 16 15 15 59 51 3 $GNGGA,143057.00,4333.68292,N,00128.74565,E,1,04,4.69,154.8,M,53.8,M,,*41
93 14 30 58 4333.6842300128.74527154.9ó 00128.74527 154.9 1101100111 1101100111 1100010100 1111010111 10000100100 1100111000 1101110000 10000010110 1 1101101111 1000101100 1010000010 1100010110 1110100011 1101111101 1101100001 1101110101 1101100100 25.938 43.084 998.97 94816 16 16 14 59 52 3 $GNGGA,143058.00,4333.68423,N,00128.74527,E,1,04,4.69,154.9,M,53.8,M,,*45
94 14 30 59 4333.6845300128.74518155.1ó 00128.74518 155.1 1101100111 1101100111 1100010100 1111001110 10000100010 1100110111 1101101010 10000011100 1 1101101111 1000110000 1010000101 1100010010 1110011111 1101111010 1101011110 1101101101 1101100011 25.938 43.030 998.97 95816 17 14 13 60 50 4 $GNGGA,143059.00,4333.68453,N,00128.74518,E,1,04,4.69,155.1,M,53.8,M,,*46
95 14 31 00 4333.6851500128.74497155.3ó 00128.74497 155.3 1101100111 1101100111 1100010100 1111010000 10000100001 1100111001 1101110000 10000010111 1 1101101111 1000110001 1010000100 1100010011 1110100100 1101111100 1101011100 1101101110 1101011111 25.938 42.977 998.98 96816 16 16 14 59 51 4 $GNGGA,143100.00,4333.68515,N,00128.74497,E,1,04,4.70,155.3,M,53.8,M,,*44
96 14 31 01 4333.6867600128.74528155.4ó 00128.74528 155.4 1101100111 1101100111 1100010011 1111010101 10000100101 1100110110 1101101000 10000100100 1 1101101111 1000110000 1010000101 1100100000 1110100101 1101110111 1101011001 1101110000 1101011000 25.938 42.962 998.97 97814 17 15 13 60 50 4 $GNGGA,143101.00,4333.68676,N,00128.74528,E,1,04,4.70,155.4,M,53.8,M,,*41
97 14 31 02 4333.6883600128.74457155.6ó 00128.74457 155.6 1101100111 1101100111 1100010110 1111010101 10000100011 1100110110 1101101100 10000011111 1 1101101111 1000101110 1010000101 1100011011 1110100110 1101111010 1101011000 1101110100 1101011100 25.938 42.923 998.96 98812 16 14 14 59 50 4 $GNGGA,143102.00,4333.68836,N,00128.74457,E,1,04,4.70,155.6,M,53.8,M,,*43
98 14 31 03 4333.6899000128.74535155.7ó 00128.74535 155.7 1101100111 1101100111 1100010100 1111010101 10000100101 1100110000 1101100011 10000011100 1 1101101111 1000101110 1010000101 1100011010 1110100101 1101111101 1101100000 1101111010 1101100000 25.938 42.885 998.95 99812 17 14 13 59 51 4 $GNGGA,143103.00,4333.68990,N,00128.74535,E,1,04,4.70,155.7,M,53.8,M,,*4B
99 14 31 04 4333.6901000128.74536156.0ó 00128.74536 156.0 1101100111 1101100111 1100010101 1111011000 10000100010 1100111011 1101110001 10000011010 1 1101101111 1000101010 1010000010 1100010011 1110100100 1101110101 1101011100 1101110001 1101011111 25.938 43.030 998.94 100811 16 14 14 58 51 4 $GNGGA,143104.00,4333.69010,N,00128.74536,E,1,04,4.70,156.0,M,53.8,M,,*4B
100 14 31 05 4333.6907700128.74521156.1ó 00128.74521 156.1 1101100111 1101100111 1100010011 1111010111 10000100100 1100111000 1101101000 10000011001 1 1101101111 1000101110 1010001000 1100011000 1110100101 1101110011 1101011001 1101101100 1101011000 25.938 42.946 998.93 101809 16 15 13 58 52 4 $GNGGA,143105.00,4333.69077,N,00128.74521,E,1,04,4.70,156.1,M,53.8,M,,*4C
101 14 31 06 4333.6908600128.74414156.4ó 00128.74414 156.4 1101100111 1101100111 1100010100 1111010110 10000100001 1100110000 1101100010 10000010100 1 1101101111 1000101111 1010000100 1100010000 1110100111 1101110100 1101011101 1101101101 1101010110 25.938 42.832 998.94 102809 17 15 14 60 51 3 $GNGGA,143106.00,4333.69086,N,00128.74414,E,1,04,4.70,156.4,M,53.8,M,,*43
102 14 31 07 4333.6912600128.74457156.6ó 00128.74457 156.6 1101100111 1101100111 1100010101 1111010111 10000100011 1100111000 1101101101 10000010111 1 1101101111 1000110011 1010000111 1100010011 1110100111 1101110011 1101011001 1101100111 1101010111 25.938 43.053 998.94 103809 16 15 14 59 50 4 $GNGGA,143107.00,4333.69126,N,00128.74457,E,1,04,4.70,156.6,M,53.8,M,,*4C
103 14 31 08 4333.6917100128.74409156.7ó 00128.74409 156.7 1101100111 1101100111 1100010010 1111011100 10000100010 1100110001 1101100111 10000010001 1 1101101111 1000101111 1010000111 1100010111 1110101100 1101110100 1101011000 1101110001 1101100000 25.938 43.198 998.94 104808 17 15 14 60 51 3 $GNGGA,143108.00,4333.69171,N,00128.74409,E,1,04,4.70,156.7,M,53.8,M,,*4B
104 14 31 09 4333.6924200128.74378156.9ó 00128.74378 156.9 1101100111 1101100111 1100010101 1111010111 10000100100 1100111000 1101101000 10000010111 1 1101101111 1000110100 1010001010 1100010111 1110101001 1101111000 1101011010 1101100110 1101010111 25.938 43.297 998.94 105806 16 14 14 59 50 4 $GNGGA,143109.00,4333.69242,N,00128.74378,E,1,04,4.70,156.9,M,53.8,M,,*46
105 14 31 10 4333.6931000128.74454157.0ó 00128.74454 157.0 1101100111 1101100111 1100010011 1111010000 10000100010 1100110110 1101101101 10000011001 1 1101101111 1000110010 1010000110 1100010100 1110101001 1101111000 1101011001 1101101010 1101011001 25.938 43.213 998.94 106806 16 16 14 59 52 3 $GNGGA,143110.00,4333.69310,N,00128.74454,E,1,04,4.70,157.0,M,53.8,M,,*49
106 14 31 11 4333.6936100128.74386157.1ó 00128.74386 157.1 1101100111 1101100111 1100010011 1111010011 10000100011 1100110110 1101100110 10000010110 1 1101101111 1000110011 1010001001 1100011101 1110101010 1101110111 1101011100 1101101000 1101010010 25.938 43.305 998.94 107804 17 15 14 60 51 3 $GNGGA,143111.00,4333.69361,N,00128.74386,E,1,04,4.70,157.1,M,53.8,M,,*47
107 14 31 12 4333.6936800128.74310157.2ó 00128.74310 157.2 1101100111 1101100111 1100010111 1111010000 10000100100 1100110111 1101101010 10000011000 1 1101101111 1000110100 1010001000 1100010110 1110101011 1101110101 1101011010 1101101111 1101011010 25.938 43.267 998.95 108804 16 16 14 59 51 4 $GNGGA,143112.00,4333.69368,N,00128.74310,E,1,04,4.70,157.2,M,53.8,M,,*41
108 14 31 13 4333.6945700128.74197157.3ó 00128.74197 157.3 1101100111 1101100111 1100010101 1111010100 10000100110 1100111001 1101101100 10000010010 1 1101101111 1000110101 1010001001 1100011100 1110101011 1101110010 1101011000 1101110001 1101100100 25.938 43.297 998.95 109802 17 15 14 60 51 3 $GNGGA,143113.00,4333.69457,N,00128.74197,E,1,04,4.70,157.3,M,53.8,M,,*47
109 14 31 14 4333.6947100128.74098157.4ó 00128.74098 157.4 1101100111 1101100111 1100010100 1111010111 10000101001 1100111000 1101101111 10000010011 1 1101101111 1000110011 1010001010 1100010111 1110101001 1101110110 1101011010 1101110010 1101100011 25.938 43.381 998.94 110801 16 15 15 59 51 3 $GNGGA,143114.00,4333.69471,N,00128.74098,E,1,04,4.70,157.4,M,53.8,M,,*4D
110 14 31 15 4333.6961600128.74142157.3ó 00128.74142 157.3 1101100111 1101100111 1100010010 1111010100 10000100100 1100111010 1101101000 10000010101 1 1101101111 1000110010 1010001011 1100011101 1110101011 1101111001 1101011101 1101101001 1101011101 25.938 43.450 998.94 111801 16 16 14 60 51 3 $GNGGA,143115.00,4333.69616,N,00128.74142,E,1,04,4.70,157.3,M,53.8,M,,*4E
111 14 31 16 4333.6968700128.74058157.3ó 00128.74058 157.3 1101100111 1101100111 1100010010 1111001101 10000100010 1100110111 1101101100 10000011110 1 1101101111 1000110000 1010000111 1100011010 1110101110 1101110010 1101011010 1101110010 1101100010 25.938 43.473 998.94 112797 17 14 13 60 50 4 $GNGGA,143116.00,4333.69687,N,00128.74058,E,1,04,4.71,157.3,M,53.8,M,,*4E
112 14 31 17 4333.6977000128.74076157.2ó 00128.74076 157.2 1101100111 1101100111 1100010011 1111001100 10000100001 1100110010 1101100110 10000011100 1 1101101111 1000110001 1010000111 1100011100 1110101101 1101111001 1101011011 1101101001 1101010010 25.875 43.480 998.94 113800 16 15 13 58 52 4 $GNGGA,143117.00,4333.69770,N,00128.74076,E,1,04,4.71,157.2,M,53.8,M,,*4B
