id HH MM SS longitude latitude altitude adc_1_ch0 adc_1_ch1 adc_1_ch2 adc_1_ch3 adc_1_ch4 adc_1_ch5 adc_1_ch6 adc_1_ch7 adc_1_ch8 adc_2_ch0 adc_2_ch1 adc_2_ch2 adc_2_ch3 adc_2_ch4 adc_2_ch5 adc_2_ch6 adc_2_ch7 adc_2_ch8 temp hum pres t_prog t_gps t_split t_adc t_temp t_hum t_pres trame_gga
1 14 31 22 4333.6982200128.73818157.3ó 00128.73818 157.3 1101100111 1101100111 1100010010 1111010000 10000100011 1100110101 1101101000 10000011000 1 1101101111 1000111010 1010001101 1100100111 1110110100 1101101110 1101010100 1101110001 1101100000 25.938 43.313 795.83 3360 16 14 14 59 50 4 $GNGGA,143122.00,4333.69822,N,00128.73818,E,1,04,4.71,157.3,M,53.8,M,,*43
2 14 31 23 4333.6996800128.73913157.4ó 00128.73913 157.4 1101100111 1101100111 1100010100 1111010011 10000100101 1100111010 1101101111 10000010100 1 1101101111 1000110111 1010001011 1100100011 1110110010 1101110101 1101010100 1101101010 1101011000 25.938 43.351 998.98 4362 15 16 14 59 52 3 $GNGGA,143123.00,4333.69968,N,00128.73913,E,1,04,4.71,157.4,M,53.8,M,,*40
3 14 31 24 4333.6996000128.73957157.4ó 00128.73957 157.4 1101100111 1101100111 1100010101 1111010001 10000100011 1100110100 1101101001 10000010110 1 1101101111 1000111000 1010001011 1100101011 1110110011 1101101111 1101010100 1101101011 1101011000 25.875 43.381 998.96 5358 17 14 13 60 51 4 $GNGGA,143124.00,4333.69960,N,00128.73957,E,1,04,4.71,157.4,M,53.8,M,,*4F
4 14 31 25 4333.6995500128.73912157.4ó 00128.73912 157.4 1101100111 1101100111 1100010011 1111001110 10000100000 1100110011 1101101010 10000010001 1 1101101111 1000111010 1010001101 1100101010 1110110010 1101110000 1101011000 1101101110 1101011000 25.875 43.442 998.96 6358 16 15 14 58 51 4 $GNGGA,143125.00,4333.69955,N,00128.73912,E,1,04,4.71,157.4,M,53.8,M,,*49
5 14 31 26 4333.6975100128.73855157.4ó 00128.73855 157.4 1101100111 1101100111 1100010111 1111010100 10000100110 1100110011 1101100100 10000010011 1 1101101111 1000111110 1010001110 1100101001 1110110000 1101110000 1101010011 1101101110 1101011010 25.938 43.473 998.95 7357 17 15 14 60 51 3 $GNGGA,143126.00,4333.69751,N,00128.73855,E,1,04,4.71,157.4,M,53.8,M,,*42
6 14 31 27 4333.6979100128.73876157.4ó 00128.73876 157.4 1101100111 1101100111 1100010111 1111010101 10000100010 1100110110 1101101010 10000010010 1 1101101111 1000111000 1010001100 1100101111 1110110011 1101110001 1101010011 1101110010 1101100001 25.875 43.450 998.94 8353 16 14 14 59 50 4 $GNGGA,143127.00,4333.69791,N,00128.73876,E,1,04,4.71,157.4,M,53.8,M,,*4E
7 14 31 28 4333.6967800128.73693157.5ó 00128.73693 157.5 1101100111 1101100111 1100010100 1111010001 10000100010 1100110011 1101100110 10000010101 1 1101101111 1000111100 1010001100 1100101001 1110110010 1101101101 1101010001 1101110001 1101011110 25.938 43.419 998.92 9355 16 15 13 58 52 4 $GNGGA,143128.00,4333.69678,N,00128.73693,E,1,04,4.71,157.5,M,53.8,M,,*43
8 14 31 29 4333.6967000128.73658157.7ó 00128.73658 157.7 1101100111 1101100111 1100010001 1111010000 10000100011 1100110001 1101100000 10000010110 1 1101101111 1000111001 1010001111 1100101101 1110110101 1101101011 1101010010 1101100010 1101010110 25.875 43.404 998.92 10353 17 14 13 60 50 4 $GNGGA,143129.00,4333.69670,N,00128.73658,E,1,04,4.71,157.7,M,53.8,M,,*4F
9 14 31 30 4333.6961800128.73648157.8ó 00128.73648 157.8 1101100111 1101100111 1100010001 1111010110 10000101000 1100111001 1101101011 10000010011 1 1101101111 1000111011 1010001111 1100101000 1110110111 1101110000 1101010110 1101101000 1101001111 25.875 43.366 998.93 11353 16 15 13 58 51 5 $GNGGA,143130.00,4333.69618,N,00128.73648,E,1,04,4.71,157.8,M,53.8,M,,*47
10 14 31 31 4333.6961000128.73621157.9ó 00128.73621 157.9 1101100111 1101100111 1100010110 1111010000 10000100000 1100110101 1101101010 10000010110 1 1101101111 1000111100 1010001111 1100101011 1110110110 1101110000 1101010001 1101101011 1101011011 25.938 43.397 998.93 12351 17 14 13 59 51 4 $GNGGA,143131.00,4333.69610,N,00128.73621,E,1,04,4.71,157.9,M,53.8,M,,*40
11 14 31 32 4333.6961100128.73670158.1ó 00128.73670 158.1 1101100111 1101100111 1100010100 1111010010 10000100100 1100110111 1101101101 10000010001 1 1101101111 1000111010 1010001011 1100110000 1110111000 1101101110 1101010100 1101101101 1101010100 25.875 43.450 998.94 13349 16 14 14 59 50 4 $GNGGA,143132.00,4333.69611,N,00128.73670,E,1,04,4.71,158.1,M,53.8,M,,*41
12 14 31 33 4333.6968100128.73770158.2ó 00128.73770 158.2 1101100111 1101100111 1100010010 1111100000 10000100111 1100111001 1101101101 10000001010 1 1101101111 1000111101 1010001101 1100110010 1110111001 1101110010 1101011100 1101101000 1101010111 25.938 43.381 998.94 14349 16 15 13 58 52 4 $GNGGA,143133.00,4333.69681,N,00128.73770,E,1,04,4.72,158.2,M,53.8,M,,*48
13 14 31 34 4333.6966100128.73765158.2ó 00128.73765 158.2 1101100111 1101100111 1100010111 1111011000 10000100111 1100110000 1101100010 10000010000 1 1101101111 1000111011 1010001110 1100101011 1110110101 1101101010 1101001110 1101100011 1101010101 25.938 43.427 998.95 15346 17 14 13 60 50 4 $GNGGA,143134.00,4333.69661,N,00128.73765,E,1,04,4.72,158.2,M,53.8,M,,*45
14 14 31 35 4333.6975900128.73832158.2ó 00128.73832 158.2 1101100111 1101100111 1100010011 1111011100 10000100101 1100110111 1101101000 10000001111 1 1101101111 1001000001 1010010010 1100110001 1110110111 1101101111 1101010010 1101100110 1101010101 25.938 43.381 998.94 16348 16 16 14 59 52 3 $GNGGA,143135.00,4333.69759,N,00128.73832,E,1,04,4.72,158.2,M,53.8,M,,*43
15 14 31 36 4333.6963200128.73818158.2ó 00128.73818 158.2 1101100111 1101100111 1100010110 1111010011 10000101000 1100110010 1101100100 10000001101 1 1101101111 1001000001 1010010011 1100111011 1110111000 1101101100 1101010110 1101100011 1101010110 25.938 43.259 998.94 17346 17 14 13 60 51 4 $GNGGA,143136.00,4333.69632,N,00128.73818,E,1,04,4.72,158.2,M,53.8,M,,*44
16 14 31 37 4333.6965200128.73822158.2ó 00128.73822 158.2 1101100111 1101100111 1100010101 1111011001 10000100011 1100111001 1101101110 10000010001 1 1101101111 1001000011 1010010011 1100110011 1110111000 1101101110 1101010000 1101100110 1101010001 25.875 43.145 998.94 18345 16 15 15 59 51 3 $GNGGA,143137.00,4333.69652,N,00128.73822,E,1,04,4.72,158.2,M,53.8,M,,*4A
17 14 31 38 4333.6964200128.73797158.2ó 00128.73797 158.2 1101100111 1101100111 1100010110 1111011001 10000100001 1100110000 1101100111 10000010100 1 1101101111 1001000100 1010010011 1100111101 1110111010 1101110010 1101011001 1101101000 1101010110 25.875 43.229 998.92 19344 17 15 14 60 51 3 $GNGGA,143138.00,4333.69642,N,00128.73797,E,1,04,4.72,158.2,M,53.8,M,,*45
18 14 31 39 4333.6960600128.73756158.2ó 00128.73756 158.2 1101100111 1101100111 1100010010 1111011010 10000100100 1100110011 1101100100 10000001000 1 1101101111 1001001011 1010011001 1101000110 1110111110 1101101100 1101010001 1101100010 1101010000 25.938 43.351 998.94 20342 16 14 14 58 51 4 $GNGGA,143139.00,4333.69606,N,00128.73756,E,1,04,4.72,158.2,M,53.8,M,,*49
19 14 31 40 4333.6960800128.73669158.3ó 00128.73669 158.3 1101100111 1101100111 1100010110 1111011001 10000100110 1100110000 1101100101 10000001101 1 1101101111 1001000011 1010010010 1100111101 1110111011 1101110010 1101010101 1101101001 1101001110 25.938 43.427 998.93 21342 16 15 13 59 52 4 $GNGGA,143140.00,4333.69608,N,00128.73669,E,1,04,4.72,158.3,M,53.8,M,,*45
20 14 31 41 4333.6960000128.73654158.4ó 00128.73654 158.4 1101100111 1101100111 1100010110 1111011100 10000100101 1100111000 1101110000 10000001001 1 1101101111 1001000011 1010010000 1100110011 1110111001 1101101101 1101010010 1101101010 1101010100 25.938 43.473 998.93 22341 16 15 14 60 50 4 $GNGGA,143141.00,4333.69600,N,00128.73654,E,1,04,4.72,158.4,M,53.8,M,,*45
21 14 31 42 4333.6960900128.73638158.5ó 00128.73638 158.5 1101100111 1101100111 1100010110 1111010011 10000100011 1100110110 1101101001 10000001001 1 1101101111 1001011001 1010011001 1101000001 1110111010 1101101001 1101010010 1101100101 1101010001 25.938 43.572 998.93 23339 16 15 14 59 50 4 $GNGGA,143142.00,4333.69609,N,00128.73638,E,1,04,4.72,158.5,M,53.8,M,,*44
22 14 31 43 4333.6963200128.73682158.8ó 00128.73682 158.8 1101100111 1101100111 1100010101 1111011000 10000100110 1100101101 1101100001 10000001000 1 1101101111 1001100111 1010010100 1101010100 1110111101 1101100011 1101001111 1101101011 1101010111 25.938 43.519 998.95 24338 17 14 13 60 50 4 $GNGGA,143143.00,4333.69632,N,00128.73682,E,1,04,4.72,158.8,M,53.8,M,,*41
23 14 31 44 4333.6961900128.73648158.8ó 00128.73648 158.8 1101100111 1101100111 1100010100 1111011101 10000100100 1100110000 1101100111 10000001101 1 1101101111 1001110101 1010010011 1101111000 1110111100 1101100110 1101010011 1101100110 1101011100 25.938 43.465 998.94 25339 16 14 14 59 50 4 $GNGGA,143144.00,4333.69619,N,00128.73648,E,1,04,4.72,158.8,M,53.8,M,,*49
24 14 31 45 4333.6961200128.73596159.0ó 00128.73596 159.0 1101100111 1101100111 1100010101 1111001111 10000100001 1100101110 1101100011 10000000110 1 1101101111 1010000111 1010010100 1110100101 1110111111 1101100011 1101010001 1101100110 1101010000 25.938 43.427 998.93 26335 16 15 13 59 51 4 $GNGGA,143145.00,4333.69612,N,00128.73596,E,1,04,4.72,159.0,M,53.8,M,,*4A
25 14 31 46 4333.6952300128.73545158.9ó 00128.73545 158.9 1101100111 1101100111 1100010010 1111011011 10000100110 1100110010 1101101010 10000010110 1 1101101111 1010010000 1010010101 1111001011 1110111100 1101100110 1101010110 1101100001 1101001111 25.938 43.404 998.92 27336 17 15 14 60 51 3 $GNGGA,143146.00,4333.69523,N,00128.73545,E,1,04,4.72,158.9,M,53.8,M,,*4E
26 14 31 47 4333.6942700128.73355159.1ó 00128.73355 159.1 1101100111 1101100111 1100010101 1111011010 10000100100 1100111001 1101101010 10000010101 1 1101101111 1010010111 1010010111 1111111000 1111000000 1101011010 1101010000 1101110100 1101100011 25.938 43.358 998.93 28335 16 15 13 58 51 5 $GNGGA,143147.00,4333.69427,N,00128.73355,E,1,04,4.72,159.1,M,53.8,M,,*44
27 14 31 48 4333.6940900128.73240159.2ó 00128.73240 159.2 1101100111 1101100111 1100010101 1111100001 10000100111 1100101011 1101100010 10000001111 1 1101101111 1010010111 1010011000 10000001100 1110111111 1101011010 1101010011 1101110001 1101011000 25.938 43.168 998.94 29334 17 15 14 60 51 3 $GNGGA,143148.00,4333.69409,N,00128.73240,E,1,04,4.72,159.2,M,53.8,M,,*41
28 14 31 49 4333.6951700128.73192159.4ó 00128.73192 159.4 1101100111 1101100111 1100010100 1111011110 10000100110 1100110001 1101100111 10000010010 1 1101101111 1010010010 1010010011 10000011001 1110111101 1101011010 1101011000 1101101010 1101001011 25.938 43.068 998.93 30332 16 14 14 59 50 4 $GNGGA,143149.00,4333.69517,N,00128.73192,E,1,04,4.73,159.4,M,53.8,M,,*45
29 14 31 50 4333.6944800128.73148159.5ó 00128.73148 159.5 1101100111 1101100111 1100010011 1111010110 10000100001 1100110010 1101101000 10000011110 1 1101101111 1010010000 1010010110 10000101101 1110111110 1101001101 1101001110 1101100101 1101001001 25.938 43.168 998.95 31331 16 15 13 60 50 4 $GNGGA,143150.00,4333.69448,N,00128.73148,E,1,04,4.73,159.5,M,53.8,M,,*40
30 14 31 51 4333.6943100128.73123159.6ó 00128.73123 159.6 1101100111 1101100111 1100010100 1111011101 10000100101 1100101010 1101100100 10000101010 1 1101101111 1010001100 1010010110 10000111010 1111000010 1101010001 1101001110 1101101111 1101010000 25.938 43.213 998.95 32331 16 14 14 59 50 4 $GNGGA,143151.00,4333.69431,N,00128.73123,E,1,04,4.73,159.6,M,53.8,M,,*41
31 14 31 52 4333.6947100128.73156159.9ó 00128.73156 159.9 1101100111 1101100111 1100010111 1111100001 10000100010 1100110010 1101101100 10000101110 1 1101101111 1010001010 1010010110 10000110000 1111000001 1101010001 1101010011 1101101101 1101001010 25.938 43.122 998.94 33330 16 15 13 59 51 4 $GNGGA,143152.00,4333.69471,N,00128.73156,E,1,04,4.73,159.9,M,53.8,M,,*4B
32 14 31 53 4333.6960200128.73346160.0ó 00128.73346 160.0 1101100111 1101100111 1100010011 1111100011 10000100100 1100101001 1101100110 10000110110 1 1101101111 1010000001 1010010101 10000100000 1110111111 1101010010 1101010001 1101110101 1101010011 25.938 43.000 998.93 34329 17 15 14 60 51 3 $GNGGA,143153.00,4333.69602,N,00128.73346,E,1,04,4.73,160.0,M,53.8,M,,*4C
33 14 31 54 4333.6958000128.73266160.0ó 00128.73266 160.0 1101100111 1101100111 1100010101 1111110000 10000101000 1100101011 1101101000 10001000010 1 1101101111 1001111110 1010011001 10000100010 1111000110 1101010101 1101010010 1101110010 1101001101 25.938 42.908 998.93 35329 16 16 15 59 51 3 $GNGGA,143154.00,4333.69580,N,00128.73266,E,1,04,4.73,160.0,M,53.8,M,,*41
34 14 31 55 4333.6963400128.73247160.2ó 00128.73247 160.2 1101100111 1101100111 1100010101 1111110100 10000101000 1100100101 1101100101 10001001110 1 1101101111 1001110100 1010011000 10000000111 1111000001 1101010000 1101001011 1101110001 1101010011 25.938 42.862 998.94 36327 17 15 14 60 51 3 $GNGGA,143155.00,4333.69634,N,00128.73247,E,1,04,4.73,160.2,M,53.8,M,,*4D
35 14 31 56 4333.6956200128.73144160.4ó 00128.73144 160.4 1101100111 1101100111 1100010101 1111111001 10000101000 1100100110 1101100000 10001011101 1 1101101111 1001110000 1010011010 1111110011 1111000010 1101011000 1101010101 1101111010 1101011011 25.938 42.878 998.94 37324 16 15 15 59 51 3 $GNGGA,143156.00,4333.69562,N,00128.73144,E,1,04,4.73,160.4,M,53.8,M,,*48
36 14 31 57 4333.6954600128.73160160.6ó 00128.73160 160.6 1101100111 1101100111 1100010100 10000000010 10000100110 1100100100 1101100011 10001011101 1 1101101111 1001101111 1010010110 1111011001 1111000010 1101010101 1101010000 1101110000 1101010000 25.938 42.885 998.93 38325 16 16 14 59 52 3 $GNGGA,143157.00,4333.69546,N,00128.73160,E,1,04,4.73,160.6,M,53.8,M,,*4B
37 14 31 58 4333.6959000128.73188160.9ó 00128.73188 160.9 1101100111 1101100111 1100011000 1111110110 10000100001 1100100011 1101100110 10001101110 1 1101101111 1001110000 1010011001 1111011110 1111000110 1101010111 1101010010 1101110100 1101000111 25.875 42.901 998.93 39323 17 14 13 60 50 4 $GNGGA,143158.00,4333.69590,N,00128.73188,E,1,04,4.73,160.9,M,53.8,M,,*46
38 14 31 59 4333.6965800128.73219161.2ó 00128.73219 161.2 1101100111 1101100111 1100010100 10000000010 10000101000 1100100000 1101100010 10001110111 1 1101101111 1001110011 1010011011 1111001100 1111000011 1101011001 1101010001 1101110111 1101001100 25.938 42.977 998.93 40323 16 15 13 59 50 5 $GNGGA,143159.00,4333.69658,N,00128.73219,E,1,04,4.73,161.2,M,53.8,M,,*41
39 14 32 00 4333.6971100128.73315161.3ó 00128.73315 161.3 1101100111 1101100111 1100010010 10000001100 10000101001 1100100011 1101100111 10010001000 1 1101101111 1001101100 1010011000 1111010010 1111001001 1101010110 1101001101 1101111000 1101010100 25.938 43.015 998.92 41322 17 15 14 60 51 3 $GNGGA,143200.00,4333.69711,N,00128.73315,E,1,04,4.73,161.3,M,53.8,M,,*4E
40 14 32 01 4333.6968600128.73258161.3ó 00128.73258 161.3 1101100111 1101100111 1100010111 10000001011 10000100010 1100100100 1101100000 10010001110 1 1101101111 1001100100 1010010111 1110111110 1111000111 1101010111 1101001111 1101110101 1101010000 25.938 42.954 998.93 42321 16 15 15 59 51 3 $GNGGA,143201.00,4333.69686,N,00128.73258,E,1,04,4.73,161.3,M,53.8,M,,*48
41 14 32 02 4333.6971700128.73313161.3ó 00128.73313 161.3 1101100111 1101100111 1100010110 10000001000 10000100110 1100100100 1101101001 10010011101 1 1101101111 1001100000 1010010111 1110110010 1111000110 1101010101 1101001011 1101110101 1101001101 25.875 42.931 998.92 43320 15 16 14 59 51 4 $GNGGA,143202.00,4333.69717,N,00128.73313,E,1,04,4.73,161.3,M,53.8,M,,*4C
42 14 32 03 4333.6979400128.73384161.5ó 00128.73384 161.5 1101100111 1101100111 1100010011 10000001100 10000100100 1100100101 1101100101 10010101011 1 1101101111 1001101001 1010011110 1110100100 1111000100 1101011100 1101010001 1101101111 1101001101 25.938 42.939 998.92 44317 17 15 14 60 51 3 $GNGGA,143203.00,4333.69794,N,00128.73384,E,1,04,4.73,161.5,M,53.8,M,,*4E
43 14 32 04 4333.6978200128.73348161.4ó 00128.73348 161.4 1101100111 1101100111 1100010100 10000001011 10000100110 1100100100 1101100111 10010110001 1 1101101111 1001011111 1010010111 1110100010 1111000111 1101011100 1101010000 1101111110 1101011001 25.938 42.931 998.91 45319 16 16 13 59 51 4 $GNGGA,143204.00,4333.69782,N,00128.73348,E,1,04,4.73,161.4,M,53.8,M,,*4F
44 14 32 05 4333.6982500128.73411161.4ó 00128.73411 161.4 1101100111 1101100111 1100011000 10000010011 10000101010 1100100010 1101100100 10010111110 1 1101101111 1001100001 1010011100 1110010110 1111000110 1101010110 1101001010 1101111010 1101010011 25.938 42.916 998.92 46317 17 15 14 60 51 3 $GNGGA,143205.00,4333.69825,N,00128.73411,E,1,04,4.74,161.4,M,53.8,M,,*40
45 14 32 06 4333.6986000128.73416161.5ó 00128.73416 161.5 1101100111 1101100111 1100010111 10000001011 10000101000 1100100101 1101100110 10010111101 1 1101101111 1001010100 1010011010 1110010010 1111001000 1101011000 1101001101 1101111010 1101010101 25.938 42.901 998.92 47316 15 15 15 59 50 4 $GNGGA,143206.00,4333.69860,N,00128.73416,E,1,04,4.74,161.5,M,53.8,M,,*44
46 14 32 07 4333.6982200128.73496161.4ó 00128.73496 161.4 1101100111 1101100111 1100010101 10000010000 10000100111 1100101001 1101100100 10011001011 1 1101101111 1001001000 1010011011 1101110110 1111001001 1101011011 1101010001 1101101111 1101000111 25.938 42.908 998.92 48314 17 15 14 60 51 3 $GNGGA,143207.00,4333.69822,N,00128.73496,E,1,04,4.74,161.4,M,53.8,M,,*4A
47 14 32 08 4333.6975200128.73412161.6ó 00128.73412 161.6 1101100111 1101100111 1100010101 10000001110 10000101000 1100100000 1101011101 10011001101 1 1101101111 1001000011 1010011011 1101011101 1111000101 1101011010 1101001100 1101110011 1101001101 25.938 42.916 998.90 49313 16 14 14 59 50 4 $GNGGA,143208.00,4333.69752,N,00128.73412,E,1,04,4.74,161.6,M,53.8,M,,*43
48 14 32 09 4333.6977100128.73499161.8ó 00128.73499 161.8 1101100111 1101100111 1100010110 10000000111 10000100001 1100100011 1101100011 10011011100 1 1101101111 1001001011 1010011010 1101001000 1111001000 1101100100 1101001110 1101110111 1101001101 25.875 42.840 998.89 50313 16 15 13 59 51 4 $GNGGA,143209.00,4333.69771,N,00128.73499,E,1,04,4.74,161.8,M,53.8,M,,*4E
49 14 32 10 4333.6983500128.73508162.1ó 00128.73508 162.1 1101100111 1101100111 1100011001 10000010101 10000101100 1100101001 1101101001 10011011011 1 1101101111 1001010010 1010011011 1101001001 1111001001 1101100001 1101001111 1101110101 1101010010 25.938 42.779 998.90 51312 17 15 14 60 51 3 $GNGGA,143210.00,4333.69835,N,00128.73508,E,1,04,4.74,162.1,M,53.8,M,,*4A
50 14 32 11 4333.6983800128.73593162.1ó 00128.73593 162.1 1101100111 1101100111 1100001111 10000001100 10000101000 1100101000 1101100101 10011100001 1 1101101111 1001010001 1010011010 1101000111 1111001010 1101100011 1101001111 1101111001 1101001100 25.938 42.748 998.89 52311 16 15 14 59 50 4 $GNGGA,143211.00,4333.69838,N,00128.73593,E,1,04,4.74,162.1,M,53.8,M,,*44
51 14 32 12 4333.6986200128.73592162.0ó 00128.73592 162.0 1101100111 1101100111 1100010011 10000001101 10000100110 1100100101 1101100011 10011100110 1 1101101111 1001011100 1010100001 1101000110 1111001000 1101011101 1101001011 1101110110 1101011000 25.938 42.733 998.91 53310 17 15 14 60 51 3 $GNGGA,143212.00,4333.69862,N,00128.73592,E,1,04,4.74,162.0,M,53.8,M,,*48
52 14 32 13 4333.6983900128.73585161.9ó 00128.73585 161.9 1101100111 1101100111 1100010110 10000000110 10000100101 1100101101 1101101001 10011101010 1 1101101111 1001011011 1010011100 1101001100 1111001000 1101100101 1101010010 1101110101 1101001001 25.875 42.801 998.91 54308 16 14 14 58 51 4 $GNGGA,143213.00,4333.69839,N,00128.73585,E,1,04,4.74,161.9,M,53.8,M,,*4B
53 14 32 14 4333.6989000128.73715162.1ó 00128.73715 162.1 1101100111 1101100111 1100010101 10000001101 10000101011 1100101010 1101100110 10011100110 1 1101101111 1001011101 1010100000 1101001100 1111001001 1101100001 1101010011 1101110100 1101010011 25.938 42.733 998.90 55307 16 16 14 59 52 3 $GNGGA,143214.00,4333.69890,N,00128.73715,E,1,04,4.74,162.1,M,53.8,M,,*4F
54 14 32 15 4333.6991600128.73759162.2ó 00128.73759 162.2 1101100111 1101100111 1100010101 10000000110 10000101001 1100101111 1101100011 10011101101 1 1101101111 1001011001 1010100000 1101011101 1111001011 1101011101 1101001100 1101110000 1101001100 25.938 42.672 998.91 56307 17 15 14 60 51 3 $GNGGA,143215.00,4333.69916,N,00128.73759,E,1,04,4.74,162.2,M,53.8,M,,*4A
55 14 32 16 4333.6987800128.73705162.3ó 00128.73705 162.3 1101100111 1101100111 1100010100 10000000110 10000101000 1100101101 1101100011 10011101001 1 1101101111 1001011010 1010011011 1101010011 1111000111 1101100001 1101010010 1101101101 1101001100 25.938 42.626 998.92 57306 16 15 13 58 51 5 $GNGGA,143216.00,4333.69878,N,00128.73705,E,1,04,4.74,162.3,M,53.8,M,,*48
56 14 32 17 4333.6992200128.73786162.4ó 00128.73786 162.4 1101100111 1101100111 1100010001 1111110111 10000100101 1100101111 1101101000 10011101011 1 1101101111 1001011011 1010011101 1101100011 1111001011 1101100000 1101001100 1101101001 1101000101 25.938 42.634 998.92 58305 17 14 13 60 50 4 $GNGGA,143217.00,4333.69922,N,00128.73786,E,1,04,4.74,162.4,M,53.8,M,,*4B
57 14 32 18 4333.6995400128.73766162.6ó 00128.73766 162.6 1101100111 1101100111 1100010101 1111111100 10000101101 1100100111 1101011100 10011011111 1 1101101111 1001100011 1010100001 1101101100 1111001101 1101011111 1101001100 1101110000 1101001100 25.938 42.687 998.92 59304 16 15 15 59 51 3 $GNGGA,143218.00,4333.69954,N,00128.73766,E,1,04,4.74,162.6,M,53.8,M,,*49
58 14 32 19 4333.6992100128.73864162.9ó 00128.73864 162.9 1101100111 1101100111 1100010111 1111110111 10000100110 1100101111 1101100110 10011010111 1 1101101111 1001011001 1010100000 1101100001 1111001100 1101011110 1101001101 1101101011 1101000110 25.938 42.649 998.92 60304 17 15 14 60 51 3 $GNGGA,143219.00,4333.69921,N,00128.73864,E,1,04,4.74,162.9,M,53.8,M,,*48
59 14 32 20 4333.6986300128.73807162.8ó 00128.73807 162.8 1101100111 1101100111 1100010100 1111110011 10000100111 1100110010 1101101000 10011011101 1 1101101111 1001000110 1010011010 1101011011 1111001101 1101011100 1101000111 1101110001 1101001101 25.938 42.611 998.92 61302 16 15 15 59 51 3 $GNGGA,143220.00,4333.69863,N,00128.73807,E,1,04,4.74,162.8,M,53.8,M,,*41
60 14 32 21 4333.6980900128.73737162.8ó 00128.73737 162.8 1101100111 1101100111 1100010101 1111111000 10000101000 1100101000 1101100010 10011011011 1 1101101111 1001001001 1010100000 1101001110 1111001101 1101100001 1101001100 1101110110 1101001111 25.875 42.656 998.92 62302 16 15 13 59 51 4 $GNGGA,143221.00,4333.69809,N,00128.73737,E,1,04,4.75,162.8,M,53.8,M,,*41
61 14 32 22 4333.6977200128.73773162.7ó 00128.73773 162.7 1101100111 1101100111 1100010111 10000000010 10000101001 1100100101 1101011110 10011011010 1 1101101111 1001000101 1010011101 1101000100 1111001111 1101101001 1101010011 1101101010 1101001110 25.875 42.923 998.91 63300 17 15 14 60 51 3 $GNGGA,143222.00,4333.69772,N,00128.73773,E,1,04,4.75,162.7,M,53.8,M,,*4E
62 14 32 23 4333.6972100128.73720162.7ó 00128.73720 162.7 1101100111 1101100111 1100010111 1111110011 10000100111 1100101101 1101100100 10011010000 1 1101101111 1001000001 1010100001 1100110000 1111001100 1101101000 1101010010 1101101101 1101001011 25.938 42.946 998.90 64301 16 16 15 59 51 3 $GNGGA,143223.00,4333.69721,N,00128.73720,E,1,04,4.75,162.7,M,53.8,M,,*4F
63 14 32 24 4333.6963300128.73657162.6ó 00128.73657 162.6 1101100111 1101100111 1100010111 1111101111 10000100111 1100101101 1101100011 10011010100 1 1101101111 1001000000 1010100000 1100101000 1111001011 1101100010 1101001001 1101101111 1101001111 25.875 42.824 998.91 65299 17 14 13 59 51 4 $GNGGA,143224.00,4333.69633,N,00128.73657,E,1,04,4.75,162.6,M,53.8,M,,*4A
64 14 32 25 4333.6954900128.73542162.4ó 00128.73542 162.4 1101100111 1101100111 1100010101 1111111000 10000101110 1100101011 1101100001 10011001000 1 1101101111 1001001000 1010011111 1100011011 1111001101 1101101101 1101010000 1101101010 1101001001 25.938 42.710 998.90 66296 15 15 15 59 50 4 $GNGGA,143225.00,4333.69549,N,00128.73542,E,1,05,2.66,162.4,M,53.8,M,,*45
65 14 32 26 4333.6954800128.73675162.1ó 00128.73675 162.1 1101100111 1101100111 1100010100 1111110011 10000100111 1100101110 1101011111 10011000111 1 1101101111 1001010000 1010011110 1100100101 1111001111 1101100011 1101001001 1101100011 1101000111 25.938 42.634 998.90 67297 16 16 14 59 52 3 $GNGGA,143226.00,4333.69548,N,00128.73675,E,1,05,2.66,162.1,M,53.8,M,,*45
66 14 32 27 4333.6964700128.73778162.3ó 00128.73778 162.3 1101100111 1101100111 1100010110 1111101100 10000101001 1100110010 1101101100 10011000111 1 1101101111 1001010011 1010011111 1100101011 1111001110 1101100110 1101001110 1101101100 1101001101 25.938 42.573 998.89 68296 16 15 14 60 50 4 $GNGGA,143227.00,4333.69647,N,00128.73778,E,1,05,2.66,162.3,M,53.8,M,,*46
67 14 32 28 4333.6967300128.73870162.2ó 00128.73870 162.2 1101100111 1101100111 1100011001 1111101101 10000101000 1100101010 1101011110 10011001001 1 1101101111 1001010011 1010011111 1100111000 1111001111 1101100011 1101001001 1101101000 1101001110 25.938 42.534 998.90 69295 16 16 14 59 51 4 $GNGGA,143228.00,4333.69673,N,00128.73870,E,1,05,2.66,162.2,M,53.8,M,,*48
68 14 32 29 4333.6960200128.73906161.8ó 00128.73906 161.8 1101100111 1101100111 1100010111 1111100111 10000101000 1100110001 1101100100 10011000001 1 1101101111 1001010010 1010011110 1101000011 1111010001 1101100010 1101001001 1101100101 1101001111 25.875 42.512 998.91 70294 17 15 14 60 51 3 $GNGGA,143229.00,4333.69602,N,00128.73906,E,1,05,2.66,161.8,M,53.8,M,,*46
69 14 32 30 4333.6952600128.73927161.6ó 00128.73927 161.6 1101100111 1101100111 1100010011 1111011101 10000100100 1100101011 1101011110 10010111001 1 1101101111 1001001111 1010011110 1100111010 1111001110 1101011111 1101001100 1101101001 1101010100 25.938 42.527 998.91 71292 16 15 14 59 50 4 $GNGGA,143230.00,4333.69526,N,00128.73927,E,1,05,2.66,161.6,M,53.8,M,,*46
70 14 32 31 4333.6949000128.73936161.3ó 00128.73936 161.3 1101100111 1101100111 1100010100 1111011111 10000100110 1100110001 1101100111 10010111110 1 1101101111 1001100101 1010100110 1101001100 1111010011 1101100011 1101001010 1101100011 1101001001 25.938 42.534 998.92 72292 17 14 13 59 51 4 $GNGGA,143231.00,4333.69490,N,00128.73936,E,1,05,2.67,161.3,M,53.8,M,,*4F
71 14 32 32 4333.6945000128.73932161.0ó 00128.73932 161.0 1101100111 1101100111 1100010101 1111100110 10000101001 1100110010 1101100110 10010110111 1 1101101111 1001011011 1010011100 1101001111 1111001111 1101100000 1101001100 1101101000 1101001111 25.938 42.542 998.91 73290 16 15 15 59 51 3 $GNGGA,143232.00,4333.69450,N,00128.73932,E,1,05,2.67,161.0,M,53.8,M,,*47
72 14 32 33 4333.6946500128.73982160.8ó 00128.73982 160.8 1101100111 1101100111 1100010100 1111100001 10000101100 1100111010 1101101101 10010101011 1 1101101111 1001101000 1010100001 1101011111 1111010000 1101010111 1101000100 1101100101 1101000011 25.938 42.573 998.90 74290 16 15 13 58 52 4 $GNGGA,143233.00,4333.69465,N,00128.73982,E,1,05,2.67,160.8,M,53.8,M,,*42
73 14 32 34 4333.6943400128.73997160.6ó 00128.73997 160.6 1101100111 1101100111 1100011011 1111101101 10000101011 1100110011 1101100100 10010101101 1 1101101111 1001101010 1010100001 1101110000 1111010001 1101100011 1101001111 1101100000 1101001000 25.938 42.748 998.90 75288 17 15 14 60 51 3 $GNGGA,143234.00,4333.69434,N,00128.73997,E,1,05,2.67,160.6,M,53.8,M,,*4B
74 14 32 35 4333.6934000128.74008160.5ó 00128.74008 160.5 1101100111 1101100111 1100010111 1111010111 10000100001 1100101111 1101100101 10010100011 1 1101101111 1001101110 1010100000 1101111010 1111010001 1101011100 1101001000 1101101000 1101000011 25.875 42.923 998.90 76290 16 15 15 59 51 3 $GNGGA,143235.00,4333.69340,N,00128.74008,E,1,05,2.67,160.5,M,53.8,M,,*45
75 14 32 36 4333.6930900128.73950160.5ó 00128.73950 160.5 1101100111 1101100111 1100010011 1111011011 10000101010 1100101111 1101100101 10010101011 1 1101101111 1001110011 1010100100 1110000011 1111010000 1101011101 1101001010 1101100010 1101001001 25.875 43.038 998.89 77285 17 14 13 59 51 4 $GNGGA,143236.00,4333.69309,N,00128.73950,E,1,04,4.75,160.5,M,53.8,M,,*4C
76 14 32 37 4333.6928400128.73898160.5ó 00128.73898 160.5 1101100111 1101100111 1100010111 1111011111 10000100111 1100101110 1101100100 10010100110 1 1101101111 1001111000 1010100110 1110010010 1111010001 1101011000 1101001011 1101100110 1101001100 25.938 43.129 998.89 78286 16 15 15 59 51 3 $GNGGA,143237.00,4333.69284,N,00128.73898,E,1,04,4.76,160.5,M,53.8,M,,*4F
77 14 32 38 4333.6925600128.73883160.6ó 00128.73883 160.6 1101100111 1101100111 1100010110 1111011100 10000101010 1100101011 1101100000 10010100001 1 1101101111 1001101110 1010011110 1110100010 1111010010 1101011010 1101001010 1101100010 1101000001 25.938 43.198 998.89 79285 16 15 13 59 51 4 $GNGGA,143238.00,4333.69256,N,00128.73883,E,1,04,4.76,160.6,M,53.8,M,,*46
78 14 32 39 4333.6921000128.73887160.6ó 00128.73887 160.6 1101100111 1101100111 1100010111 1111100110 10000101010 1100101111 1101100110 10010100100 1 1101101111 1001101111 1010100010 1110100100 1111010001 1101011101 1101001011 1101100100 1101001010 25.938 43.252 998.88 80284 17 15 14 60 51 3 $GNGGA,143239.00,4333.69210,N,00128.73887,E,1,05,2.67,160.6,M,53.8,M,,*46
79 14 32 40 4333.6930300128.73920160.4ó 00128.73920 160.4 1101100111 1101100111 1100010111 1111011111 10000101000 1100101000 1101100011 10010101010 1 1101101111 1001110000 1010100001 1110101010 1111010011 1101010110 1101001010 1101011010 1101000010 25.938 43.206 998.89 81283 16 15 13 59 50 5 $GNGGA,143240.00,4333.69303,N,00128.73920,E,1,05,2.67,160.4,M,53.8,M,,*45
80 14 32 41 4333.6923900128.74006159.8ó 00128.74006 159.8 1101100111 1101100111 1100010110 1111100010 10000101101 1100101111 1101100010 10010011111 1 1101101111 1001110000 1010100011 1110100101 1111010010 1101011000 1101001110 1101101100 1101001000 25.938 43.160 998.88 82281 17 14 13 60 50 4 $GNGGA,143241.00,4333.69239,N,00128.74006,E,1,05,2.67,159.8,M,53.8,M,,*40
81 14 32 42 4333.6912300128.73973159.4ó 00128.73973 159.4 1101100111 1101100111 1100010110 1111101011 10000101101 1100101010 1101100101 10010101100 1 1101101111 1001100111 1010100101 1110100100 1111010101 1101011110 1101010001 1101101000 1101001000 25.938 43.183 998.89 83280 16 15 15 59 51 3 $GNGGA,143242.00,4333.69123,N,00128.73973,E,1,05,2.67,159.4,M,53.8,M,,*4B
82 14 32 43 4333.6899800128.74006159.2ó 00128.74006 159.2 1101100111 1101100111 1100011010 1111100101 10000101000 1100101110 1101100111 10010100100 1 1101101111 1001100100 1010100011 1110010111 1111010101 1101011010 1101001011 1101101100 1101001001 25.875 43.129 998.89 84279 15 16 14 59 52 3 $GNGGA,143243.00,4333.68998,N,00128.74006,E,1,05,2.67,159.2,M,53.8,M,,*49
83 14 32 44 4333.6894500128.74037159.2ó 00128.74037 159.2 1101100111 1101100111 1100010111 1111101011 10000101110 1100110100 1101110001 10010101011 1 1101101111 1001100101 1010100011 1110001001 1111010100 1101011100 1101001100 1101100010 1101000001 25.875 43.145 998.89 85280 16 15 15 59 51 3 $GNGGA,143244.00,4333.68945,N,00128.74037,E,1,04,4.76,159.2,M,53.8,M,,*4B
84 14 32 45 4333.6889200128.74053158.6ó 00128.74053 158.6 1101100111 1101100111 1100010110 1111101010 10000100111 1100101011 1101100101 10010101000 1 1101101111 1001011110 1010100011 1110001000 1111010011 1101011110 1101000110 1101101100 1101001000 25.938 43.206 998.89 86278 16 15 13 59 51 4 $GNGGA,143245.00,4333.68892,N,00128.74053,E,1,03,4.39,158.6,M,53.8,M,,*4A
85 14 32 46 4333.6885700128.74096158.5ó 00128.74096 158.5 1101100111 1101100111 1100010111 1111101010 10000101000 1100101011 1101100011 10010101111 1 1101101111 1001100000 1010100110 1101110101 1111010100 1101100001 1101001010 1101011011 1101000000 25.938 43.107 998.89 87276 17 15 14 60 51 3 $GNGGA,143246.00,4333.68857,N,00128.74096,E,1,04,4.76,158.5,M,53.8,M,,*46
86 14 32 47 4333.6880200128.74128158.3ó 00128.74128 158.3 1101100111 1101100111 1100010101 1111101000 10000100110 1100101011 1101100001 10010110101 1 1101101111 1001100000 1010100011 1101111001 1111010111 1101100001 1101001100 1101100101 1101001001 25.938 42.969 998.89 88275 16 14 15 59 51 3 $GNGGA,143247.00,4333.68802,N,00128.74128,E,1,04,4.76,158.3,M,53.8,M,,*45
87 14 32 48 4333.6865400128.74149158.2ó 00128.74149 158.2 1101100111 1101100111 1100010101 1111101111 10000101101 1100101001 1101100011 10010111010 1 1101101111 1001100010 1010100111 1101110100 1111010111 1101011101 1101001101 1101011111 1101000111 25.875 42.870 998.89 89274 17 14 13 59 51 4 $GNGGA,143248.00,4333.68654,N,00128.74149,E,1,04,4.76,158.2,M,53.8,M,,*41
88 14 32 49 4333.6864400128.74063158.1ó 00128.74063 158.1 1101100111 1101100111 1100010110 1111101111 10000101100 1100101001 1101100000 10010111010 1 1101101111 1001011010 1010100100 1101101010 1111010110 1101100010 1101001010 1101100011 1101000110 25.938 42.817 998.89 90273 16 15 15 59 51 3 $GNGGA,143249.00,4333.68644,N,00128.74063,E,1,04,4.76,158.1,M,53.8,M,,*4B
89 14 32 50 4333.6863400128.74105158.0ó 00128.74105 158.0 1101100111 1101100111 1100010100 1111101010 10000101010 1100101100 1101100101 10010111110 1 1101101111 1001011011 1010100100 1101100101 1111010111 1101100010 1101001001 1101101111 1101001100 25.938 42.779 998.88 91273 16 16 14 59 52 3 $GNGGA,143250.00,4333.68634,N,00128.74105,E,1,04,4.76,158.0,M,53.8,M,,*44
