id HH MM SS longitude latitude altitude adc_1_ch0 adc_1_ch1 adc_1_ch2 adc_1_ch3 adc_1_ch4 adc_1_ch5 adc_1_ch6 adc_1_ch7 adc_1_ch8 adc_2_ch0 adc_2_ch1 adc_2_ch2 adc_2_ch3 adc_2_ch4 adc_2_ch5 adc_2_ch6 adc_2_ch7 adc_2_ch8 temp hum pres t_prog t_gps t_split t_adc t_temp t_hum t_pres trame_gga
1 14 33 07 4333.6802100128.71981162.8ó 00128.71981 162.8 1101100111 1101100111 1011111010 1100010110 1111101000 10000101001 1100101110 1101100100 0 1101101111 1001101101 1010100101 1110010011 1111011111 1101011100 1101001001 1101100100 1100111101 25.938 43.259 795.83 3351 17 15 14 60 51 3 $GNGGA,143307.00,4333.68021,N,00128.71981,E,1,06,1.21,162.8,M,53.8,M,,*40
2 14 33 08 4333.6779900128.71856162.7ó 00128.71856 162.7 0 1101100111 1011111001 1100010110 1111101111 10000101011 1100101001 1101100010 0 1101101111 1001111111 1010110001 1110100111 1111100100 1101011010 1101001000 1101100101 1101001000 25.875 43.389 998.90 4349 16 14 14 58 51 4 $GNGGA,143308.00,4333.67799,N,00128.71856,E,1,05,2.69,162.7,M,53.8,M,,*4C
3 14 33 09 4333.6762400128.71728162.8ó 00128.71728 162.8 0 1101100111 1011111010 1100011000 1111101000 10000100110 1100101101 1101100100 0 1101110000 1001101111 1010100010 1110010111 1111011100 1101011110 1101001001 1101100100 1101001000 25.938 43.381 998.89 5349 16 15 14 60 51 3 $GNGGA,143309.00,4333.67624,N,00128.71728,E,1,05,2.69,162.8,M,53.8,M,,*43
4 14 33 10 4333.6750200128.71604162.8ó 00128.71604 162.8 0 1101100111 1011111011 1100011010 1111101001 10000101000 1100101100 1101100110 0 1101101111 1001110110 1010100110 1110011101 1111011110 1101011101 1101001000 1101100101 1101000110 25.875 43.267 998.90 6347 16 14 14 58 51 4 $GNGGA,143310.00,4333.67502,N,00128.71604,E,1,05,2.69,162.8,M,53.8,M,,*43
5 14 33 11 4333.6759100128.71560163.0ó 00128.71560 163.0 0 1101101000 1011111001 1100010110 1111101000 10000101001 1100100111 1101100000 0 1101101111 1001111101 1010101010 1110011001 1111011100 1101011011 1101000110 1101101010 1101000001 25.875 43.099 998.90 7345 16 15 13 59 51 4 $GNGGA,143311.00,4333.67591,N,00128.71560,E,1,05,2.69,163.0,M,53.8,M,,*40
6 14 33 12 4333.6741600128.71242164.4ó 00128.71242 164.4 0 1101100111 1011111001 1100010110 1111110010 10000101011 1100101110 1101100100 0 1101110000 1010000001 1010100110 1110101011 1111011111 1101010111 1101001000 1101100101 1101001000 25.938 42.962 998.90 8343 16 15 14 60 51 3 $GNGGA,143312.00,4333.67416,N,00128.71242,E,1,06,1.21,164.4,M,53.8,M,,*45
7 14 33 13 4333.6717800128.71065165.6ó 00128.71065 165.6 0 1101100111 1011111100 1100011000 1111101111 10000101001 1100100111 1101011111 111111110111 1101101111 1010000000 1010101001 1111000000 1111100001 1101010111 1101001010 1101100110 1101000110 25.938 42.855 998.90 9345 15 16 15 59 50 4 $GNGGA,143313.00,4333.67178,N,00128.71065,E,1,06,1.21,165.6,M,53.8,M,,*4D
8 14 33 14 4333.6702100128.71071165.8ó 00128.71071 165.8 0 1101100111 1011111010 1100010110 1111110001 10000101010 1100100111 1101100000 0 1101101111 1001110111 1010100111 1110111001 1111011111 1101010010 1101000101 1101100101 1101000110 25.938 42.809 998.90 10342 17 15 14 60 51 3 $GNGGA,143314.00,4333.67021,N,00128.71071,E,1,05,2.69,165.8,M,53.8,M,,*40
9 14 33 15 4333.6706000128.71071166.0ó 00128.71071 166.0 0 1101100111 1011110111 1100010100 1111110011 10000101101 1100101010 1101011111 111111110111 1101101111 1001110010 1010100111 1110110111 1111100000 1101010100 1101000001 1101100100 1101000100 25.875 42.809 998.91 11341 16 15 14 59 50 4 $GNGGA,143315.00,4333.67060,N,00128.71071,E,1,05,2.69,166.0,M,53.8,M,,*4F
10 14 33 16 4333.6698700128.71102166.1ó 00128.71102 166.1 0 1101100111 1011111000 1100011000 1111110011 10000101011 1100101001 1101100011 111111110111 1101101111 1001101011 1010101010 1110100010 1111011110 1101011000 1101001001 1101100000 1100111100 25.938 42.832 998.90 12338 16 15 13 59 51 4 $GNGGA,143316.00,4333.66987,N,00128.71102,E,1,05,2.69,166.1,M,53.8,M,,*49
11 14 33 17 4333.6700800128.71127166.3ó 00128.71127 166.3 0 1101100111 1011111010 1100010111 1111110010 10000101001 1100101110 1101101001 111111110111 1101101111 1001100110 1010101100 1110010110 1111011101 1101011001 1101001000 1101100111 1101001001 25.938 42.916 998.91 13339 17 15 14 60 51 3 $GNGGA,143317.00,4333.67008,N,00128.71127,E,1,05,2.69,166.3,M,53.8,M,,*42
12 14 33 18 4333.6694900128.71160166.4ó 00128.71160 166.4 0 1101100111 1011111001 1100011001 1111101101 10000101001 1100101100 1101100110 0 1101101111 1001011010 1010100111 1110000100 1111011101 1101100000 1101001101 1101100110 1101000010 25.875 43.091 998.91 14339 16 15 13 58 51 5 $GNGGA,143318.00,4333.66949,N,00128.71160,E,1,05,2.69,166.4,M,53.8,M,,*44
13 14 33 19 4333.6693200128.71164166.4ó 00128.71164 166.4 0 1101100111 1011111001 1100010101 1111110101 10000101100 1100100011 1101100000 0 1101101111 1001100001 1010101100 1110000000 1111100000 1101011000 1101000101 1101101001 1101000010 25.938 43.076 998.90 15337 17 15 14 60 51 3 $GNGGA,143319.00,4333.66932,N,00128.71164,E,1,05,2.69,166.4,M,53.8,M,,*4D
14 14 33 20 4333.6690600128.71114166.5ó 00128.71114 166.5 0 1101100111 1011111010 1100010111 1111111000 10000101011 1100100100 1101011101 111111110111 1101101111 1001011101 1010101100 1101100111 1111011100 1101100000 1101001010 1101101001 1101001100 25.938 43.259 998.91 16336 16 14 14 58 51 4 $GNGGA,143320.00,4333.66906,N,00128.71114,E,1,05,2.70,166.5,M,53.8,M,,*4E
15 14 33 21 4333.6690700128.71057166.5ó 00128.71057 166.5 0 1101100111 1011111011 1100011001 1111111100 10000110000 1100101000 1101100011 111111110111 1101101111 1001011101 1010101100 1101011101 1111011011 1101011111 1101001001 1101101101 1101001001 25.938 43.297 998.91 17336 16 16 14 59 52 3 $GNGGA,143321.00,4333.66907,N,00128.71057,E,1,05,2.70,166.5,M,53.8,M,,*48
16 14 33 22 4333.6695700128.71194166.5ó 00128.71194 166.5 0 1101100111 1011111100 1100011000 1111111000 10000101010 1100101001 1101100110 0 1101101111 1001010111 1010101010 1101010101 1111011111 1101100110 1101000101 1101100010 1101001000 25.938 43.198 998.91 18335 16 15 15 59 51 3 $GNGGA,143322.00,4333.66957,N,00128.71194,E,1,06,2.20,166.5,M,53.8,M,,*46
17 14 33 23 4333.6694200128.71278166.4ó 00128.71278 166.4 0 1101100111 1011111100 1100010111 1111110100 10000101010 1100101011 1101100001 111111110111 1101101111 1001010111 1010101001 1101001011 1111100001 1101011010 1101000011 1101100010 1101000010 25.938 43.244 998.90 19332 16 16 14 59 51 4 $GNGGA,143323.00,4333.66942,N,00128.71278,E,1,06,2.20,166.4,M,53.8,M,,*43
18 14 33 24 4333.6696800128.71313166.4ó 00128.71313 166.4 0 1101100111 1011111011 1100011000 1111110111 10000101100 1100100111 1101100001 111111110111 1101101111 1001011101 1010101101 1101000000 1111011111 1101100011 1101000111 1101101000 1101000111 25.938 43.274 998.89 20332 17 15 14 60 51 3 $GNGGA,143324.00,4333.66968,N,00128.71313,E,1,06,2.20,166.4,M,53.8,M,,*40
19 14 33 25 4333.6695400128.71353166.3ó 00128.71353 166.3 0 1101100111 1011111000 1100010111 1111101101 10000101000 1100100101 1101100001 111111110111 1101101111 1001100011 1010101011 1101000110 1111100010 1101100011 1101000110 1101100100 1101000100 25.938 43.419 998.89 21330 16 14 14 59 50 4 $GNGGA,143325.00,4333.66954,N,00128.71353,E,1,06,2.20,166.3,M,53.8,M,,*4D
20 14 33 26 4333.6694800128.71395166.2ó 00128.71395 166.2 0 1101100111 1011111011 1100010110 1111110100 10000101111 1100101101 1101100100 0 1101101111 1001100011 1010101011 1101010000 1111100011 1101011111 1101000001 1101011110 1101000101 25.938 43.534 998.88 22330 15 15 14 60 51 3 $GNGGA,143326.00,4333.66948,N,00128.71395,E,1,06,2.20,166.2,M,53.8,M,,*48
21 14 33 27 4333.6699400128.71536166.0ó 00128.71536 166.0 0 1101100111 1011111110 1100011100 1111110001 10000101101 1100101001 1101100100 0 1101101111 1001100000 1010101011 1101001111 1111100010 1101100001 1101000111 1101011011 1100111100 25.938 43.541 998.89 23329 16 14 14 59 50 4 $GNGGA,143327.00,4333.66994,N,00128.71536,E,1,06,2.20,166.0,M,53.8,M,,*45
22 14 33 28 4333.6696400128.71564165.9ó 00128.71564 165.9 0 1101100111 1011111010 1100011001 1111101110 10000101001 1100100111 1101011101 111111110111 1101101111 1001011111 1010101101 1101001110 1111100001 1101011101 1101000100 1101011001 1101000000 25.938 43.740 998.89 24329 16 15 13 59 52 4 $GNGGA,143328.00,4333.66964,N,00128.71564,E,1,06,2.20,165.9,M,53.8,M,,*48
23 14 33 29 4333.6696500128.71590165.8ó 00128.71590 165.8 0 1101100111 1011110111 1100010110 1111101100 10000101000 1100110000 1101100101 111111110111 1101101111 1001011010 1010101101 1101010001 1111100100 1101100000 1101000110 1101100110 1101000110 25.938 44.014 998.89 25327 16 15 14 60 50 4 $GNGGA,143329.00,4333.66965,N,00128.71590,E,1,06,2.21,165.8,M,53.8,M,,*43
24 14 33 30 4333.6703000128.71660165.8ó 00128.71660 165.8 0 1101100111 1011111000 1100011000 1111011111 10000100100 1100101101 1101100001 111111110111 1101101111 1001001111 1010101011 1101001000 1111100101 1101100001 1101001011 1101100111 1101001000 25.938 44.198 998.89 26326 16 15 14 58 51 4 $GNGGA,143330.00,4333.67030,N,00128.71660,E,1,06,2.21,165.8,M,53.8,M,,*4F
25 14 33 31 4333.6706400128.71749165.7ó 00128.71749 165.7 0 1101100111 1011111000 1100010110 1111101001 10000101011 1100101010 1101100000 0 1101101111 1001001100 1010101011 1100110011 1111011111 1101100010 1101001000 1101011011 1101000000 25.938 44.320 998.89 27326 17 15 14 60 51 3 $GNGGA,143331.00,4333.67064,N,00128.71749,E,1,06,2.21,165.7,M,53.8,M,,*4A
26 14 33 32 4333.6706100128.71800165.6ó 00128.71800 165.6 0 1101100111 1011111001 1100011000 1111100011 10000100110 1100101110 1101100101 111111110111 1101101111 1001001100 1010101101 1100101111 1111100011 1101100100 1101000100 1101011101 1101000110 25.938 44.373 998.89 28324 16 14 14 58 51 4 $GNGGA,143332.00,4333.67061,N,00128.71800,E,1,06,2.21,165.6,M,53.8,M,,*4F
27 14 33 33 4333.6706400128.71879165.5ó 00128.71879 165.5 0 1101100111 1011111000 1100011000 1111101000 10000101001 1100101111 1101100111 111111110111 1101101111 1001001000 1010101010 1100100011 1111100001 1101100101 1101000010 1101011111 1101000100 25.938 44.381 998.89 29324 16 16 14 59 52 3 $GNGGA,143333.00,4333.67064,N,00128.71879,E,1,06,2.21,165.5,M,53.8,M,,*46
28 14 33 34 4333.6707200128.71925165.3ó 00128.71925 165.3 0 1101100111 1011110111 1100010110 1111101010 10000101000 1100101100 1101100011 111111110111 1101101111 1001000110 1010101010 1100010101 1111100010 1101100111 1101000111 1101100001 1101001001 25.875 44.457 998.89 30320 17 14 13 59 51 4 $GNGGA,143334.00,4333.67072,N,00128.71925,E,1,06,2.21,165.3,M,53.8,M,,*48
29 14 33 35 4333.6709300128.71976165.3ó 00128.71976 165.3 0 1101100111 1011111000 1100011001 1111100100 10000101001 1100110000 1101100010 0 1101101111 1001000110 1010101100 1100010011 1111100011 1101101000 1101000110 1101100000 1100111111 25.938 44.335 998.89 31321 16 15 13 58 51 5 $GNGGA,143335.00,4333.67093,N,00128.71976,E,1,06,2.21,165.3,M,53.8,M,,*40
30 14 33 36 4333.6703300128.71959165.1ó 00128.71959 165.1 0 1101100111 1011110110 1100010110 1111011110 10000101000 1100100111 1101011111 111111110111 1101101111 1001001101 1010101101 1100001001 1111100100 1101101100 1101001010 1101010111 1101000100 25.938 44.068 998.90 32320 17 15 14 60 51 3 $GNGGA,143336.00,4333.67033,N,00128.71959,E,1,06,2.21,165.1,M,53.8,M,,*46
31 14 33 37 4333.6692100128.71927164.9ó 00128.71927 164.9 0 1101100111 1011110110 1100010101 1111100010 10000101100 1100101001 1101100000 0 1101101111 1001010000 1010101110 1100010000 1111100101 1101101010 1101000110 1101010111 1100110110 25.938 43.931 998.89 33319 16 15 14 59 50 4 $GNGGA,143337.00,4333.66921,N,00128.71927,E,1,06,2.21,164.9,M,53.8,M,,*4C
32 14 33 38 4333.6686300128.71837164.8ó 00128.71837 164.8 0 1101100111 1011111001 1100011010 1111011010 10000101011 1100110000 1101100100 0 1101101111 1001001101 1010101101 1100000011 1111100010 1101101001 1101000110 1101011100 1101000010 25.938 43.824 998.88 34319 15 15 14 60 51 3 $GNGGA,143338.00,4333.66863,N,00128.71837,E,1,06,2.21,164.8,M,53.8,M,,*45
33 14 33 39 4333.6679400128.71769164.8ó 00128.71769 164.8 0 1101100111 1011111000 1100011000 1111011000 10000101011 1100101010 1101100010 0 1101101111 1001010000 1010101100 1100000101 1111100010 1101100111 1101000110 1101010101 1100111111 25.938 43.747 998.88 35317 16 14 14 58 51 4 $GNGGA,143339.00,4333.66794,N,00128.71769,E,1,06,2.21,164.8,M,53.8,M,,*47
34 14 33 40 4333.6686100128.71803164.5ó 00128.71803 164.5 0 1101100111 1011111010 1100011000 1111011111 10000101011 1100110101 1101101000 0 1101101111 1001001101 1010101011 1100010000 1111100100 1101100101 1101000011 1101010010 1100111011 25.938 43.656 998.87 36316 16 15 13 59 51 4 $GNGGA,143340.00,4333.66861,N,00128.71803,E,1,06,2.21,164.5,M,53.8,M,,*42
35 14 33 41 4333.6692100128.71865164.4ó 00128.71865 164.4 0 1101100111 1011110111 1100011000 1111011011 10000101100 1100110000 1101100000 0 1101101111 1001010011 1010101110 1100001110 1111100010 1101101011 1101000011 1101010111 1101000101 25.875 43.511 998.87 37314 17 14 13 60 50 4 $GNGGA,143341.00,4333.66921,N,00128.71865,E,1,06,2.21,164.4,M,53.8,M,,*47
36 14 33 42 4333.6697900128.71905164.1ó 00128.71905 164.1 0 1101100111 1011110011 1100010111 1111001111 10000101011 1100110010 1101100010 0 1101101111 1001010101 1010101101 1100010111 1111100100 1101100111 1101000100 1101010110 1101000011 25.938 43.305 998.87 38315 16 16 15 59 51 3 $GNGGA,143342.00,4333.66979,N,00128.71905,E,1,06,2.21,164.1,M,53.8,M,,*4B
37 14 33 43 4333.6699500128.71968163.8ó 00128.71968 163.8 0 1101100111 1011110101 1100011000 1111010000 10000101001 1100101110 1101100001 111111110111 1101101111 1001010100 1010101101 1100011101 1111100100 1101100100 1101000010 1101010010 1101000011 25.938 43.259 998.86 39314 17 15 13 60 50 4 $GNGGA,143343.00,4333.66995,N,00128.71968,E,1,06,2.21,163.8,M,53.8,M,,*4D
38 14 33 44 4333.6696000128.72030163.6ó 00128.72030 163.6 0 1101100111 1011110100 1100011001 1111001110 10000101011 1100110010 1101100101 111111110111 1101101111 1001010110 1010101110 1100011110 1111100001 1101100111 1101000101 1101001110 1100111010 25.938 43.168 998.86 40313 16 14 14 59 50 4 $GNGGA,143344.00,4333.66960,N,00128.72030,E,1,05,2.30,163.6,M,53.8,M,,*4A
39 14 33 45 4333.6687600128.72068163.3ó 00128.72068 163.3 0 1101100111 1011110101 1100011001 1111010000 10000101001 1100110111 1101100010 0 1101101111 1001010111 1010101101 1100101011 1111100101 1101101000 1101000100 1101010000 1100111011 25.938 43.099 998.87 41310 15 16 14 59 52 3 $GNGGA,143345.00,4333.66876,N,00128.72068,E,1,05,2.30,163.3,M,53.8,M,,*45
40 14 33 46 4333.6697900128.72177163.1ó 00128.72177 163.1 0 1101100111 1011110101 1100010111 1111010000 10000101001 1100110011 1101100001 111111110111 1101101111 1001011101 1010101110 1100101110 1111100101 1101100111 1101000111 1101001011 1100111100 25.938 43.320 998.86 42310 16 15 14 60 51 3 $GNGGA,143346.00,4333.66979,N,00128.72177,E,1,05,2.30,163.1,M,53.8,M,,*45
41 14 33 47 4333.6699200128.72126162.9ó 00128.72126 162.9 0 1101100111 1011110011 1100010100 1111001100 10000101001 1100110111 1101101010 0 1101101111 1001011011 1010101101 1100110101 1111100111 1101101000 1101000100 1101001111 1101000001 25.938 43.320 998.87 43309 16 15 13 58 51 5 $GNGGA,143347.00,4333.66992,N,00128.72126,E,1,05,3.59,162.9,M,53.8,M,,*42
42 14 33 48 4333.6698000128.72135162.8ó 00128.72135 162.8 0 1101100111 1011110100 1100011000 1111001011 10000101010 1100110011 1101100101 111111110111 1101101111 1001011111 1010101110 1100110011 1111100100 1101011110 1101000001 1101001101 1100111111 25.938 43.213 998.87 44307 17 15 14 60 51 3 $GNGGA,143348.00,4333.66980,N,00128.72135,E,1,04,7.57,162.8,M,53.8,M,,*46
43 14 33 49 4333.6689500128.72104162.6ó 00128.72104 162.6 0 1101100111 1011110011 1100010111 1111010010 10000101011 1100110011 1101100100 0 1101101111 1001100100 1010101111 1100111110 1111100100 1101100001 1100111110 1101010001 1100111101 25.938 43.168 998.87 45306 16 14 14 59 50 4 $GNGGA,143349.00,4333.66895,N,00128.72104,E,1,05,2.30,162.6,M,53.8,M,,*4B
44 14 33 50 4333.6695500128.72143162.3ó 00128.72143 162.3 0 1101100111 1011110110 1100011010 1111001001 10000101001 1100110100 1101100001 111111110111 1101101111 1001100011 1010110001 1101000011 1111100101 1101100101 1101001000 1101001110 1101000000 25.938 43.122 998.86 46305 16 15 13 58 52 4 $GNGGA,143350.00,4333.66955,N,00128.72143,E,1,05,2.30,162.3,M,53.8,M,,*48
45 14 33 51 4333.6706000128.72190162.1ó 00128.72190 162.1 0 1101100111 1011111000 1100011011 1111001111 10000101001 1100101100 1101011011 111111110111 1101101111 1001100010 1010101101 1101010110 1111101010 1101011011 1100111110 1101001010 1100111111 25.938 43.061 998.84 47305 17 15 13 60 50 4 $GNGGA,143351.00,4333.67060,N,00128.72190,E,1,05,2.30,162.1,M,53.8,M,,*4B
46 14 33 52 4333.6705700128.72216161.8ó 00128.72216 161.8 0 1101100111 1011110100 1100010111 1111001110 10000101000 1100101111 1101011111 111111110111 1101101111 1001100110 1010101100 1101010100 1111100101 1101011110 1101000010 1101000111 1100111101 25.938 42.985 998.85 48302 16 16 14 59 51 4 $GNGGA,143352.00,4333.67057,N,00128.72216,E,1,05,2.30,161.8,M,53.8,M,,*4B
47 14 33 53 4333.6722300128.72297161.5ó 00128.72297 161.5 0 1101100111 1011110011 1100011000 1111001111 10000101011 1100110111 1101100110 0 1101101111 1001100001 1010101110 1101010111 1111101000 1101100110 1101000100 1101010011 1101000001 25.938 42.923 998.85 49302 17 14 13 60 50 4 $GNGGA,143353.00,4333.67223,N,00128.72297,E,1,05,2.30,161.5,M,53.8,M,,*4F
48 14 33 54 4333.6725500128.72346161.4ó 00128.72346 161.4 0 1101100111 1011110101 1100011011 1111010000 10000101011 1100110101 1101100001 111111110111 1101101111 1001100001 1010110000 1101010111 1111101000 1101100011 1101000100 1101001110 1100111000 25.938 42.870 998.85 50301 16 15 15 59 51 3 $GNGGA,143354.00,4333.67255,N,00128.72346,E,1,05,2.30,161.4,M,53.8,M,,*45
49 14 33 55 4333.6728000128.72292161.2ó 00128.72292 161.2 0 1101100111 1011110100 1100011011 1111001111 10000101011 1100101110 1101011111 111111110111 1101101111 1001100000 1010101100 1101010000 1111100110 1101100010 1101000001 1101001001 1100110001 25.938 42.824 998.85 51300 17 14 13 60 50 4 $GNGGA,143355.00,4333.67280,N,00128.72292,E,1,05,2.30,161.2,M,53.8,M,,*42
50 14 33 56 4333.6731400128.72284161.1ó 00128.72284 161.1 0 1101100111 1011110101 1100010111 1111001010 10000101000 1100110010 1101011010 0 1101101111 1001101011 1010101110 1101011000 1111101010 1101011111 1101000100 1101010001 1100111110 25.938 42.801 998.83 52299 16 14 14 59 50 4 $GNGGA,143356.00,4333.67314,N,00128.72284,E,1,05,2.30,161.1,M,53.8,M,,*49
51 14 33 57 4333.6739700128.72271161.0ó 00128.72271 161.0 0 1101100111 1011110101 1100010111 1111001110 10000101010 1100110001 1101100001 111111110111 1101101111 1001111111 1010101110 1101100010 1111100111 1101100001 1101000100 1101001100 1100111100 25.938 43.007 998.84 53299 15 16 14 59 52 3 $GNGGA,143357.00,4333.67397,N,00128.72271,E,1,05,2.30,161.0,M,53.8,M,,*48
52 14 33 58 4333.6757700128.72293160.9ó 00128.72293 160.9 0 1101100111 1011110011 1100010110 1111001111 10000101011 1100101001 1101011110 0 1101101111 1010010010 1010101110 1110000101 1111100111 1101011100 1100111110 1101010101 1100111110 25.938 43.267 998.84 54297 17 14 13 60 50 4 $GNGGA,143358.00,4333.67577,N,00128.72293,E,1,05,2.30,160.9,M,53.8,M,,*4B
53 14 33 59 4333.6765700128.72287160.9ó 00128.72287 160.9 0 1101100111 1011110101 1100011001 1111010001 10000101101 1100101110 1101011111 111111110111 1101101111 1010010010 1010101101 1110101110 1111101010 1101011011 1101000101 1101001010 1100111101 25.875 43.435 998.85 55297 16 16 15 59 51 3 $GNGGA,143359.00,4333.67657,N,00128.72287,E,1,03,6.17,160.9,M,53.8,M,,*49
54 14 34 00 Nan Nan Nan 0 1101100111 1011110011 1100011001 1111000011 10000101000 1100100111 1101011111 111111110111 1101101111 1010010011 1010101111 1111000011 1111101000 1101011000 1101000110 1101001101 1100111100 25.938 43.465 998.86 56282 16 8 11 59 51 4 $GNGGA,143400.00,,,,,0,00,99.9,,,,,,*43
55 14 34 01 4333.6780400128.72264160.8ó 00128.72264 160.8 0 1101100111 1011110110 1100010111 1111001000 10000100111 1100101001 1101011010 0 1101101111 1010010100 1010110010 1111100001 1111101100 1101010111 1101000010 1101001100 1100110000 25.938 43.206 998.85 57293 15 15 15 59 51 3 $GNGGA,143401.00,4333.67804,N,00128.72264,E,1,03,8.24,160.8,M,53.8,M,,*49
56 14 34 02 4333.6794400128.72441160.7ó 00128.72441 160.7 0 1101100111 1011110110 1100011100 1111010001 10000101110 1100101110 1101011101 111111110111 1101101111 1010001010 1010101101 1111100010 1111100111 1101001111 1100111110 1101010010 1100111011 25.938 43.023 998.84 58293 16 16 13 59 51 4 $GNGGA,143402.00,4333.67944,N,00128.72441,E,1,04,2.41,160.7,M,53.8,M,,*4F
57 14 34 03 4333.6798800128.72489160.6ó 00128.72489 160.6 0 1101100111 1011110111 1100011011 1111010110 10000101101 1100110101 1101100111 111111110111 1101101111 1010000101 1010110001 1111011101 1111101011 1101010010 1101000000 1101001110 1100111110 25.938 42.939 998.84 59290 17 14 13 60 50 4 $GNGGA,143403.00,4333.67988,N,00128.72489,E,1,04,2.98,160.6,M,53.8,M,,*4F
58 14 34 04 4333.6793400128.72520160.6ó 00128.72520 160.6 0 1101100111 1011110101 1100011000 1111011011 10000101100 1100101001 1101100000 0 1101101111 1010000101 1010110000 1111011011 1111101010 1101010010 1101000101 1101010001 1100111011 25.938 42.923 998.84 60292 16 16 14 59 51 4 $GNGGA,143404.00,4333.67934,N,00128.72520,E,1,04,2.98,160.6,M,53.8,M,,*4D
59 14 34 05 4333.6785300128.72571160.5ó 00128.72571 160.5 0 1101100111 1011110110 1100011010 1111001110 10000101010 1100101011 1101100100 0 1101101111 1010001001 1010101111 1111010011 1111101010 1101010010 1101000110 1101010000 1100111101 25.938 42.908 998.84 61290 17 14 13 59 51 4 $GNGGA,143405.00,4333.67853,N,00128.72571,E,1,04,2.98,160.5,M,53.8,M,,*4B
60 14 34 06 Nan Nan Nan 0 1101100111 1011110111 1100011000 1111010111 10000101001 1100100110 1101100010 0 1101101111 1010001100 1010110101 1111010101 1111101010 1101010111 1101000110 1101011000 1100111101 25.938 42.908 998.84 62275 17 7 11 60 51 3 $GNGGA,143406.00,,,,,0,00,99.9,,,,,,*45
61 14 34 07 4333.6791000128.72626160.5ó 00128.72626 160.5 0 1101100111 1011110111 1100011010 1111100010 10000101011 1100101000 1101100100 0 1101101111 1010000110 1010110000 1111010001 1111101010 1101010011 1101000000 1101011010 1101000001 25.938 42.908 998.85 63287 16 15 13 58 52 4 $GNGGA,143407.00,4333.67910,N,00128.72626,E,1,03,8.18,160.5,M,53.8,M,,*4B
62 14 34 08 4333.6792400128.72701160.5ó 00128.72701 160.5 0 1101100111 1011110111 1100010111 1111100001 10000101010 1100100101 1101100010 0 1101101111 1001111111 1010110000 1111001101 1111101100 1101001110 1101000100 1101011000 1101000000 25.938 42.901 998.85 64286 17 15 14 60 51 3 $GNGGA,143408.00,4333.67924,N,00128.72701,E,1,03,8.17,160.5,M,53.8,M,,*48
63 14 34 09 4333.6801700128.72759160.5ó 00128.72759 160.5 0 1101100111 1011111000 1100011010 1111100111 10000101001 1100100110 1101011100 0 1101101111 1010000001 1010110001 1111000011 1111101100 1101010110 1101000110 1101010001 1100110010 25.938 43.007 998.84 65285 16 15 13 59 50 5 $GNGGA,143409.00,4333.68017,N,00128.72759,E,1,03,8.16,160.5,M,53.8,M,,*43
64 14 34 10 4333.6795200128.72791160.4ó 00128.72791 160.4 0 1101100111 1011110111 1100011000 1111100100 10000101000 1100100100 1101100001 111111110111 1101101111 1010000010 1010110101 1110110111 1111101011 1101011011 1101000111 1101010101 1100111011 25.938 43.175 998.85 66284 17 14 13 60 50 4 $GNGGA,143410.00,4333.67952,N,00128.72791,E,1,03,8.15,160.4,M,53.8,M,,*4A
65 14 34 11 4333.6798600128.72866160.4ó 00128.72866 160.4 0 1101100110 1011111000 1100011000 1111100110 10000101011 1100101000 1101100110 0 1101101111 1001111110 1010110100 1110110000 1111101011 1101001100 1100111111 1101011110 1100111011 25.938 43.107 998.86 67283 16 14 14 59 51 4 $GNGGA,143411.00,4333.67986,N,00128.72866,E,1,03,8.14,160.4,M,53.8,M,,*44
66 14 34 12 4333.6798900128.72885160.3ó 00128.72885 160.3 0 1101100111 1011111001 1100011000 1111110000 10000101100 1100101000 1101100000 0 1101101111 1001110110 1010101110 1110101100 1111101101 1101010110 1100111111 1101010010 1100110110 25.938 42.969 998.86 68282 15 15 14 60 51 3 $GNGGA,143412.00,4333.67989,N,00128.72885,E,1,03,8.13,160.3,M,53.8,M,,*45
67 14 34 13 4333.6803200128.72833160.6ó 00128.72833 160.6 0 1101100111 1011111010 1100011001 1111101111 10000101011 1100100111 1101100010 0 1101101111 1001110100 1010110001 1110100001 1111101100 1101010111 1101000110 1101010101 1100110100 25.938 42.923 998.85 69281 16 14 14 59 50 4 $GNGGA,143413.00,4333.68032,N,00128.72833,E,1,04,1.35,160.6,M,53.8,M,,*40
68 14 34 14 4333.6789800128.72611160.8ó 00128.72611 160.8 0 1101100111 1011111001 1100011000 1111110110 10000101011 1100101010 1101100011 111111110111 1101101111 1001101100 1010110000 1110010010 1111101011 1101011100 1101000101 1101011000 1100110101 25.938 42.901 998.88 70279 16 16 14 59 51 4 $GNGGA,143414.00,4333.67898,N,00128.72611,E,1,04,1.35,160.8,M,53.8,M,,*40
69 14 34 15 4333.6765800128.72386160.6ó 00128.72386 160.6 0 1101100111 1011111010 1100011000 1111110011 10000101011 1100100101 1101011110 0 1101101111 1001110011 1010110110 1110001100 1111101011 1101010010 1101000000 1101010111 1100110111 25.938 42.801 998.87 71279 17 14 13 60 50 4 $GNGGA,143415.00,4333.67658,N,00128.72386,E,1,04,1.35,160.6,M,53.8,M,,*46
70 14 34 16 Nan Nan Nan 0 1101100111 1011111010 1100010110 1111110011 10000101100 1100100110 1101011111 111111110111 1101101111 1001110010 1010110010 1110001010 1111101110 1101010101 1100111110 1101010101 1100110010 25.938 42.771 998.87 72265 17 7 11 60 51 3 $GNGGA,143416.00,,,,,0,00,99.9,,,,,,*44
71 14 34 17 Nan Nan Nan 0 1101100111 1011111100 1100011010 1111110011 10000100110 1100101000 1101100010 0 1101101111 1001110001 1010110010 1110001001 1111101111 1101011001 1100111111 1101011010 1101000011 25.938 42.779 998.87 73265 16 8 10 58 52 4 $GNGGA,143417.00,,,,,0,00,99.9,,,,,,*45
72 14 34 18 4333.6750000128.72242160.5ó 00128.72242 160.5 0 1101100111 1011111100 1100011000 1111111100 10000101110 1100100110 1101011110 0 1101101111 1001110100 1010110011 1110000101 1111101100 1101010110 1100111111 1101010100 1100111100 25.938 42.801 998.87 74276 16 15 15 59 51 3 $GNGGA,143418.00,4333.67500,N,00128.72242,E,1,04,1.35,160.5,M,53.8,M,,*4F
73 14 34 19 4333.6747300128.72223160.5ó 00128.72223 160.5 0 1101100111 1011111110 1100011000 1111110000 10000101100 1100100100 1101011110 0 1101101111 1001101111 1010110000 1110000010 1111101011 1101010110 1101000010 1101010100 1100111001 25.938 42.824 998.86 75276 16 16 14 59 52 3 $GNGGA,143419.00,4333.67473,N,00128.72223,E,1,04,1.35,160.5,M,53.8,M,,*4C
74 14 34 20 4333.6729600128.72180160.4ó 00128.72180 160.4 0 1101100111 1011111010 1100010101 1111110100 10000101011 1100100100 1101011111 111111110111 1101101111 1001110000 1010101111 1110000000 1111101110 1101010101 1101000011 1101010101 1100111101 25.938 42.855 998.86 76274 17 14 13 59 51 4 $GNGGA,143420.00,4333.67296,N,00128.72180,E,1,04,1.35,160.4,M,53.8,M,,*40
75 14 34 21 4333.6719800128.72157160.3ó 00128.72157 160.3 0 1101100111 1011111101 1100011001 1111110010 10000101000 1100100010 1101011101 111111110111 1101101111 1001110100 1010110011 1101111011 1111101011 1101011001 1101000101 1101010111 1100111010 25.938 42.885 998.87 77273 16 16 14 59 51 4 $GNGGA,143421.00,4333.67198,N,00128.72157,E,1,04,1.35,160.3,M,53.8,M,,*41
76 14 34 22 4333.6705900128.72090160.2ó 00128.72090 160.2 0 1101100111 1011111010 1100011001 1111101110 10000101010 1100100110 1101011011 111111110111 1101101111 1001110010 1010110101 1101111010 1111101010 1101011100 1101000000 1101010100 1100111010 25.938 42.908 998.88 78273 17 14 13 59 51 4 $GNGGA,143422.00,4333.67059,N,00128.72090,E,1,04,1.35,160.2,M,53.8,M,,*45
77 14 34 23 4333.6706300128.72096160.1ó 00128.72096 160.1 0 1101100111 1011111011 1100011001 1111110010 10000101100 1100100101 1101100000 0 1101101111 1001110100 1010110011 1110000000 1111101111 1101010010 1100111000 1101001111 1100111100 25.938 42.939 998.87 79271 16 14 14 59 50 4 $GNGGA,143423.00,4333.67063,N,00128.72096,E,1,04,1.35,160.1,M,53.8,M,,*48
78 14 34 24 4333.6708300128.72109160.1ó 00128.72109 160.1 0 1101100111 1011111010 1100011000 1111111000 10000110000 1100101010 1101011111 111111110111 1101101111 1001110010 1010110001 1110000101 1111110001 1101010111 1101000010 1101010010 1100111100 25.938 42.954 998.86 80273 17 15 13 60 50 4 $GNGGA,143424.00,4333.67083,N,00128.72109,E,1,04,1.35,160.1,M,53.8,M,,*46
79 14 34 25 4333.6704600128.72064160.1ó 00128.72064 160.1 0 1101100111 1011111010 1100011001 1111110001 10000101101 1100100100 1101011110 0 1101101111 1001110001 1010110010 1101111010 1111101101 1101011011 1101000010 1101010110 1100111011 25.938 42.969 998.86 81269 16 15 15 59 51 3 $GNGGA,143425.00,4333.67046,N,00128.72064,E,1,04,1.35,160.1,M,53.8,M,,*44
80 14 34 26 4333.6710900128.72103160.1ó 00128.72103 160.1 0 1101100111 1011111011 1100011001 1111110011 10000101011 1100101001 1101011111 111111110111 1101101111 1001101100 1010110010 1110000000 1111110000 1101011101 1101000010 1101011010 1101001000 25.938 42.962 998.85 82269 16 15 13 59 51 4 $GNGGA,143426.00,4333.67109,N,00128.72103,E,1,04,1.35,160.1,M,53.8,M,,*4D
81 14 34 27 4333.6710700128.72123160.0ó 00128.72123 160.0 0 1101100111 1011111100 1100011011 1111101110 10000101110 1100100111 1101011101 111111110111 1101101111 1001101110 1010110110 1101111110 1111101111 1101011100 1101000100 1101011000 1100111110 25.938 42.855 998.84 83267 17 14 13 60 50 4 $GNGGA,143427.00,4333.67107,N,00128.72123,E,1,04,1.35,160.0,M,53.8,M,,*41
82 14 34 28 4333.6711600128.72104159.9ó 00128.72104 159.9 0 1101100111 1011111100 1100010110 1111110000 10000101100 1100100111 1101100100 0 1101110000 1001101011 1010110101 1101110110 1111101110 1101010110 1101000100 1101010101 1100111100 25.938 42.763 998.84 84267 16 16 15 59 51 3 $GNGGA,143428.00,4333.67116,N,00128.72104,E,1,04,4.83,159.9,M,53.8,M,,*40
83 14 34 29 4333.6695200128.72059159.7ó 00128.72059 159.7 0 1101100111 1011111010 1100011001 1111101100 10000101010 1100110000 1101101000 0 1101101111 1001100010 1010101111 1101101001 1111101101 1101010111 1100111101 1101010011 1100111100 25.938 42.679 998.85 85266 17 15 14 60 51 3 $GNGGA,143429.00,4333.66952,N,00128.72059,E,1,04,4.83,159.7,M,53.8,M,,*4F
84 14 34 30 4333.6693700128.72044159.6ó 00128.72044 159.6 0 1101100111 1011111010 1100011001 1111100110 10000101000 1100100111 1101100001 111111110111 1101101111 1001011110 1010110110 1101100011 1111101111 1101011000 1100111110 1101001100 1100110111 25.938 42.626 998.84 86264 16 14 14 59 50 4 $GNGGA,143430.00,4333.66937,N,00128.72044,E,1,04,4.83,159.6,M,53.8,M,,*49
85 14 34 31 4333.6690300128.72006159.5ó 00128.72006 159.5 0 1101100111 1011111010 1100010110 1111100101 10000101011 1100100110 1101011010 0 1101101111 1001011101 1010110010 1101010010 1111101111 1101010110 1101000000 1101001111 1100111011 25.938 42.634 998.84 87265 15 16 14 59 52 3 $GNGGA,143431.00,4333.66903,N,00128.72006,E,1,05,1.24,159.5,M,53.8,M,,*43
86 14 34 32 4333.6692000128.72032159.4ó 00128.72032 159.4 0 1101100111 1011111100 1100011001 1111101100 10000101011 1100101100 1101011100 0 1101101111 1001100000 1010110110 1101001001 1111110000 1101011011 1101000001 1101001111 1100111100 25.938 42.634 998.86 88262 17 15 14 60 51 3 $GNGGA,143432.00,4333.66920,N,00128.72032,E,1,04,3.62,159.4,M,53.8,M,,*46
87 14 34 33 4333.6693200128.72055159.4ó 00128.72055 159.4 0 1101100111 1011111100 1100011010 1111100101 10000101100 1100101101 1101101000 0 1101101111 1001100000 1010110011 1101000101 1111101111 1101011011 1100111011 1101010010 1100111010 25.938 42.626 998.86 89263 16 16 14 59 51 4 $GNGGA,143433.00,4333.66932,N,00128.72055,E,1,04,3.62,159.4,M,53.8,M,,*45
88 14 34 34 4333.6691200128.72082159.5ó 00128.72082 159.5 0 1101100111 1011111010 1100011010 1111100011 10000101100 1100101001 1101011111 111111110111 1101101111 1001100010 1010111000 1100111101 1111101110 1101100100 1101000101 1101001100 1100110110 25.938 42.618 998.85 90260 17 14 13 59 51 4 $GNGGA,143434.00,4333.66912,N,00128.72082,E,1,03,4.36,159.5,M,53.8,M,,*4A
89 14 34 35 4333.6688200128.72094159.5ó 00128.72094 159.5 0 1101100111 1011111100 1100011011 1111101010 10000110000 1100101100 1101011101 111111110111 1101101111 1001100001 1010110101 1100110111 1111101110 1101011110 1101000000 1101010001 1100111101 25.938 42.618 998.84 91259 16 14 14 59 50 4 $GNGGA,143435.00,4333.66882,N,00128.72094,E,1,03,4.36,159.5,M,53.8,M,,*44
90 14 34 36 4333.6694700128.72180159.7ó 00128.72180 159.7 0 1101100111 1011111000 1100011001 1111101001 10000101011 1100101101 1101100101 111111110111 1101101111 1001100001 1010110110 1101000100 1111110010 1101100000 1101000100 1101010001 1100111010 25.938 42.618 998.84 92261 18 15 13 60 50 4 $GNGGA,143436.00,4333.66947,N,00128.72180,E,1,03,4.36,159.7,M,53.8,M,,*49
91 14 34 37 4333.6696000128.72218159.8ó 00128.72218 159.8 0 1101100111 1011111001 1100011010 1111101110 10000101111 1100101100 1101011111 111111110111 1101101111 1001100000 1010110011 1101000000 1111110000 1101011111 1101000000 1101010001 1101000000 25.938 42.611 998.84 93258 16 15 15 59 51 3 $GNGGA,143437.00,4333.66960,N,00128.72218,E,1,03,4.36,159.8,M,53.8,M,,*40
92 14 34 38 4333.6697500128.72242159.9ó 00128.72242 159.9 0 1101100111 1011110110 1100010111 1111011101 10000100111 1100100111 1101011110 0 1101101111 1001100010 1010110110 1100111111 1111110000 1101011000 1100111010 1101001110 1100111100 25.938 42.595 998.84 94257 16 15 13 59 51 4 $GNGGA,143438.00,4333.66975,N,00128.72242,E,1,03,4.36,159.9,M,53.8,M,,*45
93 14 34 39 4333.6686300128.72138159.8ó 00128.72138 159.8 0 1101100111 1011111010 1100011001 1111011111 10000101100 1100110010 1101100100 0 1101101111 1001100101 1010110111 1101000101 1111110000 1101011011 1100111111 1101010010 1100111010 25.938 42.756 998.85 95256 16 15 14 60 51 3 $GNGGA,143439.00,4333.66863,N,00128.72138,E,1,04,4.84,159.8,M,53.8,M,,*43
94 14 34 40 4333.6678200128.72039159.9ó 00128.72039 159.9 0 1101100111 1011110111 1100011000 1111011001 10000101000 1100101001 1101100001 111111110111 1101101111 1001101000 1010110110 1101000111 1111101111 1101011100 1100111110 1101001001 1100111100 25.938 42.824 998.86 96256 15 16 15 59 50 4 $GNGGA,143440.00,4333.66782,N,00128.72039,E,1,04,4.84,159.9,M,53.8,M,,*4C
95 14 34 41 4333.6665500128.71942159.9ó 00128.71942 159.9 0 1101100111 1011110111 1100011001 1111010111 10000100110 1100110010 1101100110 0 1101101111 1001100010 1010110011 1101000111 1111101110 1101100100 1101000001 1101001011 1100110100 25.938 42.733 998.86 97254 17 14 13 59 51 4 $GNGGA,143441.00,4333.66655,N,00128.71942,E,1,04,4.84,159.9,M,53.8,M,,*40
96 14 34 42 4333.6679300128.71956160.0ó 00128.71956 160.0 0 1101100111 1011111000 1100011001 1111100110 10000101110 1100101101 1101011111 111111110111 1101101111 1001100001 1010110111 1100111111 1111101111 1101100001 1101000100 1101001111 1100110110 25.938 42.786 998.85 98252 16 14 14 58 51 4 $GNGGA,143442.00,4333.66793,N,00128.71956,E,1,04,4.84,160.0,M,53.8,M,,*4E
97 14 34 43 4333.6696800128.71925160.1ó 00128.71925 160.1 0 1101100111 1011110111 1100011000 1111100000 10000101100 1100101110 1101100000 0 1101101111 1001100000 1010110101 1101001000 1111110000 1101011101 1100111100 1101001001 1100110111 25.938 43.030 998.86 99249 16 15 13 59 51 4 $GNGGA,143443.00,4333.66968,N,00128.71925,E,1,04,4.84,160.1,M,53.8,M,,*40
98 14 34 44 4333.6698600128.71896160.2ó 00128.71896 160.2 0 1101100111 1011110110 1100011000 1111011010 10000101011 1100101100 1101011110 0 1101101111 1001100000 1010110100 1101000000 1111110000 1101011010 1100111101 1101000100 1100110001 25.938 43.114 998.86 100252 17 14 13 59 51 4 $GNGGA,143444.00,4333.66986,N,00128.71896,E,1,04,4.84,160.2,M,53.8,M,,*4D
99 14 34 45 4333.6701100128.71976160.2ó 00128.71976 160.2 0 1101100111 1011110111 1100011011 1111011000 10000101010 1100110000 1101100100 0 1101101111 1001011110 1010110010 1101000101 1111110010 1101011000 1100111000 1101001001 1100110100 25.938 43.000 998.86 101250 16 15 13 59 50 5 $GNGGA,143445.00,4333.67011,N,00128.71976,E,1,04,4.84,160.2,M,53.8,M,,*45
100 14 34 46 4333.6702500128.71988160.3ó 00128.71988 160.3 0 1101100111 1011110101 1100010110 1111010001 10000100101 1100101101 1101100010 0 1101101111 1001100011 1010111001 1101001011 1111110011 1101011010 1100111101 1101001011 1100110011 25.938 42.908 998.85 102247 17 14 13 60 50 4 $GNGGA,143446.00,4333.67025,N,00128.71988,E,1,04,4.84,160.3,M,53.8,M,,*41
101 14 34 47 4333.6707800128.72006160.4ó 00128.72006 160.4 0 1101100111 1011111000 1100011010 1111011010 10000101001 1100110001 1101011111 111111110111 1101101111 1001100100 1010110111 1101000011 1111110000 1101100010 1101000010 1101000110 1100110101 25.938 42.817 998.84 103247 16 14 14 59 50 4 $GNGGA,143447.00,4333.67078,N,00128.72006,E,1,04,4.84,160.4,M,53.8,M,,*43
102 14 34 48 4333.6708800128.72026160.5ó 00128.72026 160.5 0 1101100111 1011110101 1100011000 1111011010 10000101011 1100110100 1101100110 0 1101101111 1001100111 1010110110 1101001111 1111110011 1101011110 1101000101 1101001000 1100110001 25.938 42.717 998.84 104247 16 15 13 59 51 4 $GNGGA,143448.00,4333.67088,N,00128.72026,E,1,04,4.84,160.5,M,53.8,M,,*40
103 14 34 49 4333.6716000128.72031160.6ó 00128.72031 160.6 0 1101100111 1011110110 1100010111 1111010010 10000100111 1100101010 1101011111 111111110111 1101101111 1001101001 1010111000 1101001010 1111110001 1101011001 1100111100 1101000110 1100111001 25.938 42.656 998.84 105245 17 14 13 59 51 4 $GNGGA,143449.00,4333.67160,N,00128.72031,E,1,04,4.84,160.6,M,53.8,M,,*43
104 14 34 50 4333.6733000128.72175160.7ó 00128.72175 160.7 0 1101100111 1011110010 1100010111 1111010101 10000101001 1100101011 1101011110 0 1101101111 1001101000 1010111001 1101001110 1111110001 1101011011 1101000010 1101001001 1100111001 25.938 42.626 998.84 106244 16 15 13 59 50 5 $GNGGA,143450.00,4333.67330,N,00128.72175,E,1,04,4.84,160.7,M,53.8,M,,*4C
105 14 34 51 4333.6740700128.72324160.7ó 00128.72324 160.7 0 1101100111 1011110111 1100011010 1111010011 10000101000 1100110011 1101100001 111111110111 1101101111 1001100111 1010110111 1101001111 1111110100 1101100010 1100111111 1101001010 1100110101 25.938 42.611 998.84 107243 17 14 13 60 51 4 $GNGGA,143451.00,4333.67407,N,00128.72324,E,1,04,4.84,160.7,M,53.8,M,,*48
106 14 34 52 4333.6751800128.72403160.8ó 00128.72403 160.8 0 1101100111 1011110101 1100010110 1111010111 10000101110 1100101111 1101011111 111111110111 1101101111 1001101001 1010111000 1101001101 1111110001 1101011011 1100111111 1101000001 1100101111 25.938 42.611 998.83 108242 16 14 14 58 51 4 $GNGGA,143452.00,4333.67518,N,00128.72403,E,1,04,4.84,160.8,M,53.8,M,,*49
107 14 34 53 4333.6756100128.72472160.8ó 00128.72472 160.8 0 1101100111 1011110110 1100011010 1111010110 10000101101 1100110001 1101100000 0 1101101111 1001101000 1010110111 1101010011 1111110000 1101100000 1101000001 1101000110 1100101110 25.938 42.626 998.83 109242 15 15 14 60 51 3 $GNGGA,143453.00,4333.67561,N,00128.72472,E,1,04,4.84,160.8,M,53.8,M,,*40
108 14 34 54 4333.6769100128.72570160.8ó 00128.72570 160.8 0 1101100111 1011110100 1100010111 1111010101 10000101100 1100101100 1101011111 111111110111 1101101111 1001101001 1010111000 1101011111 1111110101 1101011110 1101000010 1101001110 1100110111 25.938 42.634 998.84 110238 17 14 13 59 50 4 $GNGGA,143454.00,4333.67691,N,00128.72570,E,1,04,4.85,160.8,M,53.8,M,,*49
109 14 34 55 4333.6767400128.72621160.9ó 00128.72621 160.9 0 1101100111 1011110101 1100011001 1111010111 10000101010 1100101001 1101011100 0 1101101111 1001101010 1010111000 1101011001 1111110100 1101011101 1100111100 1101001010 1100111011 25.938 42.634 998.84 111240 16 15 13 58 52 4 $GNGGA,143455.00,4333.67674,N,00128.72621,E,1,04,4.85,160.9,M,53.8,M,,*45
110 14 34 56 4333.6781900128.72737160.8ó 00128.72737 160.8 0 1101100111 1011110011 1100011000 1111010010 10000101100 1100101011 1101011110 0 1101101111 1001101100 1010111000 1101011110 1111110011 1101011010 1101000000 1101001001 1100110001 25.938 42.649 998.85 112238 17 14 13 59 51 4 $GNGGA,143456.00,4333.67819,N,00128.72737,E,1,04,4.85,160.8,M,53.8,M,,*44
111 14 34 57 4333.6791900128.72800160.9ó 00128.72800 160.9 0 1101100111 1011110101 1100011010 1111010101 10000101001 1100101101 1101011101 111111110111 1101101111 1001101101 1010111000 1101011010 1111110000 1101011001 1100111011 1101000101 1100110101 25.938 42.756 998.85 113238 16 16 15 59 51 3 $GNGGA,143457.00,4333.67919,N,00128.72800,E,1,04,4.85,160.9,M,53.8,M,,*4E
112 14 34 58 4333.6800600128.72848160.9ó 00128.72848 160.9 0 1101100111 1011110110 1100011001 1111001011 10000101001 1100101101 1101011100 0 1101101111 1001101001 1010110100 1101011100 1111110100 1101011100 1101000001 1101001001 1100111001 25.938 42.817 998.85 114236 17 14 13 59 51 4 $GNGGA,143458.00,4333.68006,N,00128.72848,E,1,04,4.85,160.9,M,53.8,M,,*45
113 14 34 59 4333.6808500128.72894160.9ó 00128.72894 160.9 0 1101100111 1011110111 1100011001 1111010101 10000110000 1100110000 1101100001 111111110111 1101101111 1001101100 1010110111 1101100001 1111110001 1101011010 1100111100 1101000011 1100110100 25.938 42.801 998.85 115236 16 15 15 59 51 3 $GNGGA,143459.00,4333.68085,N,00128.72894,E,1,04,4.85,160.9,M,53.8,M,,*4E
114 14 35 00 4333.6818100128.72979161.0ó 00128.72979 161.0 0 1101100111 1011110111 1100011010 1111001000 10000100111 1100101111 1101100000 0 1101101111 1001101100 1010110110 1101100000 1111110100 1101011101 1100111111 1101000011 1100110111 25.938 42.763 998.83 116234 16 15 13 58 52 4 $GNGGA,143500.00,4333.68181,N,00128.72979,E,1,04,4.85,161.0,M,53.8,M,,*4C
115 14 35 01 4333.6825900128.72961161.0ó 00128.72961 161.0 0 1101100111 1011110110 1100011000 1111001010 10000101011 1100101000 1101011111 111111110111 1101101111 1001101100 1010110111 1101100110 1111110001 1101011111 1101000000 1101000101 1100110011 25.938 43.007 998.84 117233 17 15 14 60 51 3 $GNGGA,143501.00,4333.68259,N,00128.72961,E,1,04,4.85,161.0,M,53.8,M,,*42
116 14 35 02 4333.6821900128.72824161.1ó 00128.72824 161.1 0 1101100111 1011110111 1100011010 1111010101 10000101011 1100101011 1101100000 0 1101101111 1001101011 1010111000 1101100111 1111110011 1101011100 1101000001 1100111100 1100101110 25.938 43.198 998.84 118233 16 15 13 59 51 5 $GNGGA,143502.00,4333.68219,N,00128.72824,E,1,04,4.85,161.1,M,53.8,M,,*44
117 14 35 03 4333.6827000128.72825161.1ó 00128.72825 161.1 0 1101100111 1011110111 1100011001 1111001111 10000101011 1100101010 1101100010 0 1101101111 1001101110 1010111010 1101101100 1111110011 1101011101 1100111101 1101000111 1100111000 25.938 43.213 998.83 119232 16 15 14 60 51 3 $GNGGA,143503.00,4333.68270,N,00128.72825,E,1,03,7.66,161.1,M,53.8,M,,*42
118 14 35 04 4333.6813200128.72641161.2ó 00128.72641 161.2 0 1101100111 1011110101 1100011010 1111011000 10000101100 1100101111 1101100010 0 1101101111 1001101100 1010111000 1101101001 1111110011 1101011000 1100111110 1100111110 1100110011 25.938 43.068 998.84 120230 15 15 15 59 51 3 $GNGGA,143504.00,4333.68132,N,00128.72641,E,1,04,4.85,161.2,M,53.8,M,,*46
119 14 35 05 4333.6808200128.72605161.3ó 00128.72605 161.3 0 1101100111 1011110100 1100011000 1111010100 10000101101 1100101101 1101011111 111111110111 1101101111 1001110000 1010111001 1101110000 1111111000 1101011011 1100111001 1101000100 1100110011 25.938 43.076 998.83 121229 16 15 13 59 51 4 $GNGGA,143505.00,4333.68082,N,00128.72605,E,1,03,7.64,161.3,M,53.8,M,,*47
120 14 35 06 Nan Nan Nan 0 1101100111 1011110111 1100011010 1111001111 10000101010 1100101100 1101011111 111111110111 1101101111 1001110010 1010111001 1101110000 1111110110 1101011101 1101000000 1101000111 1100111000 25.938 43.122 998.82 122216 17 7 11 60 50 4 $GNGGA,143506.00,,,,,0,00,99.9,,,,,,*44
121 14 35 07 Nan Nan Nan 0 1101100111 1011110111 1100011100 1111010011 10000101100 1100110000 1101100111 111111110111 1101101111 1001110000 1010111001 1101110000 1111110011 1101011000 1100111001 1100111110 1100110001 25.938 43.152 998.83 123214 16 7 11 58 51 4 $GNGGA,143507.00,,,,,0,00,99.9,,,,,,*45
122 14 35 08 Nan Nan Nan 0 1101100111 1011110110 1100011000 1111010011 10000101101 1100101101 1101011101 111111110111 1101101111 1001110100 1010111000 1101110011 1111110011 1101011011 1101000100 1101000110 1100110011 26.000 43.023 998.85 124214 16 7 11 59 52 3 $GNGGA,143508.00,,,,,0,00,99.9,,,,,,*4A
123 14 35 09 Nan Nan Nan 0 1101100111 1011110110 1100011010 1111010111 10000101100 1100110000 1101100101 111111110111 1101101111 1001101110 1010111001 1101111000 1111110110 1101010100 1100111000 1101001010 1100111110 26.000 42.931 998.85 125211 17 7 10 59 51 4 $GNGGA,143509.00,,,,,0,00,99.9,,,,,,*4B
124 14 35 10 Nan Nan Nan 0 1101100111 1011110010 1100010110 1111010111 10000101011 1100110000 1101100000 0 1101101111 1001110100 1010111010 1101110100 1111110101 1101011101 1101000000 1101001011 1100110101 25.938 42.977 998.84 126212 16 8 11 59 51 4 $GNGGA,143510.00,,,,,0,00,99.9,,,,,,*43
125 14 35 11 Nan Nan Nan 0 1101100111 1011110100 1100011010 1111010111 10000101101 1100101101 1101011111 111111110111 1101101111 1001110001 1010110110 1101110110 1111110101 1101011010 1100111101 1101001100 1101000010 25.938 43.015 998.84 127210 17 6 11 60 50 4 $GNGGA,143511.00,,,,,0,00,99.9,,,,,,*42
126 14 35 12 4333.6806300128.72513161.3ó 00128.72513 161.3 0 1101100111 1011110011 1100011000 1111010001 10000101000 1100101110 1101100011 111111110111 1101101111 1001110100 1010111001 1101110100 1111110111 1101011110 1100111111 1101001110 1100111111 25.938 43.015 998.83 128220 16 15 13 58 52 4 $GNGGA,143512.00,4333.68063,N,00128.72513,E,1,03,7.58,161.3,M,53.8,M,,*45
127 14 35 13 4333.6813400128.72536161.3ó 00128.72536 161.3 0 1101100111 1011110101 1100011010 1111010011 10000101011 1100101010 1101011111 111111110111 1101101111 1001110100 1010111001 1101110110 1111110110 1101011010 1101000001 1101001000 1100110011 25.938 42.962 998.83 129221 17 15 14 60 51 3 $GNGGA,143513.00,4333.68134,N,00128.72536,E,1,03,7.57,161.3,M,53.8,M,,*4F
128 14 35 14 4333.6820300128.72562161.3ó 00128.72562 161.3 0 1101100111 1011110100 1100011000 1111010011 10000101100 1100110010 1101100101 111111110111 1101101111 1001110011 1010111011 1101110111 1111110110 1101011000 1100111110 1101000000 1100110010 25.938 42.885 998.84 130220 16 15 14 59 50 4 $GNGGA,143514.00,4333.68203,N,00128.72562,E,1,03,7.56,161.3,M,53.8,M,,*4F
129 14 35 15 4333.6817100128.72431161.3ó 00128.72431 161.3 0 1101100111 1011110110 1100011000 1111010001 10000101011 1100101101 1101011111 111111110111 1101101111 1001110101 1010111011 1101111000 1111110111 1101011101 1101000000 1101000111 1100110011 26.000 42.794 998.84 131219 17 14 13 59 51 4 $GNGGA,143515.00,4333.68171,N,00128.72431,E,1,03,7.55,161.3,M,53.8,M,,*4C
130 14 35 16 4333.6825800128.72526161.2ó 00128.72526 161.2 0 1101100111 1011110111 1100011011 1111010111 10000101100 1100101110 1101100100 0 1101101111 1001110001 1010111010 1101111010 1111111000 1101011001 1100111011 1101010000 1100111000 25.938 42.733 998.84 132218 15 15 15 59 51 3 $GNGGA,143516.00,4333.68258,N,00128.72526,E,1,03,7.54,161.2,M,53.8,M,,*40
131 14 35 17 4333.6834400128.72596161.2ó 00128.72596 161.2 0 1101100111 1011110110 1100011001 1111010110 10000101011 1100101100 1101100010 0 1101101111 1001110010 1010111000 1101110111 1111110101 1101011000 1100111101 1101001100 1100111010 26.000 42.717 998.84 133217 16 15 13 59 51 4 $GNGGA,143517.00,4333.68344,N,00128.72596,E,1,03,7.53,161.2,M,53.8,M,,*41
132 14 35 18 4333.6836300128.72663161.2ó 00128.72663 161.2 0 1101100111 1011110100 1100010110 1111011100 10000101100 1100100111 1101011011 111111110111 1101101111 1001111111 1010111010 1110000100 1111110110 1101010111 1100111100 1101000100 1100111000 26.000 42.687 998.84 134215 17 15 14 60 51 3 $GNGGA,143518.00,4333.68363,N,00128.72663,E,1,03,7.53,161.2,M,53.8,M,,*42
133 14 35 19 4333.6833900128.72705161.2ó 00128.72705 161.2 0 1101100111 1011110110 1100011010 1111011001 10000101000 1100101000 1101011110 0 1101101111 1010001111 1010111010 1110001010 1111110001 1101010011 1100111010 1101000111 1100101110 25.938 42.573 998.83 135215 16 15 13 59 51 5 $GNGGA,143519.00,4333.68339,N,00128.72705,E,1,03,7.52,161.2,M,53.8,M,,*4C
134 14 35 20 4333.6833700128.72699161.2ó 00128.72699 161.2 0 1101100111 1011110100 1100011000 1111011100 10000101101 1100100101 1101011010 0 1101101111 1010011000 1010111011 1110100111 1111110110 1101010100 1100111101 1101000101 1100110001 25.938 42.580 998.83 136214 16 15 14 60 51 3 $GNGGA,143520.00,4333.68337,N,00128.72699,E,1,03,7.51,161.2,M,53.8,M,,*4F
135 14 35 21 4333.6835200128.72672161.2ó 00128.72672 161.2 0 1101100111 1011111101 1100011111 1111011111 10000110000 1100100111 1101011100 0 1101101111 1010011100 1010111101 1111001110 1111111010 1101010001 1100111110 1101000111 1100110000 26.000 42.641 998.83 137212 16 14 14 58 51 4 $GNGGA,143521.00,4333.68352,N,00128.72672,E,1,03,7.50,161.2,M,53.8,M,,*49
136 14 35 22 4333.6838900128.72767161.2ó 00128.72767 161.2 0 1101100111 1011110011 1100010101 1111100010 10000101001 1100101001 1101011101 111111110111 1101101111 1010011100 1010111001 1111001111 1111110110 1101010000 1100111101 1101000010 1100110000 25.938 42.641 998.82 138212 16 16 13 60 50 4 $GNGGA,143522.00,4333.68389,N,00128.72767,E,1,03,7.49,161.2,M,53.8,M,,*41
137 14 35 23 4333.6841100128.72804161.1ó 00128.72804 161.1 0 1101100111 1011111001 1100011011 1111011011 10000101001 1100101001 1101011111 111111110111 1101101111 1010100001 1010111011 1111101000 1111110101 1101010001 1100111111 1101000111 1100110010 25.938 43.328 998.82 139208 17 14 13 60 50 4 $GNGGA,143523.00,4333.68411,N,00128.72804,E,1,03,7.48,161.1,M,53.8,M,,*4E
138 14 35 24 4333.6831000128.72668161.2ó 00128.72668 161.2 0 1101100111 1011110110 1100011010 1111011001 10000100110 1100101010 1101011111 111111110111 1101101111 1010011101 1010111011 1111110101 1111110111 1101001100 1100111011 1101001001 1100110100 25.938 43.282 998.82 140210 16 16 14 59 52 3 $GNGGA,143524.00,4333.68310,N,00128.72668,E,1,03,7.48,161.2,M,53.8,M,,*48
139 14 35 25 4333.6830800128.72597161.2ó 00128.72597 161.2 0 1101100111 1011110110 1100011001 1111100000 10000101111 1100101010 1101011101 111111110111 1101101111 1010011011 1010111111 10000000000 1111111010 1101001011 1100111101 1101001001 1100110110 26.000 43.290 998.82 141208 17 15 14 60 51 3 $GNGGA,143525.00,4333.68308,N,00128.72597,E,1,03,7.47,161.2,M,53.8,M,,*4C
140 14 35 26 4333.6818000128.72367161.1ó 00128.72367 161.1 0 1101100111 1011110101 1100010110 1111101001 10000110000 1100101011 1101011100 0 1101101111 1010010010 1010111010 1111111010 1111111000 1101001010 1100111011 1101000110 1100101001 25.938 43.297 998.83 142209 16 15 14 58 51 4 $GNGGA,143526.00,4333.68180,N,00128.72367,E,1,03,7.46,161.1,M,53.8,M,,*46
141 14 35 27 4333.6831800128.72396161.2ó 00128.72396 161.2 0 1101100111 1011111010 1100011010 1111011100 10000100110 1100100000 1101011001 111111110111 1101101111 1010000101 1010111010 1111101101 1111111000 1101001101 1101000000 1101001111 1100110110 25.938 43.358 998.83 143207 17 14 13 59 51 4 $GNGGA,143527.00,4333.68318,N,00128.72396,E,1,03,7.45,161.2,M,53.8,M,,*4A
142 14 35 28 4333.6825700128.72382161.2ó 00128.72382 161.2 0 1101100111 1011110111 1100010101 1111100010 10000101011 1100100111 1101100000 0 1101101111 1001111110 1010111100 1111100000 1111110110 1101001011 1100111011 1101001101 1100111011 25.938 43.465 998.82 144205 16 14 14 58 51 4 $GNGGA,143528.00,4333.68257,N,00128.72382,E,1,03,7.44,161.2,M,53.8,M,,*4B
143 14 35 29 Nan Nan Nan 0 1101101000 1011111010 1100011010 1111100111 10000101000 1100100011 1101011111 111111110111 1101101111 1001111001 1010111101 1111000110 1111110111 1101001001 1100111000 1101001011 1100110101 25.938 43.458 998.82 145191 16 7 11 59 51 4 $GNGGA,143529.00,,,,,0,00,99.9,,,,,,*49
144 14 35 30 Nan Nan Nan 0 1101100111 1011111000 1100010111 1111011111 10000101010 1100100010 1101011110 0 1101101111 1001110011 1010111010 1110101101 1111111000 1101001101 1100111000 1101010001 1100110100 26.000 43.473 998.82 146189 15 7 11 59 51 4 $GNGGA,143530.00,,,,,0,00,99.9,,,,,,*41
145 14 35 31 Nan Nan Nan 0 1101101000 1011110111 1100010111 1111110011 10000110001 1100101000 1101100010 0 1101101111 1001110111 1010111101 1110100001 1111111001 1101001111 1100111000 1101010000 1100111000 26.000 43.633 998.81 147191 16 7 12 59 51 3 $GNGGA,143531.00,,,,,0,00,99.9,,,,,,*40
146 14 35 32 Nan Nan Nan 0 1101100111 1011111011 1100011010 1111110001 10000101011 1100100100 1101011011 111111110111 1101101111 1001110011 1010111101 1110001101 1111110111 1101010100 1100111011 1101001010 1100110010 26.000 43.702 998.81 148189 16 7 10 58 52 4 $GNGGA,143532.00,,,,,0,00,99.9,,,,,,*43
147 14 35 33 Nan Nan Nan 0 1101100111 1011111010 1100011001 1111110100 10000101111 1100101000 1101100000 0 1101101111 1001101011 1010111010 1101111111 1111111010 1101010010 1100111011 1101001010 1100110110 26.000 43.694 998.82 149188 16 7 11 60 50 4 $GNGGA,143533.00,,,,,0,00,99.9,,,,,,*42
148 14 35 34 Nan Nan Nan 0 1101100111 1011111100 1100011001 1111110010 10000101011 1100011111 1101011100 0 1101101111 1001101100 1010111100 1101101101 1111111000 1101010011 1100111000 1101010011 1100110110 25.938 43.656 998.81 150185 16 7 11 58 51 4 $GNGGA,143534.00,,,,,0,00,99.9,,,,,,*45
149 14 35 35 Nan Nan Nan 0 1101100111 1011111100 1100011001 1111111011 10000101111 1100100101 1101100001 111111110111 1101101111 1001101010 1010111011 1101101000 1111111000 1101010101 1100111101 1101001101 1100111000 26.000 43.335 998.82 151186 17 7 10 60 51 4 $GNGGA,143535.00,,,,,0,00,99.9,,,,,,*44
150 14 35 36 4333.6814700128.71771160.0ó 00128.71771 160.0 0 1101100111 1011111101 1100011100 1111110000 10000101001 1100100011 1101011010 0 1101101111 1001100101 1010111011 1101011011 1111110110 1101011100 1100111001 1101001100 1100111011 26.000 43.091 998.82 152198 16 15 13 58 52 4 $GNGGA,143536.00,4333.68147,N,00128.71771,E,1,04,2.46,160.0,M,53.8,M,,*4E
151 14 35 37 4333.6749400128.70971159.9ó 00128.70971 159.9 0 1101100111 1011111010 1100011001 1111110111 10000101011 1100100010 1101011101 111111110111 1101101111 1001101001 1010111010 1101011000 1111110110 1101011001 1100111111 1101000111 1100110000 26.000 42.992 998.81 153197 17 15 14 60 51 3 $GNGGA,143537.00,4333.67494,N,00128.70971,E,1,04,2.46,159.9,M,53.8,M,,*47
152 14 35 38 4333.6708400128.70378160.0ó 00128.70378 160.0 0 1101100111 1011111011 1100011001 1111101111 10000101010 1100101100 1101100010 0 1101101111 1001101011 1010111110 1101010111 1111111001 1101010101 1100110111 1101000111 1100110111 26.000 42.939 998.81 154195 16 14 14 59 50 4 $GNGGA,143538.00,4333.67084,N,00128.70378,E,1,04,2.46,160.0,M,53.8,M,,*4D
153 14 35 39 4333.6678300128.69952160.6ó 00128.69952 160.6 0 1101100111 1011111011 1100011100 1111110100 10000101100 1100101001 1101011110 0 1101101111 1001110001 1011000011 1101001010 1111101111 1101011101 1100111110 1100101001 1100010100 26.000 42.870 998.82 155195 17 14 13 60 50 4 $GNGGA,143539.00,4333.66783,N,00128.69952,E,1,04,2.46,160.6,M,53.8,M,,*41
154 14 35 40 4333.6657300128.69592160.9ó 00128.69592 160.9 0 1101100111 1011111011 1100011001 1111110000 10000101100 1100011111 1101011000 0 1101101111 1010000011 1011001101 10001100010 10001001011 1101100101 1101010100 11 1100101 26.000 42.855 998.82 156194 15 15 15 59 51 3 $GNGGA,143540.00,4333.66573,N,00128.69592,E,1,04,2.46,160.9,M,53.8,M,,*4D
155 14 35 41 4333.6631200128.69305161.1ó 00128.69305 161.1 0 1101100111 1011111011 1100011101 1111111000 10000101100 1100100110 1101011001 111111110111 1101101111 0 0 100 100 0 0 10 0 26.000 42.832 998.83 157192 15 16 14 59 52 3 $GNGGA,143541.00,4333.66312,N,00128.69305,E,1,04,2.46,161.1,M,53.8,M,,*4C
156 14 35 42 4333.6614400128.69121161.2ó 00128.69121 161.2 0 1101101000 1011111110 1100011111 1111100100 10000101001 1100010010 1101001011 111111110111 0 0 0 100 11 0 0 10 0 26.000 42.786 998.83 158192 16 14 13 60 50 4 $GNGGA,143542.00,4333.66144,N,00128.69121,E,1,04,2.46,161.2,M,53.8,M,,*49
157 14 35 43 4333.6590100128.68955161.2ó 00128.68955 161.2 0 1101100111 1011111010 1100010111 10000010010 10000111011 1100110011 1101101001 111111110111 1101 0 0 11 11 0 0 1 0 25.938 42.763 998.84 159191 15 15 14 59 50 4 $GNGGA,143543.00,4333.65901,N,00128.68955,E,1,03,7.32,161.2,M,53.8,M,,*49
158 14 35 44 4333.6576200128.68872161.2ó 00128.68872 161.2 0 11001000111 1 10 1 0 10010101 100 0 10011 0 0 100 11 0 0 0 11 25.938 42.786 998.83 160192 14 15 14 60 51 3 $GNGGA,143544.00,4333.65762,N,00128.68872,E,1,03,7.31,161.2,M,53.8,M,,*42
159 14 35 45 Nan Nan Nan 0 110111011 0 10 10 11 10001010000 0 0 1000001 0 0 11 11 0 0 0 10 26.000 43.221 998.82 161177 14 7 11 60 51 3 $GNGGA,143545.00,,,,,0,00,99.9,,,,,,*43
160 14 35 46 Nan Nan Nan 0 11010111 0 10 0 11 100011001101 0 0 100001100 0 1 100 11 0 0 10 0 26.000 43.259 998.82 162174 14 7 11 58 51 4 $GNGGA,143546.00,,,,,0,00,99.9,,,,,,*40
161 14 35 47 Nan Nan Nan 0 10111011 0 10 10 10 100110100001 0 0 11100001 0 0 101 11 0 0 1 10 26.000 43.473 998.83 163174 13 7 11 60 51 3 $GNGGA,143547.00,,,,,0,00,99.9,,,,,,*41
162 14 35 48 Nan Nan Nan 0 1101101001 11 1101100 11 1101011 100 1101111 111111110111 11000001 0 1 100 100 0 0 100 10 26.000 43.686 998.83 164172 15 7 10 58 51 4 $GNGGA,143548.00,,,,,0,00,99.9,,,,,,*4E
163 14 35 49 4333.6533600128.68586161.1ó 00128.68586 161.1 0 1101101001 11 1100110 11 1100100 11 1101111 111111110111 10000100 0 0 1000 10 0 0 0 10 26.000 43.534 998.83 165186 15 15 14 60 51 3 $GNGGA,143549.00,4333.65336,N,00128.68586,E,1,03,4.35,161.1,M,53.8,M,,*48
164 14 35 50 4333.6540000128.68625161.1ó 00128.68625 161.1 0 1101101001 11 1101110 11 110000110 11 1101110 0 0 0 0 100 0 0 0 1 1 25.938 43.335 998.84 166184 14 14 14 59 50 4 $GNGGA,143550.00,4333.65400,N,00128.68625,E,1,03,4.35,161.1,M,53.8,M,,*48
165 14 35 51 4333.6542600128.68786160.9ó 00128.68786 160.9 0 1101101001 10101000 100000100 10100100 1001110000 11 1101110 0 1001011 1 0 110 101 0 0 1 1 26.000 43.198 998.83 167183 14 15 14 60 51 3 $GNGGA,143551.00,4333.65426,N,00128.68786,E,1,03,4.35,160.9,M,53.8,M,,*4C
166 14 35 52 4333.6552900128.68850160.8ó 00128.68850 160.8 0 1101101001 101010001 110000010 100111111 1011111111 100111111111 1101100 0 10010100 1000001010 111101110 10010011111 1100000011 11 1101110 10011101010 1100000110 25.938 43.091 998.83 168180 15 15 15 59 51 3 $GNGGA,143552.00,4333.65529,N,00128.68850,E,1,03,4.35,160.8,M,53.8,M,,*44
167 14 35 53 4333.6564700128.68962160.8ó 00128.68962 160.8 0 1101101001 110110110 111011011 110100010 1101001001 111111111111 111111111111 111111110111 1101101011 1001101000 1001101111 1111100110 1110101000 11 1101110 10100000011 1101100100 26.000 43.023 998.84 169181 16 16 14 59 52 3 $GNGGA,143553.00,4333.65647,N,00128.68962,E,1,03,4.35,160.8,M,53.8,M,,*4E
168 14 35 54 4333.6571200128.69183160.7ó 00128.69183 160.7 0 1101101001 111110111 1000011010 111111010 1101111011 111111111111 111111111111 111111110111 1101101101 1010000000 1010010111 1110111101 1111110110 11 1101110 10100100011 1110011001 25.938 43.053 998.83 170180 17 14 13 59 51 4 $GNGGA,143554.00,4333.65712,N,00128.69183,E,1,03,4.35,160.7,M,53.8,M,,*41
169 14 35 55 4333.6596700128.69492160.4ó 00128.69492 160.4 0 1101101001 1000011000 1001000010 1001000111 1110100000 111111111111 111111111111 111111110111 1101101101 1010010010 1010110111 1110001001 10000000100 11 1101110 10100011111 1110101101 26.000 43.213 998.84 171180 16 16 15 59 51 3 $GNGGA,143555.00,4333.65967,N,00128.69492,E,1,03,4.35,160.4,M,53.8,M,,*4A
