id HH MM SS longitude latitude altitude adc_1_ch0 adc_1_ch1 adc_1_ch2 adc_1_ch3 adc_1_ch4 adc_1_ch5 adc_1_ch6 adc_1_ch7 adc_1_ch8 adc_2_ch0 adc_2_ch1 adc_2_ch2 adc_2_ch3 adc_2_ch4 adc_2_ch5 adc_2_ch6 adc_2_ch7 adc_2_ch8 temp hum pres t_prog t_gps t_split t_adc t_temp t_hum t_pres trame_gga
1 14 37 03 4333.7024200128.75115150.0ó 00128.75115 150.0 1101101010 1101101010 1001110000 1011000000 1101010011 1111111101 1101100001 1101000000 0 1101101110 1101101110 1100100011 1111101000 10000110101 1101000000 1101110001 10010000000 1101010001 26.000 42.817 795.83 2796 17 14 13 60 50 4 $GNGGA,143703.00,4333.70242,N,00128.75115,E,1,04,2.51,150.0,M,53.8,M,,*40
2 14 37 04 4333.7023200128.75118149.7ó 00128.75118 149.7 0 1101101010 1001110010 1011000010 1101000111 1111111100 1101100101 1101000011 111111110111 1101101110 1101101110 1100011110 1111110111 10000111010 1100111011 1101101110 10001111010 1101001111 26.000 42.801 998.79 3795 16 14 14 58 51 4 $GNGGA,143704.00,4333.70232,N,00128.75118,E,1,04,2.51,149.7,M,53.8,M,,*42
3 14 37 05 4333.7025400128.75152149.3ó 00128.75152 149.3 0 1101101010 1001110110 1011000110 1101010010 1111111001 1101100001 1100111011 111111110111 1101101110 1101101110 1100100101 1111100101 10000110001 1100111111 1101101111 10001101111 1101001110 26.000 42.801 998.80 4795 18 15 13 60 50 4 $GNGGA,143705.00,4333.70254,N,00128.75152,E,1,04,2.51,149.3,M,53.8,M,,*49
4 14 37 06 4333.7018300128.75111148.9ó 00128.75111 148.9 0 1101101010 1001110010 1010111111 1101011110 1111111101 1101011100 1100110111 111111110111 1101101110 1101101110 1100011111 1111101101 10000111000 1101000101 1101110111 10001100110 1101001010 26.000 42.878 998.81 5793 16 14 14 58 51 4 $GNGGA,143706.00,4333.70183,N,00128.75111,E,1,04,2.51,148.9,M,53.8,M,,*4F
5 14 37 07 4333.7013600128.75004150.8ó 00128.75004 150.8 0 1101101010 1001110011 1010111111 1101011111 1111111101 1101011110 1100111001 111111110111 1101101110 1101101110 1100100000 1111100011 10000110101 1100111011 1101101101 10001101010 1101010011 26.000 42.855 998.81 6792 16 15 13 59 51 4 $GNGGA,143707.00,4333.70136,N,00128.75004,E,1,03,10.4,150.8,M,53.8,M,,*49
6 14 37 08 4333.7017300128.75000150.6ó 00128.75000 150.6 0 1101101010 1001110101 1010111101 1101100100 1111111011 1101011100 1100111011 111111110111 1101101110 1101101110 1100100000 1111100000 10000110100 1100111110 1101110000 10001011110 1101001101 26.000 42.855 998.83 7790 17 14 13 60 50 4 $GNGGA,143708.00,4333.70173,N,00128.75000,E,1,03,10.4,150.6,M,53.8,M,,*4D
7 14 37 09 4333.7005800128.74959150.3ó 00128.74959 150.3 0 1101101010 1001110111 1010111111 1101100111 1111111100 1101011011 1100111010 0 1101101111 1101101110 1100100011 1111100110 10000110011 1100111010 1101101100 10001100001 1101001011 26.000 42.862 998.82 8791 16 15 14 58 51 4 $GNGGA,143709.00,4333.70058,N,00128.74959,E,1,03,6.69,150.3,M,53.8,M,,*49
8 14 37 10 4333.6998300128.74923150.1ó 00128.74923 150.1 0 1101101010 1001111100 1010111111 1101101111 1111111110 1101010111 1100111011 111111110111 1101101111 1101101110 1100011111 1111100011 10000110110 1100111011 1101101010 10001011001 1101001110 26.000 42.878 998.82 9789 17 15 14 60 50 4 $GNGGA,143710.00,4333.69983,N,00128.74923,E,1,03,6.69,150.1,M,53.8,M,,*49
9 14 37 11 4333.7006400128.75024149.9ó 00128.75024 149.9 0 1101101010 1001111010 1010111110 1101110011 1111111111 1101011101 1100111010 0 1101101110 1101101111 1100100100 10000000000 10001000010 1101000001 1101101111 10001011111 1101001001 26.000 42.901 998.82 10788 16 15 15 59 51 3 $GNGGA,143711.00,4333.70064,N,00128.75024,E,1,04,2.52,149.9,M,53.8,M,,*44
10 14 37 12 4333.7017800128.75013149.7ó 00128.75013 149.7 0 1101101010 1001111001 1011000000 1101101110 1111111101 1101010010 1100110101 111111110111 1101101110 1101101111 1100100011 1111111000 10001000000 1101000100 1101110100 10001010110 1101010000 26.000 42.954 998.81 11786 16 16 14 59 52 3 $GNGGA,143712.00,4333.70178,N,00128.75013,E,1,04,2.52,149.7,M,53.8,M,,*41
11 14 37 13 4333.7032700128.75177149.6ó 00128.75177 149.6 0 1101101010 1001111010 1010111111 1101110100 1111111110 1101011100 1100111010 0 1101101110 1101101111 1100100001 1111100101 10000111000 1100111100 1101101010 10001011000 1101010010 26.000 42.969 998.81 12786 16 15 14 60 51 3 $GNGGA,143713.00,4333.70327,N,00128.75177,E,1,05,2.39,149.6,M,53.8,M,,*46
12 14 37 14 4333.7041200128.75341149.4ó 00128.75341 149.4 0 1101101010 1001110100 1010111100 1101110101 1111111111 1101010110 1100111111 111111110111 1101110000 1101110010 1100011000 1110011011 10000001011 1100110010 1101100110 10001001111 1101010011 26.063 42.977 998.81 13786 16 16 14 59 51 4 $GNGGA,143714.00,4333.70412,N,00128.75341,E,1,05,2.39,149.4,M,53.8,M,,*45
13 14 37 15 4333.7038900128.75312149.2ó 00128.75312 149.2 0 1101101010 1001111010 1011000010 1101110101 1111111101 1101010100 1100111001 111111110111 1101110000 1101110001 1100100100 1111100110 10000110100 1100110010 1101100001 10001001101 1101010101 26.000 43.046 998.82 14784 17 14 13 59 51 4 $GNGGA,143715.00,4333.70389,N,00128.75312,E,1,05,2.40,149.2,M,53.8,M,,*4F
14 14 37 16 4333.7030200128.75238149.1ó 00128.75238 149.1 0 1101101010 1001110110 1010111111 1101110101 1111111110 1101010111 1100110111 111111110111 1101110001 1101110001 1100010101 10000101110 10001011000 1100110011 1101100100 10000111111 1101001110 26.000 43.129 998.81 15782 16 15 15 59 51 3 $GNGGA,143716.00,4333.70302,N,00128.75238,E,1,05,2.40,149.1,M,53.8,M,,*45
15 14 37 17 4333.7024000128.75247149.0ó 00128.75247 149.0 0 1101101010 1001111000 1010111111 1101110110 1111111101 1101011011 1100111011 111111110111 1101110001 1101110010 1100110000 1111111111 10001000011 1100110110 1101101000 1111000111 1011000100 26.000 43.183 998.81 16782 16 16 14 59 52 3 $GNGGA,143717.00,4333.70240,N,00128.75247,E,1,04,4.95,149.0,M,53.8,M,,*45
16 14 37 18 4333.7031700128.75261148.9ó 00128.75261 148.9 0 1101101010 1001110111 1011000000 1101111100 1111111110 1101010111 1101000000 0 1101110010 1101110010 1100100011 1111101101 10000110101 1100110010 1101011101 1111001101 1011011111 26.000 43.213 998.82 17780 16 14 14 59 50 4 $GNGGA,143718.00,4333.70317,N,00128.75261,E,1,03,4.34,148.9,M,53.8,M,,*49
17 14 37 19 Nan Nan Nan 0 1101101010 1001111011 1011000001 1101110101 1111111101 1101011100 1100111010 0 1101110010 1101110010 1100011000 1111000101 10000011010 1100110100 1101100101 10001000000 1101011111 26.000 43.290 998.81 18764 17 7 10 58 51 4 $GNGGA,143719.00,,,,,0,00,99.9,,,,,,*48
18 14 37 20 Nan Nan Nan 0 1101101010 1001111000 1010111110 1110000101 10000000001 1101011001 1100111101 111111110111 1101110010 1101110010 1100011111 1111111000 10000111010 1100111010 1101101010 10001000010 1101100001 26.000 43.435 998.82 19765 16 7 10 58 52 4 $GNGGA,143720.00,,,,,0,00,99.9,,,,,,*42
19 14 37 21 4333.7037700128.75257148.7ó 00128.75257 148.7 0 1101101010 1001111010 1011000001 1101010101 1111101011 1101010011 1100110000 0 1101110010 1101110011 1100011110 1111100101 10000101110 1100111000 1101101001 10000111010 1101011011 26.000 43.549 998.83 20776 16 14 14 58 51 4 $GNGGA,143721.00,4333.70377,N,00128.75257,E,1,03,4.34,148.7,M,53.8,M,,*4E
20 14 37 22 4333.7036100128.75195148.6ó 00128.75195 148.6 0 1101101010 1001110111 1010111110 1101111011 1111111110 1101011100 1100111010 0 1101110010 1101110010 1100011111 1111110010 10000111001 1100111100 1101101010 10000111110 1101011101 26.000 43.572 998.83 21776 17 14 13 59 51 4 $GNGGA,143722.00,4333.70361,N,00128.75195,E,1,03,4.34,148.6,M,53.8,M,,*46
21 14 37 23 Nan Nan Nan 0 1101101010 1010000010 1011000000 1101110011 1111111100 1101010101 1100110100 0 1101110010 1101110010 1100100011 1111110101 10000110101 1100111010 1101101000 10000111111 1101010011 26.000 43.473 998.83 22762 17 7 11 60 51 3 $GNGGA,143723.00,,,,,0,00,99.9,,,,,,*41
22 14 37 24 Nan Nan Nan 0 1101101010 1010101100 1011000000 1110010111 1111111111 1101010100 1100110101 111111110111 1101110011 1101110010 1100100010 1111101101 10000111000 1100110110 1101101000 10000110001 1101000111 26.000 43.450 998.83 23761 16 7 12 59 51 3 $GNGGA,143724.00,,,,,0,00,99.9,,,,,,*46
23 14 37 25 4333.7038200128.75160148.6ó 00128.75160 148.6 0 1101101010 1011101000 1011000110 1111011100 1111111111 1101001011 1100111001 111111110111 1101110011 1101110011 1100011111 1111101100 10000110111 1100111011 1101100110 10000101101 1100111111 26.063 43.419 998.83 24774 17 15 14 60 50 4 $GNGGA,143725.00,4333.70382,N,00128.75160,E,1,03,4.33,148.6,M,53.8,M,,*41
24 14 37 26 4333.7045700128.75067148.5ó 00128.75067 148.5 0 1101101010 1100011000 1011000011 10001010111 10000000010 1101000011 1100111010 0 1101110011 1101110011 1100011111 1111110000 10000111000 1100111000 1101100100 10000101101 1100111111 26.000 43.397 998.84 25773 16 16 15 59 51 3 $GNGGA,143726.00,4333.70457,N,00128.75067,E,1,04,4.95,148.5,M,53.8,M,,*43
25 14 37 27 4333.7034800128.75078148.3ó 00128.75078 148.3 0 1101101010 1100110101 1011000010 10011000101 10000000000 1100110011 1100111001 111111110111 1101110011 1101110011 1100011100 1111111001 10000110111 1100111101 1101101111 10000011100 1100110010 26.000 43.313 998.84 26771 18 14 13 60 50 4 $GNGGA,143727.00,4333.70348,N,00128.75078,E,1,04,4.95,148.3,M,53.8,M,,*43
26 14 37 28 4333.7033700128.75058148.3ó 00128.75058 148.3 0 1101101010 1101000101 1011000010 10100111011 10000000010 1100100110 1100111010 0 1101110011 1101110100 1100011110 1111111010 10000111001 1100110110 1101101001 10000010010 1100101001 26.000 43.267 998.84 27770 16 15 15 59 51 3 $GNGGA,143728.00,4333.70337,N,00128.75058,E,1,04,4.95,148.3,M,53.8,M,,*46
27 14 37 29 4333.7024300128.75120148.1ó 00128.75120 148.1 0 1101101010 1101001101 1011000100 10110011100 10000000001 1100010011 1100110101 111111110111 1101110100 1101110100 1100011110 1111111110 10000111100 1100110011 1101101001 10000001001 1100011111 26.000 43.274 998.83 28770 16 15 13 59 51 4 $GNGGA,143729.00,4333.70243,N,00128.75120,E,1,04,4.95,148.1,M,53.8,M,,*49
28 14 37 30 4333.7028100128.75059148.0ó 00128.75059 148.0 0 1101101010 1101010011 1011000100 10111110011 10000000101 1100010100 1100111110 0 1101110100 1101110100 1100100010 1111111111 10000111011 1100111101 1101110001 10000001011 1100011001 26.000 43.282 998.83 29767 17 15 14 60 51 3 $GNGGA,143730.00,4333.70281,N,00128.75059,E,1,04,4.96,148.0,M,53.8,M,,*42
29 14 37 31 4333.7030100128.74972148.0ó 00128.74972 148.0 0 1101101010 1101010001 1011000100 11000100110 10000000001 1100001111 1100111110 0 1101110011 1101110100 1100100001 10000001011 10000111111 1100111000 1101101100 10000000100 1100010011 26.000 43.236 998.82 30768 16 15 13 59 50 5 $GNGGA,143731.00,4333.70301,N,00128.74972,E,1,04,4.96,148.0,M,53.8,M,,*4B
30 14 37 32 4333.7029000128.74980147.9ó 00128.74980 147.9 0 1101101010 1101011000 1011000110 11001001110 10000000100 1100000101 1100111000 0 1101110100 1101110100 1100100000 10000001011 10000111011 1100101110 1101101011 10000001010 1100001111 26.063 43.122 998.82 31766 17 15 14 60 51 3 $GNGGA,143732.00,4333.70290,N,00128.74980,E,1,03,6.55,147.9,M,53.8,M,,*40
31 14 37 33 4333.7029800128.74972147.8ó 00128.74972 147.8 0 1101101001 1101010110 1011000100 11001011100 10000000101 1011111101 1100110101 111111110111 1101110100 1101110100 1100100001 10000011001 10000111011 1100101010 1101100111 10000000111 1100010001 26.000 43.053 998.81 32765 16 14 14 58 51 4 $GNGGA,143733.00,4333.70298,N,00128.74972,E,1,03,6.54,147.8,M,53.8,M,,*44
32 14 37 34 4333.7027700128.74908147.7ó 00128.74908 147.7 0 1101101010 1101011001 1011000110 11001101011 10000000100 1011111011 1100110001 111111110111 1101110100 1101110100 1100100010 10000100110 10001000001 1100101110 1101110011 1111111111 1100000101 26.000 43.091 998.81 33764 17 16 14 60 51 3 $GNGGA,143734.00,4333.70277,N,00128.74908,E,1,03,6.53,147.7,M,53.8,M,,*47
33 14 37 35 4333.7035600128.74926147.7ó 00128.74926 147.7 0 1101101010 1101010100 1011001000 11001100011 10000000100 1011111011 1100111011 111111110111 1101110100 1101110100 1100100010 10000110001 10001000010 1100100100 1101101100 1111111000 1100000011 26.000 43.397 998.82 34762 17 14 14 59 50 4 $GNGGA,143735.00,4333.70356,N,00128.74926,E,1,03,6.53,147.7,M,53.8,M,,*48
34 14 37 36 4333.7039500128.74956147.6ó 00128.74956 147.6 0 1101101010 1101010011 1011000110 11001011111 10000000101 1011111011 1100111001 111111110111 1101110101 1101110101 1100100000 10001000000 10001000001 1100100100 1101110000 1111101100 1011111110 26.000 43.656 998.81 35763 16 16 14 59 51 4 $GNGGA,143736.00,4333.70395,N,00128.74956,E,1,03,6.52,147.6,M,53.8,M,,*43
35 14 37 37 4333.7044000128.74990147.6ó 00128.74990 147.6 0 1101101001 1101001010 1011000110 11001001001 10000000011 1011111111 1100111000 0 1101110100 1101110101 1100100001 10001001111 10000111101 1100011100 1101101111 1111101000 1011110101 26.000 43.671 998.81 36761 17 14 13 59 51 4 $GNGGA,143737.00,4333.70440,N,00128.74990,E,1,03,6.51,147.6,M,53.8,M,,*44
36 14 37 38 4333.7046400128.75016147.5ó 00128.75016 147.5 0 1101101010 1101000111 1011000111 11000110010 10000000011 1011111100 1100110111 111111110111 1101110100 1101110101 1100100010 10001101001 10001000011 1100011000 1101101011 1111101110 1011110101 26.000 43.519 998.81 37760 16 16 15 59 51 3 $GNGGA,143738.00,4333.70464,N,00128.75016,E,1,03,6.51,147.5,M,53.8,M,,*48
37 14 37 39 4333.7048600128.75015147.5ó 00128.75015 147.5 0 1101101010 1101000100 1011000110 11000011011 10000000101 1011111101 1100111010 0 1101110101 1101110100 1100100010 10001110101 10001000011 1100010011 1101101100 1111100011 1011110000 26.000 43.458 998.82 38759 17 15 14 60 51 3 $GNGGA,143739.00,4333.70486,N,00128.75015,E,1,03,6.50,147.5,M,53.8,M,,*47
38 14 37 40 4333.7049300128.74989147.5ó 00128.74989 147.5 0 1101101010 1100111100 1011000100 11000000111 10000000101 1100000100 1100111111 111111110111 1101110101 1101110101 1100011111 10001111011 10001000011 1100010101 1101101110 1111011010 1011100100 26.000 43.458 998.82 39757 16 14 14 58 51 4 $GNGGA,143740.00,4333.70493,N,00128.74989,E,1,03,6.50,147.5,M,53.8,M,,*40
39 14 37 41 4333.7054300128.74944147.4ó 00128.74944 147.4 0 1101101010 1100111001 1011000101 10111101111 10000000101 1011111110 1100111011 111111110111 1101110101 1101110101 1100100011 10010001000 10001000100 1100010110 1101110000 1111010111 1011100001 26.000 43.450 998.83 40756 16 16 14 59 52 3 $GNGGA,143741.00,4333.70543,N,00128.74944,E,1,03,6.49,147.4,M,53.8,M,,*45
40 14 37 42 4333.7055100128.74887147.5ó 00128.74887 147.5 0 1101101010 1100111010 1011001000 10111011100 10000000100 1100000100 1100111011 111111110111 1101110101 1101110100 1100100010 10010010111 10001000110 1100010101 1101110000 1111010001 1011010010 26.000 43.419 998.83 41755 17 15 14 60 51 3 $GNGGA,143742.00,4333.70551,N,00128.74887,E,1,03,6.48,147.5,M,53.8,M,,*4B
41 14 37 43 Nan Nan Nan 0 1101101010 1100110100 1011000101 10111010100 10000001000 1100000001 1100111010 0 1101110101 1101110101 1100100000 10010011110 10001000010 1100011010 1101111000 1111010010 1011010001 26.000 43.397 998.83 42742 17 7 10 59 50 4 $GNGGA,143743.00,,,,,0,00,99.9,,,,,,*47
42 14 37 44 Nan Nan Nan 0 1101101010 1100110100 1011001000 10110111001 10000000101 1100000001 1100111001 111111110111 1101110101 1101110101 1100100101 10010100011 10001000010 1100001010 1101101001 1111010101 1011011011 26.000 43.351 998.83 43743 16 7 11 59 52 3 $GNGGA,143744.00,,,,,0,00,99.9,,,,,,*40
43 14 37 45 4333.7054900128.74944147.4ó 00128.74944 147.4 0 1101101010 1100101000 1011000001 10110111000 10000001000 1100000010 1100110110 0 1101110101 1101110110 1100100000 10010111000 10001001010 1100010000 1101101110 1111000101 1011000011 26.000 43.389 998.84 44754 15 15 15 59 51 3 $GNGGA,143745.00,4333.70549,N,00128.74944,E,1,03,6.47,147.4,M,53.8,M,,*45
44 14 37 46 4333.7029400128.74393147.5ó 00128.74393 147.5 0 1101101010 1100101101 1011001000 10110101101 10000001000 1100000000 1100110111 111111110111 1101110101 1101110101 1100100010 10010101010 10001000101 1100001111 1101101110 1111001110 1011001010 26.000 43.343 998.84 45752 16 15 13 58 52 4 $GNGGA,143746.00,4333.70294,N,00128.74393,E,1,04,4.97,147.5,M,53.8,M,,*48
45 14 37 47 4333.7000800128.74090147.6ó 00128.74090 147.6 0 1101101010 1100100101 1011000011 10110001111 10000000100 1100000001 1100110101 111111110111 1101110110 1101110101 1100100010 10010100111 10001000011 1100100000 1101111001 1111011111 1011100000 26.000 43.511 998.84 46750 17 15 14 60 51 3 $GNGGA,143747.00,4333.70008,N,00128.74090,E,1,04,4.97,147.6,M,53.8,M,,*4D
46 14 37 48 4333.6974800128.73732147.4ó 00128.73732 147.4 0 1101101010 1100011110 1011000111 10110000001 10000000100 1100000001 1100110110 0 1101110101 1101110101 1100100100 10010101111 10001000110 1100010001 1101101100 1111010100 1011010010 26.000 43.839 998.84 47748 16 15 13 59 50 5 $GNGGA,143748.00,4333.69748,N,00128.73732,E,1,04,4.97,147.4,M,53.8,M,,*43
47 14 37 49 4333.6974200128.73610147.1ó 00128.73610 147.1 0 1101101010 1100000000 1011001000 10101100010 10000000110 1011111101 1100110100 0 1101110101 1101110101 1100011111 10010110000 10001000101 1100001111 1101101011 1111001101 1011000101 26.000 44.022 998.84 48748 17 14 13 60 50 4 $GNGGA,143749.00,4333.69742,N,00128.73610,E,1,03,6.44,147.1,M,53.8,M,,*47
48 14 37 50 4333.6965700128.73456147.1ó 00128.73456 147.1 0 1101101010 1011011000 1011000111 10100100010 10000000110 1100001100 1100111000 0 1101110100 1101110100 1100100011 10010110110 10001001000 1100001011 1101101010 1111000111 1010111111 26.000 44.747 998.83 49748 15 15 15 59 51 3 $GNGGA,143750.00,4333.69657,N,00128.73456,E,1,03,6.43,147.1,M,53.8,M,,*4D
49 14 37 51 4333.6967700128.73461146.9ó 00128.73461 146.9 0 1101101010 1010101110 1011001010 10011001000 10000000110 1100001101 1100110011 111111110111 1101110100 1101110100 1100011111 10010110101 10001000110 1100011011 1101111010 1111000011 1010111000 26.000 45.151 998.83 50748 17 15 14 60 51 3 $GNGGA,143751.00,4333.69677,N,00128.73461,E,1,03,6.43,146.9,M,53.8,M,,*43
50 14 37 52 4333.6956600128.73308146.8ó 00128.73308 146.8 0 1101101010 1010000100 1011000111 10001011000 10000000011 1100011011 1100110110 0 1101110100 1101110100 1100100000 10010110010 10001000110 1100010110 1101110100 1111000110 1011000000 26.000 45.266 998.82 51745 16 14 14 58 51 4 $GNGGA,143752.00,4333.69566,N,00128.73308,E,1,03,6.42,146.8,M,53.8,M,,*4B
51 14 37 53 4333.6919300128.72882146.7ó 00128.72882 146.7 0 1101101010 1001011011 1011000101 1111101001 10000000101 1100100110 1100110110 0 1101110100 1101110011 1100100010 10010110001 10001000111 1100010111 1101110100 1111000101 1011000110 26.000 45.250 998.82 52746 15 16 14 59 51 4 $GNGGA,143753.00,4333.69193,N,00128.72882,E,1,04,3.17,146.7,M,53.8,M,,*41
52 14 37 54 4333.6915900128.72675146.7ó 00128.72675 146.7 0 1101101010 1000111110 1011000100 1101110110 10000000011 1100110010 1100111001 111111110111 1101110100 1101110011 1100100001 10010101100 10001000100 1100011000 1101101110 1111001010 1010111100 26.000 45.174 998.82 53744 17 14 13 60 51 4 $GNGGA,143754.00,4333.69159,N,00128.72675,E,1,04,3.17,146.7,M,53.8,M,,*46
53 14 37 55 4333.6901800128.72458146.7ó 00128.72458 146.7 0 1101101010 1000100010 1011000011 1100001100 10000000100 1100111100 1100111001 111111110111 1101110011 1101110011 1100100011 10010100100 10001001000 1100011000 1101101111 1111000101 1011000000 26.000 45.136 998.84 54743 16 15 14 58 51 4 $GNGGA,143755.00,4333.69018,N,00128.72458,E,1,04,3.17,146.7,M,53.8,M,,*4E
54 14 37 56 4333.6886300128.72285146.9ó 00128.72285 146.9 0 1101101010 1000011010 1011000100 1010101111 10000000100 1101000011 1100111010 0 1101110011 1101110011 1100100000 10010100100 10001000100 1100011111 1101110001 1111001011 1011000100 26.000 45.121 998.83 55743 17 15 14 60 51 3 $GNGGA,143756.00,4333.68863,N,00128.72285,E,1,05,2.89,146.9,M,53.8,M,,*47
55 14 37 57 4333.6880200128.72215146.9ó 00128.72215 146.9 0 1101101010 1000010001 1011000010 1001100111 10000000100 1101001011 1100111000 0 1101110011 1101110011 1100100001 10010100000 10001001100 1100011101 1101101110 1111001000 1011001001 26.000 44.945 998.81 56741 16 14 14 58 51 4 $GNGGA,143757.00,4333.68802,N,00128.72215,E,1,04,4.23,146.9,M,53.8,M,,*4F
56 14 37 58 4333.6867300128.72069147.2ó 00128.72069 147.2 0 1101101010 1000010110 1011000110 1000110010 10000000110 1101010010 1100110011 111111110111 1101110011 1101110010 1100100000 10010011010 10001001000 1100100101 1101110010 1111001000 1011000011 26.000 44.762 998.81 57740 16 15 13 59 51 4 $GNGGA,143758.00,4333.68673,N,00128.72069,E,1,04,4.23,147.2,M,53.8,M,,*4B
57 14 37 59 4333.6866900128.71897147.3ó 00128.71897 147.3 0 1101101010 1000010011 1011000101 1000001000 10000000011 1101011101 1100111000 0 1101110011 1101110010 1100100011 10010001001 10001001000 1100101011 1101110101 1111000111 1011000100 26.063 44.449 998.81 58737 17 15 14 60 51 3 $GNGGA,143759.00,4333.68669,N,00128.71897,E,1,03,8.20,147.3,M,53.8,M,,*42
58 14 38 00 4333.6847700128.71790147.6ó 00128.71790 147.6 0 1101101010 1000010100 1011000110 111110001 10000000101 1101011001 1100110100 0 1101110010 1101110010 1100100010 10010000010 10001000110 1100110100 1101111011 1111000101 1011001001 26.000 44.022 998.81 59738 15 16 14 59 50 5 $GNGGA,143800.00,4333.68477,N,00128.71790,E,1,04,4.23,147.6,M,53.8,M,,*49
59 14 38 01 4333.6829200128.71695147.8ó 00128.71695 147.8 0 1101101010 1000010110 1011000010 111100011 10000000001 1101100010 1100111010 0 1101110010 1101110010 1100100011 10001101001 10001000101 1100110101 1101110111 1111010110 1011001000 26.000 43.816 998.81 60738 17 15 14 60 51 3 $GNGGA,143801.00,4333.68292,N,00128.71695,E,1,05,2.89,147.8,M,53.8,M,,*48
60 14 38 02 4333.6810900128.71635148.1ó 00128.71635 148.1 0 1101101010 1000011001 1011000011 111100100 10000000010 1101100001 1100110110 0 1101110010 1101110010 1100100010 10001011011 10001000011 1100111000 1101110001 1111010011 1011001110 26.000 43.671 998.81 61736 16 15 15 59 51 3 $GNGGA,143802.00,4333.68109,N,00128.71635,E,1,05,2.89,148.1,M,53.8,M,,*46
61 14 38 03 4333.6795900128.71639148.1ó 00128.71639 148.1 0 1101101010 1000011100 1011000010 111101101 10000000100 1101100010 1100110010 0 1101110010 1101110010 1100011110 10001000100 10001000011 1100111101 1101110101 1111010011 1011010001 26.000 43.541 998.81 62736 17 14 13 60 50 4 $GNGGA,143803.00,4333.67959,N,00128.71639,E,1,04,3.18,148.1,M,53.8,M,,*41
62 14 38 04 4333.6792400128.71613148.2ó 00128.71613 148.2 0 1101101010 1000100011 1011000011 111110000 10000000000 1101101000 1100110101 111111110111 1101110010 1101110010 1100100001 10000111101 10001000101 1101000000 1101110100 1111010111 1011011011 26.000 43.412 998.82 63733 16 14 14 58 51 4 $GNGGA,143804.00,4333.67924,N,00128.71613,E,1,04,3.18,148.2,M,53.8,M,,*47
63 14 38 05 4333.6781600128.71776148.3ó 00128.71776 148.3 0 1101101010 1000101101 1011000110 1000000100 10000000010 1101101010 1100110111 111111110111 1101110010 1101110010 1100100001 10000100011 10000111111 1100111011 1101101010 1111101001 1011110011 26.000 43.313 998.82 64733 16 16 14 59 52 3 $GNGGA,143805.00,4333.67816,N,00128.71776,E,1,04,3.18,148.3,M,53.8,M,,*45
64 14 38 06 4333.6769900128.71708148.3ó 00128.71708 148.3 0 1101101010 1000110100 1011000110 1000011101 10000000010 1101100111 1100110011 111111110111 1101110010 1101110010 1100100010 10000010101 10000111111 1101001001 1101111000 1111101000 1011110100 26.000 43.648 998.81 65732 17 14 13 59 51 4 $GNGGA,143806.00,4333.67699,N,00128.71708,E,1,05,2.89,148.3,M,53.8,M,,*4E
65 14 38 07 4333.6768600128.71685148.4ó 00128.71685 148.4 0 1101101010 1000110111 1011000011 1000110101 10000000011 1101101001 1100111100 0 1101110010 1101110010 1100100001 10000001001 10001000010 1101001110 1101111001 1111101010 1011110000 26.063 43.671 998.82 66731 16 15 14 59 50 4 $GNGGA,143807.00,4333.67686,N,00128.71685,E,1,05,2.89,148.4,M,53.8,M,,*42
66 14 38 08 4333.6765600128.71788148.6ó 00128.71788 148.6 0 1101101010 1000111110 1011000101 1001001001 10000000000 1101101110 1100110111 111111110111 1101110010 1101110010 1100100011 1111110110 10001000010 1101010001 1101110001 1111101001 1011110101 26.000 43.747 998.81 67730 17 14 13 60 50 4 $GNGGA,143808.00,4333.67656,N,00128.71788,E,1,05,2.89,148.6,M,53.8,M,,*4E
67 14 38 09 4333.6778700128.71811148.7ó 00128.71811 148.7 0 1101101010 1001000001 1011000100 1001100100 10000000010 1101101000 1100110100 0 1101110001 1101110010 1100011111 1111100111 10001000010 1101010011 1101111010 1111110101 1100000001 26.000 43.931 998.81 68729 16 14 14 58 51 4 $GNGGA,143809.00,4333.67787,N,00128.71811,E,1,05,2.90,148.7,M,53.8,M,,*44
68 14 38 10 4333.6779500128.71838148.9ó 00128.71838 148.9 0 1101101010 1001000111 1011000011 1001110011 10000000001 1101011111 1100110100 0 1101110001 1101110001 1100100011 1111010000 10001000001 1101010010 1101110011 1111110011 1100000110 26.000 43.908 998.82 69726 16 15 13 59 51 4 $GNGGA,143810.00,4333.67795,N,00128.71838,E,1,04,4.23,148.9,M,53.8,M,,*45
69 14 38 11 4333.6788600128.71899148.9ó 00128.71899 148.9 0 1101101010 1001001010 1011000100 1010000110 10000000010 1101100010 1100110100 0 1101110001 1101110001 1100100001 1111000111 10000111111 1101010100 1101111010 1111111000 1100010000 26.000 43.870 998.82 70727 17 14 13 59 51 4 $GNGGA,143811.00,4333.67886,N,00128.71899,E,1,04,4.23,148.9,M,53.8,M,,*42
70 14 38 12 4333.6786300128.71888149.1ó 00128.71888 149.1 0 1101101010 1001001111 1011000011 1010011010 10000000010 1101011101 1100110010 0 1101110010 1101110001 1100100010 1110110100 10000111101 1101010111 1101110110 1111111111 1100010100 26.000 43.778 998.82 71727 16 16 13 59 50 5 $GNGGA,143812.00,4333.67863,N,00128.71888,E,1,04,4.23,149.1,M,53.8,M,,*43
71 14 38 13 4333.6783400128.71817149.2ó 00128.71817 149.2 0 1101101010 1001010010 1011000100 1010110000 10000000001 1101011100 1100110000 0 1101110001 1101110010 1100011111 1110101101 10000111101 1101010101 1101110101 1111111111 1100011001 26.000 43.686 998.82 72726 16 15 14 60 51 3 $GNGGA,143813.00,4333.67834,N,00128.71817,E,1,04,4.23,149.2,M,53.8,M,,*45
72 14 38 14 4333.6784800128.71852149.3ó 00128.71852 149.3 0 1101101010 1001010111 1011000100 1011000000 10000000010 1101011100 1100110010 0 1101110001 1101110001 1100100011 1110100111 10000111100 1101010110 1101110010 10000001000 1100011011 26.000 43.747 998.82 73724 16 15 15 59 51 3 $GNGGA,143814.00,4333.67848,N,00128.71852,E,1,05,2.90,149.3,M,53.8,M,,*46
73 14 38 15 4333.6781400128.71852149.3ó 00128.71852 149.3 0 1101101010 1001011010 1011000101 1011010011 10000000001 1101011110 1100110000 0 1101110001 1101110001 1100100100 1110011010 10000111011 1101010110 1101110011 10000011010 1100101111 26.000 43.770 998.82 74724 15 16 14 60 51 3 $GNGGA,143815.00,4333.67814,N,00128.71852,E,1,05,2.90,149.3,M,53.8,M,,*4E
74 14 38 16 4333.6779900128.71865149.4ó 00128.71865 149.4 0 1101101010 1001011100 1011000100 1011100101 10000000010 1101011011 1100110000 0 1101110001 1101110001 1100100010 1110010011 10000111001 1101010111 1101111010 10000010110 1100101110 26.000 43.580 998.82 75722 16 15 15 59 51 3 $GNGGA,143816.00,4333.67799,N,00128.71865,E,1,05,2.90,149.4,M,53.8,M,,*44
75 14 38 17 4333.6781600128.71927149.3ó 00128.71927 149.3 0 1101101010 1001011100 1011000100 1011100101 1111111111 1101011011 1100110001 111111110111 1101110001 1101110001 1100100000 1110010010 10000111010 1101010011 1101101101 10000010101 1100100010 26.000 43.595 998.82 76721 16 15 14 59 52 3 $GNGGA,143817.00,4333.67816,N,00128.71927,E,1,05,2.90,149.3,M,53.8,M,,*4D
76 14 38 18 4333.6785100128.72010149.3ó 00128.72010 149.3 0 1101101010 1001011110 1011000100 1011110110 10000000000 1101011101 1100110101 111111110111 1101110001 1101110001 1100100001 1110010011 10000111100 1101010011 1101101111 10000011110 1100110001 26.000 43.717 998.82 77720 17 14 13 59 51 4 $GNGGA,143818.00,4333.67851,N,00128.72010,E,1,05,2.90,149.3,M,53.8,M,,*4F
77 14 38 19 4333.6784000128.72054149.3ó 00128.72054 149.3 0 1101101010 1001100011 1011000110 1100000010 10000000100 1101100011 1100110111 111111110111 1101110001 1101110001 1100100011 1110000101 10000110111 1101011000 1101110100 10000100000 1100110110 26.000 43.702 998.83 78720 16 15 14 58 51 4 $GNGGA,143819.00,4333.67840,N,00128.72054,E,1,05,2.90,149.3,M,53.8,M,,*4E
78 14 38 20 4333.6786200128.72189149.2ó 00128.72189 149.2 0 1101101010 1001100001 1011000101 1100001111 10000000100 1101011010 1100110000 0 1101110001 1101110001 1100100011 1110001011 10000111100 1101010011 1101110001 10000100010 1100111011 26.000 43.587 998.82 79718 17 14 13 60 50 4 $GNGGA,143820.00,4333.67862,N,00128.72189,E,1,05,2.90,149.2,M,53.8,M,,*44
79 14 38 21 4333.6793400128.72202149.2ó 00128.72202 149.2 0 1101101010 1001100011 1011000011 1100011011 10000000101 1101010101 1100101101 111111110111 1101110001 1101110001 1100100101 1110001111 10000111010 1101010000 1101110000 10000101001 1100110110 26.000 43.587 998.83 80715 16 14 14 58 51 4 $GNGGA,143821.00,4333.67934,N,00128.72202,E,1,05,2.90,149.2,M,53.8,M,,*47
80 14 38 22 4333.6800900128.72273149.2ó 00128.72273 149.2 0 1101101010 1001100111 1011000101 1100010100 10000000001 1101011010 1100101111 111111110111 1101110001 1101110001 1100100100 1110000110 10000111010 1101010111 1101110010 10000110101 1101000101 26.063 43.603 998.83 81716 16 16 14 59 52 3 $GNGGA,143822.00,4333.68009,N,00128.72273,E,1,05,2.91,149.2,M,53.8,M,,*4B
81 14 38 23 4333.6806700128.72284149.2ó 00128.72284 149.2 0 1101101010 1001100110 1011000101 1100100011 10000000101 1101010101 1100110001 111111110011 1101110001 1101110001 1100100001 1110010000 10000111100 1101010100 1101110110 10000110000 1100111100 26.000 43.595 998.82 82714 17 14 13 60 50 4 $GNGGA,143823.00,4333.68067,N,00128.72284,E,1,05,2.91,149.2,M,53.8,M,,*4A
82 14 38 24 4333.6805900128.72377149.2ó 00128.72377 149.2 0 1101101010 1001100111 1011000110 1100101001 10000000001 1101011100 1100110001 111111110111 1101110001 1101110001 1100100001 1110001100 10000111010 1101010000 1101110001 10000110011 1100111101 26.000 43.572 998.83 83715 16 16 14 59 51 4 $GNGGA,143824.00,4333.68059,N,00128.72377,E,1,05,2.91,149.2,M,53.8,M,,*4D
83 14 38 25 4333.6805500128.72363149.3ó 00128.72363 149.3 0 1101101010 1001101000 1011000110 1100110110 10000000100 1101011100 1100110000 0 1101110001 1101110001 1100100000 1110001100 10000110101 1101010110 1101111001 10000111100 1101000100 26.000 43.519 998.83 84715 17 14 14 60 51 3 $GNGGA,143825.00,4333.68055,N,00128.72363,E,1,05,2.91,149.3,M,53.8,M,,*44
84 14 38 26 4333.6806800128.72405149.2ó 00128.72405 149.2 0 1101101010 1001101100 1011000101 1100110010 10000000010 1101011001 1100110001 111111110111 1101110001 1101110001 1100100010 1110001111 10000111000 1101010101 1101110110 10000110010 1101000100 26.063 43.412 998.84 85712 16 14 14 58 51 4 $GNGGA,143826.00,4333.68068,N,00128.72405,E,1,05,2.91,149.2,M,53.8,M,,*4F
85 14 38 27 4333.6809500128.72365149.2ó 00128.72365 149.2 0 1101101010 1001101001 1011000100 1100111101 10000000100 1101011001 1100110011 111111110111 1101110001 1101110001 1100100110 1110010111 10000111010 1101010001 1101110101 10000110111 1101000010 26.000 43.236 998.83 86713 16 16 14 60 51 3 $GNGGA,143827.00,4333.68095,N,00128.72365,E,1,05,2.91,149.2,M,53.8,M,,*4D
86 14 38 28 4333.6812200128.72348149.2ó 00128.72348 149.2 0 1101101010 1001101011 1011000011 1101000110 10000000110 1101010111 1100110000 0 1101110001 1101110001 1100100001 1110010010 10000110111 1101001110 1101110001 10000111100 1101000101 26.063 43.145 998.84 87709 17 14 13 59 51 4 $GNGGA,143828.00,4333.68122,N,00128.72348,E,1,05,2.91,149.2,M,53.8,M,,*40
87 14 38 29 4333.6822400128.72451149.2ó 00128.72451 149.2 0 1101101010 1001101111 1011000101 1101001010 10000001001 1101010101 1100101110 0 1101110001 1101110001 1100100111 1110001010 10000110011 1101001101 1101110000 10000111101 1101000110 26.000 43.213 998.83 88712 15 16 14 59 52 3 $GNGGA,143829.00,4333.68224,N,00128.72451,E,1,05,2.91,149.2,M,53.8,M,,*4B
88 14 38 30 4333.6832200128.72507149.1ó 00128.72507 149.1 0 1101101010 1001101111 1011000100 1101000101 10000000010 1101011011 1100110100 0 1101110001 1101110001 1100100010 1110010101 10000110110 1101001011 1101110011 10000111010 1101001100 26.000 43.229 998.84 89707 17 14 13 59 51 4 $GNGGA,143830.00,4333.68322,N,00128.72507,E,1,05,2.91,149.1,M,53.8,M,,*45
89 14 38 31 4333.6830900128.72489149.1ó 00128.72489 149.1 0 1101101010 1001101111 1011000011 1101000101 10000000010 1101010110 1100110000 0 1101110001 1101110001 1100011110 1110011010 10000111010 1101010010 1101110101 10001000011 1101010011 26.000 43.274 998.84 90706 15 15 15 59 51 3 $GNGGA,143831.00,4333.68309,N,00128.72489,E,1,05,2.91,149.1,M,53.8,M,,*4A
90 14 38 32 4333.6835600128.72485149.0ó 00128.72485 149.0 0 1101101010 1001110001 1011000111 1101001111 10000000011 1101011001 1100110000 0 1101110001 1101110000 1100100100 1110010010 10000110101 1101001111 1101110100 10001000101 1101010110 26.000 43.328 998.84 91705 16 14 13 59 51 4 $GNGGA,143832.00,4333.68356,N,00128.72485,E,1,04,4.23,149.0,M,53.8,M,,*40
91 14 38 33 4333.6837600128.72491148.9ó 00128.72491 148.9 0 1101101010 1001110100 1011000110 1101001001 10000000001 1101010100 1100101101 111111110111 1101110001 1101110001 1100100011 1110010111 10000111000 1101001101 1101110000 10001001010 1101010101 26.063 43.381 998.83 92704 16 15 15 59 51 3 $GNGGA,143833.00,4333.68376,N,00128.72491,E,1,04,4.23,148.9,M,53.8,M,,*4E
92 14 38 34 4333.6837200128.72509148.8ó 00128.72509 148.8 0 1101101010 1001111001 1011000111 1101010110 10000000110 1101010011 1100110001 111111110111 1101110001 1101110001 1100011111 1110011100 10000111001 1101001110 1101110101 10001000111 1101010000 26.000 43.603 998.82 93703 16 15 13 59 51 4 $GNGGA,143834.00,4333.68372,N,00128.72509,E,1,04,4.23,148.8,M,53.8,M,,*4C
93 14 38 35 4333.6824800128.72493148.7ó 00128.72493 148.7 0 1101101010 1001110101 1011000101 1101011110 10000000100 1101011000 1100110011 111111110111 1101110001 1101110001 1100100010 1110100000 10000111010 1101001100 1101110100 10001000011 1101010011 26.000 43.702 998.82 94703 18 15 13 60 50 4 $GNGGA,143835.00,4333.68248,N,00128.72493,E,1,05,2.92,148.7,M,53.8,M,,*45
94 14 38 36 4333.6824800128.72521148.7ó 00128.72521 148.7 0 1101101010 1001111010 1011000101 1101011100 10000000011 1101011001 1100110010 0 1101110001 1101110000 1100100110 1110100010 10000111000 1101000110 1101101101 10001000110 1101011100 26.063 43.480 998.83 95704 15 16 15 59 51 3 $GNGGA,143836.00,4333.68248,N,00128.72521,E,1,05,2.92,148.7,M,53.8,M,,*4E
95 14 38 37 4333.6815000128.72552148.6ó 00128.72552 148.6 0 1101101010 1001111001 1011000110 1101101011 10000000101 1101011100 1100111000 0 1101110001 1101110001 1100100001 1110011111 10000110101 1101001010 1101110000 10001000011 1101010111 26.063 43.351 998.83 96702 17 14 13 59 51 4 $GNGGA,143837.00,4333.68150,N,00128.72552,E,1,05,2.92,148.6,M,53.8,M,,*40
96 14 38 38 4333.6807600128.72587148.4ó 00128.72587 148.4 0 1101101010 1001111011 1011000110 1101100011 10000000010 1101011011 1100110111 111111110111 1101110001 1101110001 1100100010 1110100110 10000111000 1101001010 1101110011 10001000010 1101011110 26.000 43.450 998.83 97700 16 15 15 59 50 4 $GNGGA,143838.00,4333.68076,N,00128.72587,E,1,05,2.92,148.4,M,53.8,M,,*40
97 14 38 39 4333.6811300128.72674148.5ó 00128.72674 148.5 0 1101101010 1001111000 1011000100 1101101010 10000000100 1101011001 1100110111 111111110111 1101110001 1101110001 1100100100 1110100111 10000111000 1101001011 1101110011 10001000001 1101011111 26.000 43.343 998.82 98698 16 16 14 59 52 3 $GNGGA,143839.00,4333.68113,N,00128.72674,E,1,05,2.92,148.5,M,53.8,M,,*4D
98 14 38 40 4333.6823600128.72770148.3ó 00128.72770 148.3 0 1101101010 1001111011 1011000110 1101101101 10000000100 1101010000 1100101110 0 1101110001 1101110000 1100100001 1110100101 10000110101 1101000100 1101110010 10001000100 1101100000 26.000 43.191 998.83 99698 16 15 14 60 50 4 $GNGGA,143840.00,4333.68236,N,00128.72770,E,1,06,2.37,148.3,M,53.8,M,,*48
99 14 38 41 4333.6827500128.72780148.2ó 00128.72780 148.2 0 1101101010 1001111111 1011000111 1101101011 10000000011 1101010100 1100101110 0 1101110000 1101110001 1100100001 1110100110 10000111000 1101001011 1101110111 10000111110 1101100100 26.000 43.145 998.82 100697 16 15 13 59 50 5 $GNGGA,143841.00,4333.68275,N,00128.72780,E,1,06,2.37,148.2,M,53.8,M,,*40
100 14 38 42 4333.6835900128.72878148.1ó 00128.72878 148.1 0 1101101010 1001111110 1011000111 1101101110 10000000011 1101010110 1100110010 0 1101110000 1101110000 1100100011 1110100010 10000110111 1101001001 1101110101 10001000110 1101100000 26.000 43.084 998.84 101697 17 14 13 59 51 4 $GNGGA,143842.00,4333.68359,N,00128.72878,E,1,06,2.37,148.1,M,53.8,M,,*47
101 14 38 43 4333.6843500128.72903147.9ó 00128.72903 147.9 0 1101101010 1001111100 1011000110 1101110010 10000000100 1101011000 1100110011 111111110111 1101110000 1101110001 1100100001 1110110000 10000110111 1101001000 1101110100 10001000001 1101100001 26.000 43.084 998.84 102696 17 15 14 59 50 4 $GNGGA,143843.00,4333.68435,N,00128.72903,E,1,06,2.37,147.9,M,53.8,M,,*41
102 14 38 44 4333.6852600128.72974147.7ó 00128.72974 147.7 0 1101101010 1001111111 1011000111 1101110110 10000000100 1101010100 1100101111 111111110111 1101110001 1101110001 1100011110 1110101010 10000110100 1101000101 1101101111 10000111111 1101011110 26.000 43.168 998.83 103696 18 15 13 60 50 4 $GNGGA,143844.00,4333.68526,N,00128.72974,E,1,06,2.37,147.7,M,53.8,M,,*4B
103 14 38 45 4333.6859200128.73043147.6ó 00128.73043 147.6 0 1101101010 1001111010 1011000100 1110000000 10000000101 1101011000 1100110011 111111110111 1101110000 1101110000 1100100010 1110101110 10000110100 1101000100 1101101111 10000111100 1101011111 26.000 43.145 998.83 104694 16 15 15 59 51 3 $GNGGA,143845.00,4333.68592,N,00128.73043,E,1,06,2.37,147.6,M,53.8,M,,*48
104 14 38 46 4333.6871100128.73153147.5ó 00128.73153 147.5 0 1101101010 1001111101 1011000110 1101111100 10000000101 1101001110 1100101110 0 1101110001 1101110001 1100100001 1110110001 10000111010 1101000101 1101110011 10001000100 1101100001 26.000 43.114 998.83 105692 16 15 13 59 51 4 $GNGGA,143846.00,4333.68711,N,00128.73153,E,1,06,2.37,147.5,M,53.8,M,,*41
105 14 38 47 4333.6879900128.73250147.5ó 00128.73250 147.5 0 1101101010 1001111100 1011000110 1101111111 10000000110 1101010011 1100110000 0 1101110000 1101110000 1100100000 1110110011 10000110111 1101000000 1101110010 10001000010 1101011000 26.063 43.076 998.82 106690 17 14 13 59 51 4 $GNGGA,143847.00,4333.68799,N,00128.73250,E,1,05,3.74,147.5,M,53.8,M,,*45
106 14 38 48 4333.6880300128.73311147.3ó 00128.73311 147.3 0 1101101010 1010000001 1011000101 1101111111 10000000100 1101010001 1100101111 111111110111 1101110000 1101110000 1100100010 1110110010 10000110010 1101000101 1101110011 10000111101 1101010000 26.063 43.046 998.81 107691 16 16 15 59 51 3 $GNGGA,143848.00,4333.68803,N,00128.73311,E,1,05,3.74,147.3,M,53.8,M,,*44
107 14 38 49 4333.6884600128.73408147.2ó 00128.73408 147.2 0 1101101010 1010000010 1011000010 1101111100 10000000011 1101010110 1100110010 0 1101110000 1101110000 1100100100 1110101110 10000110111 1101000011 1101110000 10001001011 1101011100 26.063 43.030 998.82 108688 17 14 14 60 51 3 $GNGGA,143849.00,4333.68846,N,00128.73408,E,1,05,3.74,147.2,M,53.8,M,,*4A
108 14 38 50 4333.6885500128.73418147.1ó 00128.73418 147.1 0 1101101010 1010001001 1011000111 1110001011 10000000101 1101001011 1100101010 0 1101110000 1101110000 1100100000 1110101110 10000110011 1101000111 1101110010 10001000010 1101100101 26.000 43.084 998.82 109686 16 15 14 59 50 4 $GNGGA,143850.00,4333.68855,N,00128.73418,E,1,05,3.74,147.1,M,53.8,M,,*42
109 14 38 51 4333.6892300128.73475147.0ó 00128.73475 147.0 0 1101101010 1010001001 1011001000 1110010000 10000000100 1101001110 1100101110 0 1101110000 1101110000 1100100100 1110111101 10000111000 1101000010 1101101111 10001000001 1101010010 26.063 43.244 998.82 110686 16 15 13 59 51 4 $GNGGA,143851.00,4333.68923,N,00128.73475,E,1,05,3.74,147.0,M,53.8,M,,*49
110 14 38 52 4333.6901500128.73568147.0ó 00128.73568 147.0 0 1101101010 1010000101 1011001001 1110001101 10000000010 1101001110 1100110100 0 1101110000 1101110000 1100100001 1110111000 10000110110 1100111110 1101101010 10000111101 1101010110 26.000 43.335 998.82 111685 17 15 14 60 51 3 $GNGGA,143852.00,4333.69015,N,00128.73568,E,1,05,3.74,147.0,M,53.8,M,,*4A
111 14 38 53 4333.6904200128.73650146.9ó 00128.73650 146.9 0 1101101010 1010000100 1011000100 1110010000 10000000100 1101010010 1100110010 0 1101110000 1101110000 1100100101 1110111000 10000110101 1101000100 1101110101 10001001010 1101100010 26.063 43.389 998.83 112684 16 15 14 59 51 4 $GNGGA,143853.00,4333.69042,N,00128.73650,E,1,04,14.3,146.9,M,53.8,M,,*4E
112 14 38 54 4333.6912800128.73626146.8ó 00128.73626 146.8 0 1101101010 1010000011 1011001000 1110010101 10000000110 1101001010 1100101110 0 1101110000 1101110000 1100100010 1110111100 10000111000 1101000011 1101110010 10001000101 1101011010 26.000 43.351 998.82 113683 16 15 14 60 51 3 $GNGGA,143854.00,4333.69128,N,00128.73626,E,1,05,3.74,146.8,M,53.8,M,,*43
113 14 38 55 4333.6922300128.73614146.8ó 00128.73614 146.8 0 1101101010 1010000001 1011001001 1110001110 10000000011 1101010001 1100101111 111111110111 1101110000 1101110000 1100100010 1110111010 10000110111 1100111001 1101101011 10001001001 1101010111 26.063 43.297 998.82 114682 16 14 14 59 50 4 $GNGGA,143855.00,4333.69223,N,00128.73614,E,1,05,3.74,146.8,M,53.8,M,,*4B
114 14 38 56 4333.6930000128.73536146.8ó 00128.73536 146.8 0 1101101010 1001111100 1011000111 1110001011 10000000110 1101001110 1100101110 0 1101110000 1101110000 1100100100 1110111001 10000110100 1101000001 1101101111 10001000001 1101010101 26.063 43.229 998.83 115681 16 15 13 58 52 4 $GNGGA,143856.00,4333.69300,N,00128.73536,E,1,05,3.74,146.8,M,53.8,M,,*4B
115 14 38 57 4333.6928600128.73632146.8ó 00128.73632 146.8 0 1101101010 1001111011 1011000111 1110000101 10000000101 1101001100 1100110010 0 1101110000 1101110000 1100100010 1111000001 10000110100 1100111111 1101101011 10001000100 1101010111 26.063 43.389 998.83 116678 17 15 14 60 51 3 $GNGGA,143857.00,4333.69286,N,00128.73632,E,1,05,3.74,146.8,M,53.8,M,,*42
116 14 38 58 4333.6920000128.73637146.7ó 00128.73637 146.7 0 1101101001 1001111010 1011000110 1110000101 10000000110 1101001101 1100101101 111111110111 1101110000 1101110000 1100100001 1111000001 10000110110 1100111101 1101101110 10001001100 1101010100 26.063 44.152 998.83 117679 16 15 13 59 50 5 $GNGGA,143858.00,4333.69200,N,00128.73637,E,1,05,3.74,146.7,M,53.8,M,,*49
117 14 38 59 4333.6919600128.73703146.7ó 00128.73703 146.7 0 1101101010 1001111000 1011000110 1101110111 10000000010 1101010000 1100101110 0 1101110000 1101110000 1100100011 1111000101 10000110110 1100111110 1101101110 10001001011 1101010011 26.000 44.777 998.83 118679 17 15 14 60 51 3 $GNGGA,143859.00,4333.69196,N,00128.73703,E,1,05,3.74,146.7,M,53.8,M,,*42
118 14 39 00 4333.6932900128.73840146.8ó 00128.73840 146.8 0 1101101010 1001111001 1011000101 1101110110 10000000011 1101001101 1100101011 111111110111 1101110000 1101110000 1100100001 1111000011 10000110100 1100111101 1101110000 10001010100 1101010110 26.063 44.419 998.84 119677 16 15 15 59 51 3 $GNGGA,143900.00,4333.69329,N,00128.73840,E,1,05,3.74,146.8,M,53.8,M,,*4E
119 14 39 01 4333.6927500128.73906146.8ó 00128.73906 146.8 0 1101101010 1001111111 1011001001 1101111111 10000000110 1101010101 1100110101 111111110111 1101110000 1101110000 1100011111 1111001011 10000111001 1100111101 1101101001 10001001111 1101011001 26.063 43.839 998.83 120675 16 16 14 59 52 3 $GNGGA,143901.00,4333.69275,N,00128.73906,E,1,04,4.23,146.8,M,53.8,M,,*40
120 14 39 02 4333.6931200128.73949146.7ó 00128.73949 146.7 0 1101101010 1001111011 1011000111 1101110011 10000000010 1101001110 1100110011 111111110111 1101110000 1101110000 1100100010 1111001111 10000110101 1101000000 1101110000 10001010011 1101011110 26.063 43.496 998.83 121674 16 14 14 58 51 4 $GNGGA,143902.00,4333.69312,N,00128.73949,E,1,04,4.23,146.7,M,53.8,M,,*47
121 14 39 03 4333.6917000128.74096146.6ó 00128.74096 146.6 0 1101101010 1001111100 1011000110 1101101110 10000000101 1101001110 1100110001 111111110111 1101110000 1101110000 1100100100 1111001000 10000110111 1100111011 1101110001 10001010000 1101011110 26.063 43.290 998.83 122674 16 16 14 59 52 3 $GNGGA,143903.00,4333.69170,N,00128.74096,E,1,05,3.75,146.6,M,53.8,M,,*48
122 14 39 04 4333.6914900128.74121146.4ó 00128.74121 146.4 0 1101101010 1001111101 1011001001 1101110010 10000000101 1101001110 1100101110 0 1101110000 1101110000 1100011111 1111000010 10000110100 1100111101 1101101110 10001010101 1101011010 26.063 43.175 998.83 123673 17 14 13 60 50 4 $GNGGA,143904.00,4333.69149,N,00128.74121,E,1,05,3.75,146.4,M,53.8,M,,*4A
123 14 39 05 4333.6911100128.74158146.3ó 00128.74158 146.3 0 1101101010 1001111111 1011001000 1101110101 10000000101 1101001100 1100101011 111111110111 1101110000 1101110000 1100100000 1111000011 10000110110 1100111110 1101101100 10001001101 1101011000 26.000 43.137 998.83 124673 16 15 15 59 51 3 $GNGGA,143905.00,4333.69111,N,00128.74158,E,1,05,3.75,146.3,M,53.8,M,,*4F
124 14 39 06 4333.6932500128.74138146.4ó 00128.74138 146.4 0 1101101010 1010000011 1011001010 1101110011 10000000101 1101001110 1100110000 0 1101110000 1101110000 1100011111 1111001000 10000110101 1100111010 1101101101 10001001000 1101001111 26.063 43.129 998.84 125671 17 14 13 60 50 4 $GNGGA,143906.00,4333.69325,N,00128.74138,E,1,05,3.75,146.4,M,53.8,M,,*48
125 14 39 07 4333.6948100128.74025146.3ó 00128.74025 146.3 0 1101101010 1010000000 1011000110 1101110011 10000000101 1101011000 1100110010 0 1101110000 1101110000 1100100001 1111001110 10000110110 1100111111 1101101111 10001001010 1101010010 26.000 43.000 998.84 126670 16 15 15 59 51 3 $GNGGA,143907.00,4333.69481,N,00128.74025,E,1,05,3.75,146.3,M,53.8,M,,*4A
126 14 39 08 4333.6953900128.74006146.3ó 00128.74006 146.3 0 1101101010 1001111011 1011000101 1101111001 10000000100 1101010011 1100110001 111111110111 1101110000 1101110000 1100100010 1111001110 10000110111 1100111010 1101100111 10001001001 1101011001 26.063 42.954 998.84 127668 16 16 14 59 52 3 $GNGGA,143908.00,4333.69539,N,00128.74006,E,1,05,3.75,146.3,M,53.8,M,,*46
127 14 39 09 4333.6960100128.74004146.1ó 00128.74004 146.1 0 1101101010 1001111101 1011000101 1101111001 10000000110 1101001100 1100101010 0 1101110000 1101110000 1100100011 1111000100 10000110100 1100111101 1101101001 10001000111 1101001111 26.063 42.916 998.83 128668 16 15 14 60 51 3 $GNGGA,143909.00,4333.69601,N,00128.74004,E,1,05,3.75,146.1,M,53.8,M,,*4F
128 14 39 10 4333.6979300128.74024146.1ó 00128.74024 146.1 0 1101101010 1010000000 1011000110 1101111001 10000000110 1101001101 1100101111 111111110111 1101110000 1101110000 1100100100 1111001001 10000111000 1100110110 1101100101 10001000101 1101010100 26.000 42.893 998.83 129667 16 16 14 59 51 4 $GNGGA,143910.00,4333.69793,N,00128.74024,E,1,04,4.23,146.1,M,53.8,M,,*4A
129 14 39 11 4333.7011800128.74103146.0ó 00128.74103 146.0 0 1101101010 1010000000 1011000110 1110000000 10000000101 1101001111 1100101101 111111110111 1101110000 1101110000 1100100001 1111010001 10000111010 1100111111 1101101100 10001001001 1101010000 26.063 42.870 998.84 130668 17 14 13 59 51 4 $GNGGA,143911.00,4333.70118,N,00128.74103,E,1,05,3.75,146.0,M,53.8,M,,*46
130 14 39 12 4333.7000800128.74004145.9ó 00128.74004 145.9 0 1101101010 1010000001 1011001011 1110000100 10000000110 1101001110 1100101111 111111110111 1101110000 1101110000 1100100010 1111010000 10000110110 1100111101 1101110001 10000111111 1101001101 26.000 42.862 998.83 131665 16 14 14 58 51 4 $GNGGA,143912.00,4333.70008,N,00128.74004,E,1,05,3.75,145.9,M,53.8,M,,*49
131 14 39 13 4333.7014200128.74092145.8ó 00128.74092 145.8 0 1101101001 1001111110 1011000110 1101111110 10000000110 1101001101 1100101110 0 1101110000 1101110000 1100100011 1111001100 10000111010 1100111010 1101101010 10000111010 1101000100 26.000 43.267 998.83 132664 16 15 13 60 50 4 $GNGGA,143913.00,4333.70142,N,00128.74092,E,1,05,3.75,145.8,M,53.8,M,,*49
132 14 39 14 4333.7026100128.74123145.5ó 00128.74123 145.5 0 1101101010 1010000001 1011001010 1110000110 10000000111 1101001111 1100110010 0 1101110000 1101110000 1100100001 1111001001 10000110101 1101000110 1101110011 10000111001 1101000000 26.063 43.557 998.83 133663 16 15 15 59 51 3 $GNGGA,143914.00,4333.70261,N,00128.74123,E,1,05,3.75,145.5,M,53.8,M,,*4A
133 14 39 15 4333.7020500128.74098145.3ó 00128.74098 145.3 0 1101101010 1001111101 1011000100 1110000010 10000000110 1101010000 1100101111 111111110111 1101110000 1101110000 1100100111 1111010010 10000110110 1101000001 1101110001 10000111001 1101000011 26.063 43.763 998.82 134662 16 15 13 58 52 4 $GNGGA,143915.00,4333.70205,N,00128.74098,E,1,05,3.75,145.3,M,53.8,M,,*4E
134 14 39 16 4333.7043800128.74162145.1ó 00128.74162 145.1 0 1101101010 1010000000 1011000100 1110000110 10000000101 1101010010 1100110001 111111110111 1101110000 1101110000 1100100011 1111000111 10000110100 1100111111 1101110010 10000110010 1101000000 26.063 43.648 998.83 135662 17 15 13 60 50 4 $GNGGA,143916.00,4333.70438,N,00128.74162,E,1,05,3.75,145.1,M,53.8,M,,*43
135 14 39 17 4333.7049100128.74078145.0ó 00128.74078 145.0 0 1101101010 1010000010 1011000111 1101111100 10000000100 1101001101 1100101010 0 1101110000 1101110000 1100100110 1111010101 10000111100 1101000000 1101110000 10000111010 1101000110 26.063 44.076 998.83 136659 16 15 15 59 51 3 $GNGGA,143917.00,4333.70491,N,00128.74078,E,1,04,4.23,145.0,M,53.8,M,,*4F
136 14 39 18 4333.7045500128.73987144.8ó 00128.73987 144.8 0 1101101010 1010000011 1011001000 1101111111 10000000111 1101001111 1100101100 0 1101110000 1101110000 1100100011 1111001101 10000110111 1100111100 1101101010 10000111011 1101001001 26.000 44.373 998.83 137659 16 15 14 60 51 3 $GNGGA,143918.00,4333.70455,N,00128.73987,E,1,04,4.23,144.8,M,53.8,M,,*4F
137 14 39 19 4333.7032700128.73902144.9ó 00128.73902 144.9 0 1101101010 1010000010 1011001000 1101111111 10000000110 1101010010 1100110000 0 1101110000 1101110000 1100100000 1111001011 10000110010 1100110110 1101101000 10000110010 1101001111 26.000 44.106 998.83 138656 16 14 15 58 51 3 $GNGGA,143919.00,4333.70327,N,00128.73902,E,1,04,4.23,144.9,M,53.8,M,,*40
138 14 39 20 4333.7013500128.73863145.1ó 00128.73863 145.1 0 1101101001 1010000011 1011001000 1101111110 10000000100 1101001000 1100101110 0 1101110000 1101110000 1100100101 1111001101 10000110110 1100111100 1101101001 10000110001 1101001000 26.063 43.633 998.82 139657 16 16 14 59 52 3 $GNGGA,143920.00,4333.70135,N,00128.73863,E,1,04,4.23,145.1,M,53.8,M,,*44
139 14 39 21 4333.6928200128.73902144.3ó 00128.73902 144.3 0 1101101010 1010000011 1011000110 1110001000 10000000101 1101010000 1100110100 0 1101110000 1101110000 1100100100 1111001110 10000110101 1100110111 1101101001 10000101111 1101000011 26.063 43.381 998.82 140656 17 14 13 60 50 4 $GNGGA,143921.00,4333.69282,N,00128.73902,E,1,05,2.95,144.3,M,53.8,M,,*4D
140 14 39 22 4333.6850700128.73923143.6ó 00128.73923 143.6 0 1101101010 1010000011 1011001001 1110000101 10000000110 1101001110 1100101111 111111110111 1101110000 1101110000 1100100010 1111010000 10000110101 1100111011 1101100100 10000110110 1101000110 26.000 43.259 998.83 141656 16 16 15 59 51 3 $GNGGA,143922.00,4333.68507,N,00128.73923,E,1,05,2.95,143.6,M,53.8,M,,*44
141 14 39 23 4333.6823600128.73863143.0ó 00128.73863 143.0 0 1101101010 1010000111 1011001000 1110001100 10000000101 1101010000 1100101111 111111110111 1101110000 1101110000 1100100001 1111010011 10000110101 1100111111 1101110001 10000101100 1100111111 26.063 43.145 998.83 142655 17 15 13 60 50 4 $GNGGA,143923.00,4333.68236,N,00128.73863,E,1,05,2.95,143.0,M,53.8,M,,*43
142 14 39 24 4333.6823600128.73869143.0ó 00128.73869 143.0 0 1101101010 1010001001 1011000111 1110001011 10000000110 1101001001 1100101100 0 1101110000 1101110000 1100011111 1111011100 10000111001 1100111100 1101110010 10000110001 1101001100 26.000 43.000 998.82 143653 16 15 15 59 51 3 $GNGGA,143924.00,4333.68236,N,00128.73869,E,1,04,4.23,143.0,M,53.8,M,,*44
143 14 39 25 4333.6830700128.73860142.9ó 00128.73860 142.9 0 1101101010 1010000111 1011001000 1110001001 10000000101 1101001101 1100101101 111111110111 1101110000 1101110000 1100100101 1111001111 10000111001 1100111001 1101101011 10000110001 1101001110 26.063 43.046 998.82 144653 16 16 14 59 52 3 $GNGGA,143925.00,4333.68307,N,00128.73860,E,1,04,4.23,142.9,M,53.8,M,,*47
144 14 39 26 4333.6825300128.73771143.1ó 00128.73771 143.1 0 1101101010 1010001111 1011001000 1110010111 10000000111 1101000111 1100101010 0 1101110000 1101110000 1100100011 1111001101 10000110100 1100110101 1101100111 10000110100 1101001111 26.063 43.084 998.82 145650 17 15 14 60 51 3 $GNGGA,143926.00,4333.68253,N,00128.73771,E,1,04,4.23,143.1,M,53.8,M,,*42
145 14 39 27 4333.6829500128.73786143.1ó 00128.73786 143.1 0 1101101010 1010011110 1011001010 1110100011 10000000110 1101001000 1100101010 0 1101110000 1101110000 1100100100 1111010011 10000110110 1100110111 1101101001 10000110001 1101010101 26.063 43.107 998.81 146650 16 16 14 59 51 4 $GNGGA,143927.00,4333.68295,N,00128.73786,E,1,05,3.76,143.1,M,53.8,M,,*47
146 14 39 28 4333.6843000128.73751143.0ó 00128.73751 143.0 0 1101101010 1010011111 1011000111 1110111011 10000000110 1101001010 1100101111 111111110111 1101110000 1101110000 1100100001 1111010000 10000110101 1100111011 1101101110 10000110000 1101001111 26.000 43.099 998.82 147650 17 14 13 60 50 4 $GNGGA,143928.00,4333.68430,N,00128.73751,E,1,04,3.91,143.0,M,53.8,M,,*42
147 14 39 29 4333.6847000128.73634142.9ó 00128.73634 142.9 0 1101101010 1010011100 1011000100 1111001011 10000001000 1101001000 1100101011 111111110111 1101110000 1101110000 1100100001 1111010110 10000110111 1100101110 1101100110 10000110110 1101001000 26.000 43.061 998.83 148648 16 15 15 59 51 3 $GNGGA,143929.00,4333.68470,N,00128.73634,E,1,04,4.23,142.9,M,53.8,M,,*43
148 14 39 30 4333.6852400128.73594143.1ó 00128.73594 143.1 0 1101101001 1010011000 1011000111 1111010001 10000001000 1101000010 1100101101 111111110111 1101110000 1101110000 1100011110 1111010111 10000110101 1100110100 1101101000 10000110100 1101001001 26.063 43.129 998.84 149646 16 14 14 58 52 3 $GNGGA,143930.00,4333.68524,N,00128.73594,E,1,04,4.24,143.1,M,53.8,M,,*4C
149 14 39 31 4333.6836100128.73434143.1ó 00128.73434 143.1 0 1101101010 1010010001 1011000111 1111001110 10000000111 1101001000 1100101100 0 1101110000 1101110000 1100011110 1111010110 10000110100 1100110110 1101101000 10000111101 1101001100 26.000 43.000 998.83 150646 16 14 15 59 51 3 $GNGGA,143931.00,4333.68361,N,00128.73434,E,1,04,4.24,143.1,M,53.8,M,,*41
150 14 39 32 4333.6829900128.73346143.3ó 00128.73346 143.3 0 1101101010 1010001110 1011000101 1111000110 10000000111 1101000110 1100101100 0 1101110000 1101110000 1100100000 1111010111 10000110110 1100111001 1101101101 10000110011 1101000011 26.063 43.068 998.83 151645 16 15 13 59 51 4 $GNGGA,143932.00,4333.68299,N,00128.73346,E,1,04,4.24,143.3,M,53.8,M,,*44
151 14 39 33 4333.6833500128.73245143.3ó 00128.73245 143.3 0 1101101010 1010010011 1011001001 1111000010 10000000101 1101000111 1100110010 0 1101110000 1101110000 1100100101 1111010100 10000110100 1100111101 1101101101 10000110110 1101000101 26.063 43.244 998.83 152644 17 15 14 60 51 3 $GNGGA,143933.00,4333.68335,N,00128.73245,E,1,04,4.24,143.3,M,53.8,M,,*40
152 14 39 34 4333.6845900128.73100143.4ó 00128.73100 143.4 0 1101101001 1010010101 1011001101 1111000010 10000001001 1101001011 1100110001 111111110111 1101110000 1101110000 1100101001 1111101110 10000111110 1100110001 1101100110 10000110010 1101001001 26.000 43.221 998.84 153643 17 16 14 59 50 4 $GNGGA,143934.00,4333.68459,N,00128.73100,E,1,04,4.24,143.4,M,53.8,M,,*4F
153 14 39 35 4333.6858000128.73093143.5ó 00128.73093 143.5 0 1101101010 1010001111 1011000111 1110111111 10000000100 1101000110 1100101111 111111110111 1101110000 1101110000 1100100100 1111010101 10000110001 1100110111 1101101010 10000111100 1101001111 26.000 43.496 998.84 154641 17 14 13 60 50 4 $GNGGA,143935.00,4333.68580,N,00128.73093,E,1,04,4.24,143.5,M,53.8,M,,*41
154 14 39 36 4333.6857300128.72935143.7ó 00128.72935 143.7 0 1101101001 1010010011 1011001010 1110110110 10000000111 1101000111 1100110100 0 1101110000 1101110000 1100100100 1111010111 10000110100 1100111010 1101101100 10000111001 1101000010 26.063 44.213 998.84 155640 16 15 15 59 51 3 $GNGGA,143936.00,4333.68573,N,00128.72935,E,1,04,4.24,143.7,M,53.8,M,,*48
155 14 39 37 4333.6855500128.72761144.2ó 00128.72761 144.2 0 1101101010 1010010000 1011000111 1110110110 10000000111 1101000010 1100100111 111111110111 1101110000 1101110000 1100100000 1111011010 10000110111 1100110111 1101100110 10000111010 1101000111 26.063 44.602 998.84 156639 17 16 13 59 51 4 $GNGGA,143937.00,4333.68555,N,00128.72761,E,1,04,4.24,144.2,M,53.8,M,,*40
156 14 39 38 4333.6849800128.72555144.6ó 00128.72555 144.6 0 1101101010 1010001110 1011001001 1110110101 10000001000 1101000000 1100101001 111111110111 1101110000 1101110000 1100100010 1111100010 10000110110 1100110100 1101101001 10000111010 1101000111 26.000 44.983 998.84 157638 17 15 14 60 51 3 $GNGGA,143938.00,4333.68498,N,00128.72555,E,1,04,4.24,144.6,M,53.8,M,,*4E
157 14 39 39 4333.6860700128.72436144.8ó 00128.72436 144.8 0 1101101001 1010001101 1011001000 1110110011 10000000110 1101000111 1100101101 111111110111 1101101111 1101110000 1100100101 1111100101 10000110101 1100111000 1101101101 10001000000 1100111011 26.063 44.861 998.84 158638 17 16 13 59 50 5 $GNGGA,143939.00,4333.68607,N,00128.72436,E,1,04,4.24,144.8,M,53.8,M,,*41
158 14 39 40 Nan Nan Nan 0 1101101010 1010001100 1011001010 1110101110 10000000111 1101001001 1100110000 0 1101110000 1101110000 1100100011 1111100111 10000111001 1100111001 1101101110 10001000110 1100111000 26.063 44.922 998.84 159624 16 7 11 59 52 3 $GNGGA,143940.00,,,,,0,00,99.9,,,,,,*4A
159 14 39 41 Nan Nan Nan 0 1101101001 1010001011 1011001011 1110101110 10000001001 1101000110 1100101010 0 1101110000 1101110000 1100100001 1111100010 10000110111 1100110110 1101101000 10001000111 1101001010 26.063 44.930 998.83 160622 17 7 10 59 51 4 $GNGGA,143941.00,,,,,0,00,99.9,,,,,,*4B
160 14 39 42 Nan Nan Nan 0 1101101010 1010000100 1011001000 1110100101 10000000110 1101001010 1100110110 0 1101110000 1101110000 1100100110 1111100011 10000110111 1100110011 1101100101 10001000111 1101000001 26.063 45.105 998.84 161622 16 8 12 59 51 3 $GNGGA,143942.00,,,,,0,00,99.9,,,,,,*48
161 14 39 43 Nan Nan Nan 0 1101101001 1010000000 1011000111 1110001110 10000001000 1101001001 1100110001 111111110111 1101110000 1101110000 1100100011 1111110000 10000111000 1100111010 1101101111 10001001111 1101000100 26.063 44.884 998.85 162620 18 7 10 60 50 4 $GNGGA,143943.00,,,,,0,00,99.9,,,,,,*49
162 14 39 44 Nan Nan Nan 0 1101101001 1010000000 1011001001 1110001110 10000001000 1101001001 1100101110 0 1101110000 1101110000 1100011101 1111101010 10000111011 1100110101 1101100110 10001001100 1101000011 26.063 44.365 998.84 163619 16 7 12 59 51 3 $GNGGA,143944.00,,,,,0,00,99.9,,,,,,*4E
163 14 39 45 Nan Nan Nan 0 1101101001 1010000010 1011001011 1110000010 10000000110 1101001000 1100101010 0 1101110000 1101110000 1100100011 1111101001 10000110011 1100111001 1101100111 10001001111 1101000010 26.063 43.824 998.83 164619 16 7 10 58 52 4 $GNGGA,143945.00,,,,,0,00,99.9,,,,,,*4F
164 14 39 46 Nan Nan Nan 0 1101101010 1001111111 1011001000 1110001000 10000001000 1101001111 1100110001 111111110111 1101110000 1101110000 1100100010 1111101110 10000111000 1100110010 1101101011 10001010001 1101000001 26.000 43.366 998.84 165616 18 7 10 60 50 4 $GNGGA,143946.00,,,,,0,00,99.9,,,,,,*4C
