id HH MM SS longitude latitude altitude adc_1_ch0 adc_1_ch1 adc_1_ch2 adc_1_ch3 adc_1_ch4 adc_1_ch5 adc_1_ch6 adc_1_ch7 adc_1_ch8 adc_2_ch0 adc_2_ch1 adc_2_ch2 adc_2_ch3 adc_2_ch4 adc_2_ch5 adc_2_ch6 adc_2_ch7 adc_2_ch8 temp hum pres t_prog t_gps t_split t_adc t_temp t_hum t_pres trame_gga
1 15 06 15 Nan Nan Nan 1110000 1010010100 1011010000 1101111001 1110111001 1101001000 1101111001 10010000000 1 1101101111 1010010011 1011010001 1110011101 10000000011 1101010000 1100110111 1100111011 1100101010 25.438 42.435 795.83 3795 16 7 12 59 50 4 $GNGGA,150615.00,,,,,0,00,17.7,,,,,,*4F
2 15 06 16 Nan Nan Nan 1110000 1010010101 1011010011 1101110111 1110111011 1101001001 1101111100 10001111101 1 1101101110 1010001111 1011010001 1110011111 10000000010 1101010010 1100110011 1100111100 1100101001 25.500 42.412 998.81 4797 17 7 10 59 51 4 $GNGGA,150616.00,,,,,0,00,17.7,,,,,,*4C
3 15 06 17 Nan Nan Nan 1110000 1010010110 1011010000 1101110110 1110111101 1101001101 1101110111 10001111011 1 1101101111 1010010000 1011001101 1110100001 10000000011 1101010001 1100101111 1100111000 1100101000 25.500 42.389 998.80 5795 15 6 12 59 50 4 $GNGGA,150617.00,,,,,0,00,17.8,,,,,,*42
4 15 06 18 Nan Nan Nan 1110000 1010011000 1011010011 1101110111 1110111101 1101001000 1101110111 10001111010 1 1101101111 1010010011 1011010100 1110100111 10000000100 1101010110 1100110100 1100111000 1100101110 25.500 42.367 998.79 6795 16 7 11 59 52 3 $GNGGA,150618.00,,,,,0,00,17.8,,,,,,*4D
5 15 06 19 Nan Nan Nan 1110000 1010010101 1011010001 1101111000 1110111100 1101001001 1101111010 10010000010 1 1101101111 1010001100 1011001110 1110100101 10000000011 1101001110 1100110000 1100111001 1100101001 25.438 42.351 998.80 7794 17 7 11 60 50 4 $GNGGA,150619.00,,,,,0,00,17.9,,,,,,*4D
6 15 06 20 Nan Nan Nan 1110000 1010010111 1011010001 1110000010 1110111111 1101001011 1101111110 10001111100 1 1101101111 1010010001 1011010001 1110101000 10000000001 1101010110 1100110010 1100111100 1100101100 25.438 42.344 998.80 8792 16 7 10 59 50 5 $GNGGA,150620.00,,,,,0,00,17.9,,,,,,*47
7 15 06 21 Nan Nan Nan 1110000 1010011100 1011010101 1101111101 1111000000 1101000110 1101111001 10001111101 1 1101101111 1010010000 1011010000 1110101100 10000000011 1101010011 1100101111 1100111000 1100101011 25.500 42.351 998.79 9792 17 7 10 59 51 4 $GNGGA,150621.00,,,,,0,00,18.0,,,,,,*40
8 15 06 22 Nan Nan Nan 1110000 1010011100 1011010011 1110000001 1110111111 1101000110 1101110110 10001110110 1 1101101111 1010010011 1011010100 1110101100 10000000011 1101010101 1100110110 1100111001 1100101111 25.438 42.351 998.77 10789 15 6 12 59 50 4 $GNGGA,150622.00,,,,,0,00,18.0,,,,,,*43
9 15 06 23 Nan Nan Nan 1110000 1010010111 1011001111 1110000000 1111000000 1101001001 1101111010 10001110100 1 1101101111 1010010110 1011010111 1110110001 10000000101 1101011011 1100101111 1100110000 1100100101 25.438 42.351 998.77 11791 16 7 10 60 50 4 $GNGGA,150623.00,,,,,0,00,18.1,,,,,,*43
10 15 06 24 Nan Nan Nan 1110000 1010011000 1011010001 1101111111 1111000011 1101001010 1101111010 10001101000 1 1101101111 1010010100 1011010010 1110101100 10000000010 1101100001 1100110110 1100111001 1100101011 25.438 42.313 998.78 12789 17 7 11 59 51 3 $GNGGA,150624.00,,,,,0,00,18.1,,,,,,*44
11 15 06 25 Nan Nan Nan 1110000 1010011011 1011010010 1110000011 1111000001 1101000001 1101110100 10001101110 1 1101101110 1010010010 1011010001 1110101110 10000000101 1101100001 1100110010 1100110011 1100101001 25.438 42.290 998.77 13788 15 6 11 59 51 4 $GNGGA,150625.00,,,,,0,00,18.2,,,,,,*46
12 15 06 26 Nan Nan Nan 1110000 1010011011 1011010000 1110000101 1111000010 1101001000 1101110110 10001100101 1 1101101111 1010010010 1011010000 1110110010 10000000100 1101100001 1100110011 1100101111 1100100011 25.438 42.321 998.78 14787 17 7 11 60 51 3 $GNGGA,150626.00,,,,,0,00,18.2,,,,,,*45
13 15 06 27 Nan Nan Nan 1110000 1010011101 1011010101 1110000100 1111000111 1101000100 1101110111 10001101010 1 1101101111 1010010001 1011010001 1110111000 10000000111 1101011011 1100101110 1100110010 1100110000 25.438 42.359 998.78 15787 16 8 12 59 51 3 $GNGGA,150627.00,,,,,0,00,18.3,,,,,,*45
14 15 06 28 Nan Nan Nan 1110000 1010011100 1011010011 1110000110 1111000110 1101000100 1101110110 10001101000 1 1101101111 1010010011 1011010010 1110110000 10000000110 1101011111 1100101110 1100110111 1100100011 25.438 42.405 998.78 16787 17 7 11 60 51 3 $GNGGA,150628.00,,,,,0,00,18.4,,,,,,*4D
15 15 06 29 Nan Nan Nan 1110000 1010011101 1011010110 1110000110 1111001000 1101000011 1101110100 10001110010 1 1101101111 1010010010 1011010011 1110110010 10000000110 1101100100 1100110011 1100111000 1100100101 25.438 42.412 998.77 17785 16 7 12 59 51 3 $GNGGA,150629.00,,,,,0,00,18.4,,,,,,*4C
16 15 06 30 Nan Nan Nan 1110000 1010011111 1011010101 1110000100 1111001000 1101000100 1101110010 10001100101 1 1101101111 1010010010 1011010100 1110101101 10000000110 1101100110 1100110011 1100111101 1100101111 25.438 42.367 998.77 18785 16 7 11 59 51 4 $GNGGA,150630.00,,,,,0,00,15.1,,,,,,*4C
17 15 06 31 Nan Nan Nan 1110000 1010011011 1011010011 1110000010 1111000110 1101000000 1101110110 10001100011 1 1101101110 1010010010 1011010011 1110110001 10000000101 1101100110 1100101011 1100111010 1100110001 25.375 42.328 998.76 19785 16 6 11 59 50 4 $GNGGA,150631.00,,,,,0,00,2.13,,,,,,*48
18 15 06 32 Nan Nan Nan 1110000 1010011101 1011010011 1101111110 1111001001 1101000111 1101111000 10001100101 1 1101101111 1010010000 1011010000 1110101110 10000000100 1101100111 1100101111 1100111011 1100101101 25.500 42.328 998.75 20783 16 8 11 59 50 5 $GNGGA,150632.00,,,,,0,00,15.2,,,,,,*4D
19 15 06 33 Nan Nan Nan 1110000 1010011111 1011010111 1110000111 1111001011 1101000001 1101110011 10001100000 1 1101101111 1010011000 1011010010 1110110100 10000000101 1101101100 1100110010 1100111001 1100101001 25.438 42.313 998.75 21779 17 7 11 60 51 3 $GNGGA,150633.00,,,,,0,00,15.2,,,,,,*4C
20 15 06 34 Nan Nan Nan 1110000 1010011111 1011010110 1110000011 1111000111 1101000000 1101110110 10001101100 1 1101101111 1010010100 1011010011 1110110000 10000000100 1101101011 1100110011 1100111011 1100101011 25.500 42.275 998.75 22779 15 6 12 59 50 4 $GNGGA,150634.00,,,,,0,00,18.7,,,,,,*43
21 15 06 35 Nan Nan Nan 1110000 1010100010 1011011000 1110000010 1111000111 1101001010 1101111010 10001100100 1 1101101111 1010010001 1011010010 1110101101 10000000101 1101110001 1100110011 1100110010 1100100101 25.438 42.244 998.75 23779 16 7 10 58 52 4 $GNGGA,150635.00,,,,,0,00,15.2,,,,,,*4A
22 15 06 36 Nan Nan Nan 1110000 1010100010 1011010110 1101111101 1111000111 1101001011 1101111001 10001101100 1 1101101111 1010010001 1011010011 1110101101 10000000011 1101101011 1100110001 1100110011 1100100111 25.438 42.244 998.75 24777 17 7 11 60 51 3 $GNGGA,150636.00,,,,,0,00,15.3,,,,,,*48
23 15 06 37 Nan Nan Nan 1110000 1010100100 1011010111 1110000111 1111001101 1101000111 1101110111 10001100110 1 1101101111 1010010001 1011010001 1110101110 10000000101 1101101010 1100101111 1100111110 1100101110 25.438 42.275 998.76 25778 16 7 11 59 51 4 $GNGGA,150637.00,,,,,0,00,15.3,,,,,,*49
24 15 06 38 Nan Nan Nan 1110000 1010100011 1011011000 1110001010 1111001100 1101000001 1101110011 10001100100 1 1101101111 1010010101 1011010100 1110111000 10000001000 1101110001 1100101111 1100111010 1100101100 25.500 42.351 998.76 26775 17 7 10 60 50 4 $GNGGA,150638.00,,,,,0,00,15.3,,,,,,*46
25 15 06 39 Nan Nan Nan 1110000 1010100010 1011010111 1110001011 1111001100 1100111111 1101110010 10001011101 1 1101101111 1010010110 1011010101 1110110110 10000000101 1101110100 1100110001 1100111000 1100100111 25.438 42.405 998.76 27776 16 8 12 59 50 4 $GNGGA,150639.00,,,,,0,00,15.4,,,,,,*40
26 15 06 40 Nan Nan Nan 1110000 1010100010 1011010111 1110001110 1111010000 1100111110 1101110001 10001011100 1 1101101111 1010010101 1011010100 1110110101 10000000110 1101110010 1100101101 1100110101 1100011110 25.500 42.428 998.76 28774 16 7 11 60 51 3 $GNGGA,150640.00,,,,,0,00,15.4,,,,,,*4E
27 15 06 41 Nan Nan Nan 1110000 1010100100 1011010111 1110001001 1111001101 1101000011 1101110110 10001100010 1 1101101111 1010010111 1011010100 1110110110 10000000101 1101110110 1100111001 1100110000 1100100000 25.500 42.534 998.76 29772 17 7 11 59 51 3 $GNGGA,150641.00,,,,,0,00,19.1,,,,,,*46
28 15 06 42 Nan Nan Nan 1110000 1010100101 1011011000 1110001001 1111001101 1101001000 1101110101 10001011010 1 1101101110 1010010110 1011010011 1110110111 10000000110 1101111000 1100110001 1100111010 1100101001 25.500 43.465 998.76 30772 16 7 11 59 52 3 $GNGGA,150642.00,,,,,0,00,19.2,,,,,,*46
29 15 06 43 Nan Nan Nan 1110000 1010100101 1011010110 1110010000 1111010010 1101000011 1101110100 10001011001 1 1101101110 1010010111 1011010011 1111000010 10000001101 1101110111 1100110000 1100101101 1100011000 25.438 44.976 998.76 31770 17 7 10 59 51 4 $GNGGA,150643.00,,,,,0,00,19.2,,,,,,*47
30 15 06 44 Nan Nan Nan 1110000 1010100110 1011011000 1110001010 1111001100 1100111100 1101101111 10001011011 1 1101101111 1010010011 1011010011 1110110011 10000000110 1101111010 1100110011 1100110110 1100100110 25.438 45.365 998.77 32768 16 8 12 59 51 3 $GNGGA,150644.00,,,,,0,00,19.3,,,,,,*41
31 15 06 45 Nan Nan Nan 1110000 1010100111 1011011011 1110001000 1111001110 1100111010 1101101111 10001011001 1 1101101111 1010010110 1011010001 1111000101 10000001111 1101111011 1100101111 1100110001 1100100001 25.438 45.365 998.77 33768 17 7 10 59 51 4 $GNGGA,150645.00,,,,,0,00,19.3,,,,,,*40
32 15 06 46 Nan Nan Nan 1110000 1010100110 1011011001 1110010100 1111010001 1100111100 1101110010 10001011111 1 1101101111 1010011011 1011010100 1110110001 10000000100 1101110101 1100101011 1100110110 1100100101 25.500 44.678 998.76 34767 16 7 11 59 51 4 $GNGGA,150646.00,,,,,0,00,19.4,,,,,,*44
33 15 06 47 Nan Nan Nan 1110000 1010100111 1011011001 1110010001 1111010000 1100111111 1101110010 10001011000 1 1101101110 1010011010 1011010011 1111000000 10000001010 1101111100 1100101111 1100111101 1100101100 25.438 44.304 998.77 35767 16 7 11 59 51 4 $GNGGA,150647.00,,,,,0,00,19.5,,,,,,*44
34 15 06 48 Nan Nan Nan 1110000 1010101001 1011011100 1110101100 1111100100 1101000011 1101110100 10001010011 1 1101101111 1010011100 1011010101 1110111101 10000000101 1101111001 1100110000 1100111011 1100101100 25.500 43.854 998.77 36765 17 7 11 60 51 3 $GNGGA,150648.00,,,,,0,00,19.5,,,,,,*4B
35 15 06 49 Nan Nan Nan 1110000 1010100101 1011011011 1110000110 1111001011 1100111011 1101110000 10001011101 1 1101101111 1010011010 1011010100 1111000000 10000001001 1101111010 1100101101 1100111001 1100011100 25.438 44.533 998.77 37764 16 8 10 58 51 5 $GNGGA,150649.00,,,,,0,00,19.6,,,,,,*49
36 15 06 50 Nan Nan Nan 1110000 1010100110 1011010111 1110001001 1111010000 1100111100 1101101101 10001010111 1 1101101111 1010011100 1011010100 1111000100 10000000111 1101111001 1100101010 1101000011 1100101110 25.500 44.907 998.77 38763 17 7 10 59 51 4 $GNGGA,150650.00,,,,,0,00,25.5,,,,,,*4D
37 15 06 51 Nan Nan Nan 1110000 1010101001 1011011010 1110001101 1111010001 1101000100 1101111000 10001001011 1 1101101111 1010011001 1011010110 1111000101 10000001000 1101111111 1100110001 1100110111 1100100111 25.438 45.434 998.78 39762 16 7 12 59 51 3 $GNGGA,150651.00,,,,,0,00,19.7,,,,,,*41
38 15 06 52 Nan Nan Nan 10000000 1010101011 1011011101 1110001010 1111001110 1100111111 1101110101 10001010000 1 1101101111 1010011000 1011010011 1110111111 10000000110 1110000010 1100110001 1100111100 1100101001 25.438 45.266 998.78 40762 16 7 11 60 51 3 $GNGGA,150652.00,,,,,0,00,19.8,,,,,,*4D
39 15 06 53 Nan Nan Nan 10100000 1010101101 1011011101 1110011110 1111011000 1100111110 1101110001 10001001111 1 1101101111 1010011000 1011010011 1110111110 10000001000 1110000100 1100101110 1100111010 1100100111 25.500 44.999 998.77 41760 17 7 10 59 50 4 $GNGGA,150653.00,,,,,0,00,19.9,,,,,,*4D
40 15 06 54 Nan Nan Nan 10010000 1010101010 1011011011 1110010101 1111010100 1100111000 1101101110 10001010010 1 1101101111 1010011110 1011010101 1111000000 10000000110 1101111110 1100101110 1100111010 1100101100 25.500 44.877 998.77 42760 16 7 11 59 52 3 $GNGGA,150654.00,,,,,0,00,3.22,,,,,,*48
41 15 06 55 Nan Nan Nan 10110000 1010101011 1011011010 1110010111 1111010010 1100111000 1101101000 10001001100 1 1101101111 1010100011 1011010111 1111000111 10000001000 1110000101 1100110001 1100111000 1100100011 25.500 44.472 998.76 43756 16 6 11 60 50 4 $GNGGA,150655.00,,,,,0,00,3.22,,,,,,*49
42 15 06 56 4333.7396500128.7744258.1 00128.77442 58.1  10000000 1010101100 1011011110 1110011001 1111010111 1100111011 1101101101 10001001010 1 1101101110 1010100110 1011010110 1111010010 10000001001 1110000001 1100110010 1100110100 1100011111 25.500 43.976 998.76 44768 16 15 14 59 52 3 $GNGGA,150656.00,4333.73965,N,00128.77442,E,1,04,3.22,58.1,M,53.7,M,,*79
43 15 06 57 4333.7344500128.7705663.9 00128.77056 63.9  10110000 1010101001 1011011011 1110011101 1111010101 1100110100 1101100110 10001001001 1 1101101111 1010101100 1011010111 1111011011 10000001000 1110000000 1100110000 1100111001 1100101010 25.500 43.709 998.77 45767 17 14 13 59 51 4 $GNGGA,150657.00,4333.73445,N,00128.77056,E,1,04,3.22,63.9,M,53.7,M,,*76
44 15 06 58 4333.7312300128.7686067.3 00128.76860 67.3  1000000 1010101100 1011011111 1110010001 1111010011 1100110101 1101110000 10001001110 1 1101101111 1010110010 1011010100 1111101010 10000001011 1110000001 1100110001 1100111010 1100101100 25.500 43.213 998.78 46767 16 16 13 59 50 5 $GNGGA,150658.00,4333.73123,N,00128.76860,E,1,03,3.71,67.3,M,53.7,M,,*7F
45 15 06 59 4333.7295700128.7675169.2 00128.76751 69.2  10000 1010101010 1011011010 1110011001 1111010110 1100110110 1101101000 10001001011 1 1101101111 1010111011 1011010100 10000000011 10000001011 1110000011 1100101111 1100111000 1100100100 25.500 42.977 998.78 47765 17 14 13 60 50 4 $GNGGA,150659.00,4333.72957,N,00128.76751,E,1,03,3.71,69.2,M,53.7,M,,*76
46 15 07 00 4333.7277200128.7668770.3 00128.76687 70.3  11100000 1010101101 1011011100 1110011111 1111010101 1100110100 1101101001 10001001100 1 1101101111 1010111101 1011010010 10000010011 10000001010 1101111111 1100101101 1100111001 1100100001 25.500 43.038 998.77 48766 16 14 14 58 51 4 $GNGGA,150700.00,4333.72772,N,00128.76687,E,1,03,3.71,70.3,M,53.7,M,,*71
47 15 07 01 4333.7260300128.7645271.8 00128.76452 71.8  1000000 1010110001 1011100001 1110100011 1111011000 1100101101 1101100111 10001000001 1 1101101111 1010111111 1011010100 10000011110 10000001001 1101111110 1100110000 1100110110 1100100100 25.500 42.855 998.78 49764 17 14 14 60 51 3 $GNGGA,150701.00,4333.72603,N,00128.76452,E,1,03,3.71,71.8,M,53.7,M,,*77
48 15 07 02 4333.7253500128.7642872.9 00128.76428 72.9  10000 1010101110 1011011110 1110100011 1111011000 1100110100 1101101101 10000110111 1 1101101111 1010111010 1011010011 10000101000 10000001010 1110000100 1100110110 1100111011 1100100101 25.500 42.725 998.77 50761 17 14 13 59 50 4 $GNGGA,150702.00,4333.72535,N,00128.76428,E,1,04,17.5,72.9,M,53.7,M,,*7C
49 15 07 03 4333.7246200128.7635673.9 00128.76356 73.9  11110000 1010101110 1011011111 1110100101 1111011110 1100110101 1101101010 10000110011 1 1101101111 1010111011 1011010110 10000101100 10000001011 1110000110 1100110101 1100111100 1100101001 25.500 42.779 998.77 51761 16 15 13 58 52 4 $GNGGA,150703.00,4333.72462,N,00128.76356,E,1,03,3.71,73.9,M,53.7,M,,*70
50 15 07 04 4333.7243400128.7643674.6 00128.76436 74.6  110000 1010100011 1011010010 1110100110 1111010100 1100111000 1101110010 10000101001 1 1101101110 1010110001 1011010110 10000110001 10000001101 1110000011 1100110010 1100111110 1100101010 25.500 42.695 998.77 52759 17 14 13 59 51 4 $GNGGA,150704.00,4333.72434,N,00128.76436,E,1,03,3.71,74.6,M,53.7,M,,*7D
51 15 07 05 4333.7245700128.7634275.7 00128.76342 75.7  10000 1010101010 1011011001 1110011110 1111010101 1100110100 1101101010 10000101001 1 1101101111 1010101110 1011010100 10000100001 10000001010 1110000010 1100110000 1100111010 1100011100 25.500 42.565 998.77 53758 16 14 14 58 51 4 $GNGGA,150705.00,4333.72457,N,00128.76342,E,1,03,3.71,75.7,M,53.7,M,,*7D
52 15 07 06 4333.7258300128.7665175.5 00128.76651 75.5  10000 1010101111 1011011110 1110101001 1111011011 1100101111 1101100110 10000100010 1 1101101111 1010101010 1011010011 10000100010 10000001101 1110000100 1100101110 1101000100 1100101000 25.438 42.168 998.77 54756 17 14 13 60 50 4 $GNGGA,150706.00,4333.72583,N,00128.76651,E,1,04,3.21,75.5,M,53.7,M,,*71
53 15 07 07 Nan Nan Nan 10000 1010101110 1011011110 1110101011 1111011011 1100110011 1101101011 10000100101 1 1101101110 1010101110 1011010101 10000010010 10000001101 1110000111 1100110010 1101000100 1100101100 25.500 42.420 998.77 55744 17 7 11 60 51 3 $GNGGA,150707.00,,,,,0,00,99.9,,,,,,*45
54 15 07 08 Nan Nan Nan 10000 1010110001 1011011111 1110101110 1111011100 1100111010 1101110000 10000011001 1 1101101111 1010101110 1011011010 10000010110 10000001100 1110000100 1100101010 1100111110 1100101010 25.500 42.740 998.77 56743 16 7 11 59 51 4 $GNGGA,150708.00,,,,,0,00,99.9,,,,,,*4A
55 15 07 09 Nan Nan Nan 0 1010110010 1011011111 1110101100 1111011111 1100110100 1101101101 10000001010 1 1101101111 1010101000 1011011000 10000001100 10000001011 1110000111 1100101111 1100111111 1100100110 25.500 43.191 998.77 57743 16 7 11 60 51 3 $GNGGA,150709.00,,,,,0,00,99.9,,,,,,*4B
56 15 07 10 4333.7254000128.7679476.1 00128.76794 76.1  0 1010110100 1011011101 1110110100 1111100000 1100111011 1101110001 10000001100 1 1101101111 1010100001 1011010111 1111111100 10000001100 1110000111 1100101110 1100111011 1100100111 25.500 43.335 998.77 58754 16 15 13 59 50 5 $GNGGA,150710.00,4333.72540,N,00128.76794,E,1,03,7.11,76.1,M,53.7,M,,*76
57 15 07 11 4333.7248500128.7679476.7 00128.76794 76.7  11110000 1010110010 1011011111 1110110000 1111011011 1100110111 1101110000 1111111111 1 1101101111 1010011111 1011011001 1111101011 10000001100 1110010001 1100110101 1100111001 1100100001 25.500 42.946 998.76 59753 17 15 13 60 50 4 $GNGGA,150711.00,4333.72485,N,00128.76794,E,1,03,7.11,76.7,M,53.7,M,,*79
58 15 07 12 4333.7234400128.7677977.2 00128.76779 77.2  11110000 1010110101 1011011111 1110101100 1111011100 1100110110 1101101110 1111110111 1 1101101111 1010011110 1011010100 1111100000 10000001010 1110001101 1100110000 1101000001 1100011110 25.500 42.176 998.76 60752 16 15 14 59 51 3 $GNGGA,150712.00,4333.72344,N,00128.76779,E,1,03,7.12,77.2,M,53.7,M,,*74
59 15 07 13 4333.7246000128.7699377.3 00128.76993 77.3  11100000 1010110010 1011011100 1110110111 1111011110 1100110110 1101110010 1111110010 1 1101101110 1010010110 1011010101 1111010100 10000001010 1110010110 1100110011 1100111101 1100100110 25.500 41.695 998.76 61754 15 15 14 60 51 3 $GNGGA,150713.00,4333.72460,N,00128.76993,E,1,03,7.12,77.3,M,53.7,M,,*7F
60 15 07 14 4333.7251900128.7711777.5 00128.77117 77.5  11100000 1010110101 1011100000 1110111000 1111100001 1100111011 1101101111 1111110010 1 1101101111 1010010011 1011010101 1111010010 10000001011 1110010011 1100110010 1101000010 1100100111 25.500 41.672 998.76 62750 17 14 14 60 51 3 $GNGGA,150714.00,4333.72519,N,00128.77117,E,1,03,7.12,77.5,M,53.7,M,,*74
61 15 07 15 4333.7257300128.7723677.7 00128.77236 77.7  11100000 1010110110 1011100001 1110111010 1111100011 1100111101 1101110100 1111111011 1 1101101110 1010010001 1011010110 1111000000 10000001011 1110010110 1100101001 1100111111 1100100100 25.500 41.657 998.76 63749 16 15 13 58 51 5 $GNGGA,150715.00,4333.72573,N,00128.77236,E,1,03,7.13,77.7,M,53.7,M,,*7A
62 15 07 16 4333.7258600128.7729777.9 00128.77297 77.9  11010000 1010110111 1011100100 1110111010 1111100010 1100111100 1101101111 1111110001 1 1101101111 1010001100 1011011000 1110110000 10000001100 1110011010 1100110000 1100111010 1100100100 25.500 41.779 998.77 64748 17 14 14 60 51 3 $GNGGA,150716.00,4333.72586,N,00128.77297,E,1,03,7.13,77.9,M,53.7,M,,*76
63 15 07 17 Nan Nan Nan 11010000 1010111000 1011100010 1110111011 1111100100 1100111101 1101110010 1111110010 1 1101101111 1010001010 1011010110 1110100101 10000001101 1110011011 1100110000 1101000011 1100101100 25.500 41.695 998.76 65736 17 7 11 60 51 3 $GNGGA,150717.00,,,,,0,00,7.13,,,,,,*48
64 15 07 18 Nan Nan Nan 11010000 1010110110 1011011111 1111000001 1111100101 1101000101 1101110100 1111111101 1 1101101110 1010001101 1011010111 1110011001 10000001011 1110100000 1100101111 1100111000 1100011111 25.563 41.596 998.77 66735 16 8 10 58 51 5 $GNGGA,150718.00,,,,,0,00,7.14,,,,,,*40
65 15 07 19 Nan Nan Nan 11000000 1010110111 1011100010 1110111101 1111100001 1101000011 1101111010 1111110000 1 1101101111 1010001111 1011010111 1110010100 10000001100 1110011110 1100101110 1100111111 1100100011 25.500 41.253 998.78 67734 17 7 10 59 51 4 $GNGGA,150719.00,,,,,0,00,7.14,,,,,,*41
66 15 07 20 Nan Nan Nan 11000000 1010110111 1011100000 1110111100 1111100111 1101000010 1101110110 1111110001 1 1101101110 1010001111 1011010101 1110010001 10000001110 1110011111 1100101010 1100111011 1100100001 25.500 41.039 998.77 68733 16 7 12 59 51 3 $GNGGA,150720.00,,,,,0,00,7.14,,,,,,*4B
67 15 07 21 Nan Nan Nan 11000000 1010110111 1011100011 1110110011 1111100101 1101000000 1101111000 1111110100 1 1101101111 1010001101 1011010101 1110001111 10000001011 1110100011 1100101001 1100111100 1100101000 25.500 40.947 998.77 69732 16 7 11 60 51 3 $GNGGA,150721.00,,,,,0,00,7.15,,,,,,*4B
68 15 07 22 Nan Nan Nan 11000000 1010110111 1011100000 1110110111 1111101000 1101000010 1101110100 1111111100 1 1101101110 1010010110 1011011000 1110011000 10000001011 1110100101 1100110010 1100110101 1100101101 25.438 41.108 998.78 70730 17 7 10 58 51 4 $GNGGA,150722.00,,,,,0,00,7.15,,,,,,*48
69 15 07 23 Nan Nan Nan 10110000 1010111010 1011100101 1110101100 1111100100 1101000011 1101110101 10000000000 1 1101101111 1010011001 1011011001 1110011111 10000001011 1110100000 1100110000 1100110100 1100011111 25.500 41.344 998.77 71730 16 7 11 59 52 3 $GNGGA,150723.00,,,,,0,00,7.15,,,,,,*49
70 15 07 24 Nan Nan Nan 10110000 1010110111 1011100001 1110110100 1111101001 1101000110 1101110001 10000001101 1 1101101111 1010011001 1011010101 1110100001 10000001011 1110100011 1100110001 1100101100 1100011100 25.500 41.642 998.78 72727 17 7 11 60 51 3 $GNGGA,150724.00,,,,,0,00,7.16,,,,,,*4D
71 15 07 25 Nan Nan Nan 10110000 1010111011 1011100011 1110110001 1111101000 1101000011 1101111001 10000000011 1 1101101110 1010011110 1011010111 1110110100 10000001101 1110100010 1100101110 1100110010 1100100101 25.500 41.550 998.77 73728 16 8 11 58 51 4 $GNGGA,150725.00,,,,,0,00,7.16,,,,,,*4C
72 15 07 26 Nan Nan Nan 10110000 1010110111 1011100011 1110100010 1111100101 1101000101 1101110010 10000010101 1 1101101110 1010011100 1011010110 1110101010 10000001101 1110100110 1100110011 1100111001 1100100001 25.500 41.573 998.78 74727 15 7 11 60 50 4 $GNGGA,150726.00,,,,,0,00,7.17,,,,,,*4E
73 15 07 27 Nan Nan Nan 10100000 1010110111 1011100100 1110101001 1111101001 1101000000 1101110000 10000010110 1 1101101111 1010010111 1011010011 1110110101 10000001100 1110100100 1100101001 1100110000 1100011011 25.500 41.504 998.77 75726 16 7 12 59 51 3 $GNGGA,150727.00,,,,,0,00,7.17,,,,,,*4F
74 15 07 28 Nan Nan Nan 10100000 1010111000 1011100011 1110100001 1111100100 1101000101 1101110111 10000010101 1 1101101111 1010011010 1011011001 1110101111 10000001011 1110100011 1100110001 1100111110 1100100110 25.500 41.398 998.77 76726 15 6 11 59 51 4 $GNGGA,150728.00,,,,,0,00,7.17,,,,,,*40
75 15 07 29 Nan Nan Nan 10100000 1010110111 1011100101 1110011111 1111100111 1101000011 1101110011 10000011100 1 1101101111 1010010111 1011011000 1110110100 10000001011 1110100001 1100110001 1100110100 1100100011 25.500 41.421 998.77 77724 17 7 11 60 51 3 $GNGGA,150729.00,,,,,0,00,7.18,,,,,,*4E
76 15 07 30 Nan Nan Nan 10100000 1010111000 1011100100 1110100011 1111101101 1101000001 1101110100 10000100100 1 1101101111 1010010111 1011011001 1110110000 10000001100 1110101010 1100110001 1100110100 1100101100 25.500 41.306 998.77 78724 16 8 11 59 51 4 $GNGGA,150730.00,,,,,0,00,7.18,,,,,,*46
77 15 07 31 Nan Nan Nan 10100000 1010111010 1011100101 1110011010 1111101000 1101000111 1101111010 10000101010 1 1101101111 1010010111 1011010111 1110110010 10000001110 1110100011 1100101010 1100110100 1100100011 25.500 41.428 998.77 79722 17 7 11 60 51 3 $GNGGA,150731.00,,,,,0,00,7.18,,,,,,*47
78 15 07 32 Nan Nan Nan 10100000 1010111000 1011100110 1110100000 1111101100 1101001010 1101111010 10000101110 1 1101101111 1010010110 1011010110 1110110011 10000001111 1110101001 1100110001 1100111001 1100101011 25.500 41.596 998.76 80721 16 7 12 59 51 3 $GNGGA,150732.00,,,,,0,00,7.19,,,,,,*45
79 15 07 33 Nan Nan Nan 10100000 1010111000 1011100100 1110011111 1111101001 1101000110 1101110110 10000110110 1 1101101111 1010011001 1011011000 1110110000 10000001110 1110110010 1100110101 1100110101 1100101010 25.500 41.382 998.75 81721 16 7 11 60 50 4 $GNGGA,150733.00,,,,,0,00,7.19,,,,,,*44
80 15 07 34 Nan Nan Nan 10100000 1010111010 1011100110 1110100001 1111101000 1101001001 1101111010 10001000110 1 1101101111 1010011010 1011011001 1110110011 10000001011 1110101101 1100101111 1100111000 1100100110 25.500 41.291 998.76 82719 17 7 11 59 51 3 $GNGGA,150734.00,,,,,0,00,7.19,,,,,,*43
81 15 07 35 Nan Nan Nan 10100000 1010111010 1011100101 1110011101 1111100110 1100111110 1101110000 10001001000 1 1101101111 1010011001 1011011001 1110111001 10000001101 1110100111 1100101011 1100111011 1100101000 25.500 42.321 998.76 83717 16 8 11 59 51 4 $GNGGA,150735.00,,,,,0,00,7.20,,,,,,*48
82 15 07 36 Nan Nan Nan 10100000 1010111000 1011100010 1110011001 1111101011 1101000010 1101110001 10001000010 1 1101101110 1010010101 1011010011 1110110101 10000001101 1110101010 1100110000 1100110010 1100011110 25.500 42.824 998.76 84717 17 7 11 60 51 3 $GNGGA,150736.00,,,,,0,00,7.20,,,,,,*4B
83 15 07 37 Nan Nan Nan 10100000 1010111010 1011101000 1110011100 1111101000 1101000100 1101110101 10001001010 1 1101101110 1010011101 1011010101 1110111100 10000001111 1110100111 1100101110 1100110110 1100100001 25.500 43.000 998.77 85716 16 7 12 59 50 4 $GNGGA,150737.00,,,,,0,00,7.21,,,,,,*4B
84 15 07 38 Nan Nan Nan 10010000 1010111011 1011100100 1110011111 1111101011 1101000001 1101110101 10001001010 1 1101101110 1010100100 1011010111 1110111011 10000001100 1110101110 1100101101 1100111011 1100100111 25.500 43.809 998.77 86715 16 7 10 59 51 4 $GNGGA,150738.00,,,,,0,00,7.21,,,,,,*44
85 15 07 39 Nan Nan Nan 10010000 1010111011 1011100111 1110011000 1111101000 1101000010 1101110000 10001010110 1 1101101111 1010101001 1011010110 1111001011 10000001110 1110101100 1100110010 1100110001 1100011011 25.500 44.053 998.78 87715 16 7 12 59 50 4 $GNGGA,150739.00,,,,,0,00,7.21,,,,,,*45
86 15 07 40 Nan Nan Nan 10010000 1010110110 1011100100 1110011100 1111101000 1101001001 1101111010 10001011000 1 1101101110 1010101011 1011011010 1111011001 10000001111 1110110010 1100110011 1100110101 1100101000 25.500 44.098 998.78 88713 16 7 10 59 51 4 $GNGGA,150740.00,,,,,0,00,7.22,,,,,,*48
87 15 07 41 Nan Nan Nan 10010000 1010111001 1011101000 1110011010 1111101110 1101000000 1101110011 10001100010 1 1101101111 1010101100 1011010111 1111010100 10000001010 1110101001 1100101111 1100110011 1100100111 25.500 44.831 998.77 89712 17 7 11 60 51 3 $GNGGA,150741.00,,,,,0,00,7.22,,,,,,*49
88 15 07 42 Nan Nan Nan 10010000 1010111011 1011100101 1110010100 1111100111 1101000101 1101110100 10001100001 1 1101101111 1010101100 1011010111 1111100101 10000001110 1110101001 1100101111 1100110011 1100011111 25.500 44.526 998.77 90710 16 8 12 59 51 3 $GNGGA,150742.00,,,,,0,00,7.22,,,,,,*4A
89 15 07 43 Nan Nan Nan 10010000 1010111011 1011100111 1110011100 1111101100 1101001000 1101110110 10001100101 1 1101101111 1010110011 1011011100 1111101010 10000001110 1110101000 1100101110 1100110011 1100100101 25.500 43.755 998.77 91710 17 7 11 60 51 3 $GNGGA,150743.00,,,,,0,00,7.23,,,,,,*4A
90 15 07 44 Nan Nan Nan 10010000 1010111001 1011100100 1110010100 1111100110 1100111111 1101110101 10001101101 1 1101101110 1010110011 1011011010 1111110111 10000010001 1110101011 1100101110 1100111000 1100101010 25.500 43.191 998.77 92710 16 7 12 59 51 3 $GNGGA,150744.00,,,,,0,00,7.23,,,,,,*4D
91 15 07 45 Nan Nan Nan 10000000 1010111101 1011100110 1110011010 1111101101 1101000110 1101111000 10001101011 1 1101101111 1010110011 1011010111 1111111110 10000001101 1110101001 1100101101 1100110111 1100100110 25.500 42.504 998.76 93709 16 7 11 59 52 3 $GNGGA,150745.00,,,,,0,00,7.23,,,,,,*4C
92 15 07 46 Nan Nan Nan 10010000 1010111100 1011101000 1110011011 1111101101 1100111010 1101101111 10001111001 1 1101101111 1010110100 1011011000 10000001101 10000010010 1110100111 1100101110 1100110110 1100100010 25.500 42.069 998.76 94707 17 7 11 60 51 3 $GNGGA,150746.00,,,,,0,00,7.24,,,,,,*48
93 15 07 47 Nan Nan Nan 10010000 1010111100 1011100100 1110100010 1111110000 1101000001 1101110001 10001111001 1 1101101110 1010110011 1011010111 10000001101 10000001111 1110101001 1100110001 1100111010 1100100111 25.438 41.863 998.76 95706 16 8 10 59 50 5 $GNGGA,150747.00,,,,,0,00,7.24,,,,,,*49
94 15 07 48 Nan Nan Nan 10010000 1010111110 1011101000 1110011011 1111101100 1100111111 1101110000 10001111000 1 1101101110 1010101101 1011010110 10000001011 10000010000 1110101110 1100101101 1100110011 1100011111 25.500 41.916 998.76 96705 17 7 11 60 50 4 $GNGGA,150748.00,,,,,0,00,7.25,,,,,,*47
95 15 07 49 Nan Nan Nan 10010000 1010111100 1011100110 1110011111 1111101100 1101000010 1101110110 10010001000 1 1101101110 1010100101 1011011001 10000000101 10000010010 1110101101 1100101110 1100111101 1100100101 25.500 42.084 998.77 97704 16 7 12 59 50 4 $GNGGA,150749.00,,,,,0,00,7.25,,,,,,*46
96 15 07 50 Nan Nan Nan 10010000 1010111111 1011101001 1110100000 1111101100 1101000000 1101110010 10010010001 1 1101101110 1010100001 1011011010 1111110101 10000001111 1110100110 1100101011 1100111100 1100100100 25.500 43.053 998.77 98703 16 7 10 59 51 4 $GNGGA,150750.00,,,,,0,00,7.25,,,,,,*4E
97 15 07 51 Nan Nan Nan 10010000 1010111110 1011100101 1110100001 1111101101 1100111010 1101110000 10010010101 1 1101101111 1010011100 1011011001 1111100001 10000001101 1110110001 1100110000 1100111011 1100100100 25.500 43.702 998.78 99701 17 6 11 59 50 4 $GNGGA,150751.00,,,,,0,00,7.26,,,,,,*4C
98 15 07 52 Nan Nan Nan 10010000 1010111111 1011100110 1110100010 1111101110 1100111001 1101101101 10010010100 1 1101101111 1010011010 1011011000 1111010100 10000001100 1110110101 1100110110 1100111111 1100101011 25.500 43.717 998.76 100702 16 7 11 59 51 4 $GNGGA,150752.00,,,,,0,00,7.26,,,,,,*4F
99 15 07 53 Nan Nan Nan 10010000 1011000001 1011101011 1110101101 1111110001 1100111110 1101101100 10010100001 1 1101101110 1010011110 1011011010 1111000101 10000001101 1110110110 1100110001 1100110011 1100100110 25.500 43.694 998.77 101699 17 7 11 60 51 3 $GNGGA,150753.00,,,,,0,00,7.26,,,,,,*4E
100 15 07 54 Nan Nan Nan 10010000 1011000000 1011100111 1110100000 1111101100 1100111010 1101110111 10010100111 1 1101101110 1010100011 1011011011 1111010000 10000010001 1110101101 1100101001 1100110100 1100100001 25.500 43.206 998.77 102699 16 7 12 59 50 4 $GNGGA,150754.00,,,,,0,00,7.27,,,,,,*48
101 15 07 55 Nan Nan Nan 10010000 1010111111 1011100111 1110100110 1111110000 1100111100 1101101100 10010101110 1 1101101110 1010100100 1011011010 1111010111 10000010010 1110110001 1100101100 1100110111 1100100000 25.500 42.672 998.77 103698 17 6 11 60 50 4 $GNGGA,150755.00,,,,,0,00,7.27,,,,,,*49
102 15 07 56 Nan Nan Nan 10010000 1011000010 1011101100 1110110001 1111110010 1100111011 1101110000 10010101110 1 1101101111 1010011111 1011011001 1111001111 10000010010 1110110111 1100101110 1100111010 1100101000 25.438 43.145 998.77 104695 16 7 12 59 51 3 $GNGGA,150756.00,,,,,0,00,99.9,,,,,,*41
103 15 07 57 Nan Nan Nan 10010000 1011000011 1011101100 1110101011 1111101110 1101000010 1101111000 10010111001 1 1101101110 1010011110 1011011001 1111000101 10000001111 1110111010 1100110000 1100111100 1100101010 25.438 43.725 998.77 105694 16 7 10 58 52 4 $GNGGA,150757.00,,,,,0,00,99.9,,,,,,*40
104 15 07 58 Nan Nan Nan 10010000 1011000010 1011100111 1110110001 1111110001 1100111010 1101110000 10010110010 1 1101101110 1010011111 1011010110 1111011010 10000010100 1110111011 1100101110 1100111111 1100100101 25.500 43.290 998.77 106694 17 7 11 60 51 3 $GNGGA,150758.00,,,,,0,00,99.9,,,,,,*4F
105 15 07 59 Nan Nan Nan 10010000 1011000010 1011101001 1110101001 1111101110 1100111010 1101101111 10010101111 1 1101101111 1010100011 1011011001 1111001100 10000010000 1110110110 1100101011 1100111101 1100100000 25.500 43.206 998.77 107693 16 8 12 59 50 4 $GNGGA,150759.00,,,,,0,00,99.9,,,,,,*4E
106 15 08 00 Nan Nan Nan 10010000 1011000000 1011101001 1110110010 1111110010 1100111101 1101110111 10010110110 1 1101101110 1010100101 1011011000 1111001010 10000010000 1110111000 1100101011 1100111001 1100101011 25.500 43.267 998.76 108691 17 7 10 60 50 4 $GNGGA,150800.00,,,,,0,00,99.9,,,,,,*4D
107 15 08 01 Nan Nan Nan 10010000 1011000100 1011101100 1110101110 1111110011 1100111101 1101110010 10010110000 1 1101101110 1010101001 1011011010 1111011000 10000010011 1110111001 1100101010 1100110011 1100100001 25.438 43.732 998.78 109691 16 6 11 59 50 4 $GNGGA,150801.00,,,,,0,00,7.29,,,,,,*49
108 15 08 02 Nan Nan Nan 10000000 1011000100 1011101011 1110101100 1111110010 1100111111 1101101111 10010110101 1 1101101110 1010101111 1011011001 1111011111 10000010001 1110111011 1100101101 1100110101 1100011111 25.438 45.395 998.77 110691 16 7 11 59 52 3 $GNGGA,150802.00,,,,,0,00,7.30,,,,,,*42
109 15 08 03 Nan Nan Nan 10000000 1011000010 1011101010 1110101110 1111110001 1100111111 1101110100 10010110011 1 1101101110 1010110011 1011011001 1111100011 10000001111 1110111000 1100101101 1100110111 1100011110 25.438 45.510 998.78 111689 17 6 11 59 50 4 $GNGGA,150803.00,,,,,0,00,7.30,,,,,,*43
110 15 08 04 Nan Nan Nan 10000000 1011000101 1011101101 1110101000 1111101111 1100111010 1101110001 10010110111 1 1101101111 1010110000 1011010111 1111101101 10000010000 1110110000 1100101100 1100110111 1100011111 25.438 45.121 998.78 112687 16 8 10 59 50 5 $GNGGA,150804.00,,,,,0,00,7.30,,,,,,*44
111 15 08 05 Nan Nan Nan 10000000 1011000000 1011101001 1110101011 1111110001 1100111011 1101110001 10010101100 1 1101101110 1010101101 1011010111 1111110111 10000010001 1110111000 1100110000 1100111001 1100100000 25.500 44.411 998.77 113688 17 7 11 60 51 3 $GNGGA,150805.00,,,,,0,00,7.31,,,,,,*44
112 15 08 06 Nan Nan Nan 10000000 1011000011 1011101010 1110101011 1111110010 1100111101 1101110010 10010110100 1 1101101110 1010101111 1011011001 1111110101 10000001110 1110110011 1100101001 1100110110 1100100011 25.438 43.625 998.76 114686 16 7 12 59 51 3 $GNGGA,150806.00,,,,,0,00,7.31,,,,,,*47
113 15 08 07 Nan Nan Nan 10000000 1011000101 1011101100 1110100101 1111110001 1100110000 1101100111 10010110110 1 1101101111 1010110011 1011011101 10000000011 10000001111 1110110101 1100101110 1100111011 1100101000 25.500 42.939 998.77 115686 16 7 11 60 51 3 $GNGGA,150807.00,,,,,0,00,7.32,,,,,,*45
114 15 08 08 Nan Nan Nan 10000000 1011000100 1011101101 1110101100 1111110100 1100111100 1101110000 10010110100 1 1101101111 1010101101 1011011001 1111111010 10000001111 1110110000 1100101000 1100111000 1100100010 25.438 42.573 998.78 116684 17 7 10 58 51 4 $GNGGA,150808.00,,,,,0,00,7.32,,,,,,*4A
115 15 08 09 Nan Nan Nan 10000000 1011000110 1011101011 1110100101 1111110001 1100111011 1101110100 10010110001 1 1101101111 1010101010 1011011000 1111110101 10000010000 1110110010 1100101000 1100111000 1100011011 25.500 42.420 998.77 117684 16 7 11 59 52 3 $GNGGA,150809.00,,,,,0,00,7.32,,,,,,*4B
116 15 08 10 Nan Nan Nan 10000000 1011000010 1011101100 1110101011 1111110101 1100110110 1101110001 10010111011 1 1101101110 1010101100 1011011100 1111110011 10000010000 1110110100 1100101101 1100110110 1100011111 25.500 42.382 998.78 118682 17 7 11 60 51 3 $GNGGA,150810.00,,,,,0,00,7.33,,,,,,*42
117 15 08 11 Nan Nan Nan 10000000 1011000111 1011101110 1110101010 1111110010 1100111010 1101110000 10010111011 1 1101101111 1010101000 1011011100 1111101101 10000010001 1110111101 1100110010 1100111101 1100100000 25.438 42.275 998.78 119681 16 8 12 59 51 3 $GNGGA,150811.00,,,,,0,00,7.33,,,,,,*43
118 15 08 12 Nan Nan Nan 10000000 1011000111 1011101100 1110101110 1111110001 1100110111 1101110001 10011000001 1 1101101110 1010100110 1011011010 1111100111 10000010011 1110111001 1100101101 1100111001 1100100100 25.438 42.084 998.78 120680 17 6 11 60 50 4 $GNGGA,150812.00,,,,,0,00,7.33,,,,,,*40
119 15 08 13 Nan Nan Nan 10000000 1011000101 1011101101 1110110010 1111110101 1100110110 1101101110 10010111100 1 1101101110 1010100000 1011010111 1111011111 10000010001 1110111101 1100101111 1100111001 1100100000 25.438 42.260 998.77 121683 16 7 11 58 51 4 $GNGGA,150813.00,,,,,0,00,7.34,,,,,,*46
120 15 08 14 Nan Nan Nan 10000000 1011000101 1011101100 1110110001 1111110010 1100110100 1101101000 10011000100 1 1101101110 1010011110 1011011100 1111010101 10000010000 1111000001 1100101100 1100111110 1100100111 25.500 42.229 998.78 122679 16 7 11 59 52 3 $GNGGA,150814.00,,,,,0,00,7.34,,,,,,*41
121 15 08 15 Nan Nan Nan 10000000 1011000110 1011101100 1110110011 1111110011 1100110011 1101101000 10011000001 1 1101101110 1010011000 1011011001 1111000101 10000010010 1110111111 1100110001 1100110110 1100011010 25.500 42.153 998.77 123674 17 7 11 60 51 3 $GNGGA,150815.00,,,,,0,00,99.9,,,,,,*49
122 15 08 16 Nan Nan Nan 10000000 1011001000 1011101101 1110110011 1111110101 1100101110 1101101010 10010111100 1 1101101110 1010011001 1011011001 1110111111 10000010010 1110111110 1100101100 1100110110 1100100001 25.438 41.947 998.77 124675 16 8 11 59 51 4 $GNGGA,150816.00,,,,,0,00,99.9,,,,,,*4A
123 15 08 17 Nan Nan Nan 10000000 1011000110 1011101100 1110110111 1111110110 1100111000 1101101111 10011000101 1 1101101111 1010011111 1011011101 1110111100 10000010000 1110111111 1100101010 1101000110 1100100101 25.500 41.863 998.77 125676 17 7 11 60 50 4 $GNGGA,150817.00,,,,,0,00,7.35,,,,,,*43
124 15 08 18 Nan Nan Nan 10000000 1011000111 1011101100 1110110101 1111110111 1100110100 1101101011 10011000000 1 1101101110 1010011001 1011010111 1110110011 10000001111 1111000010 1100101011 1100111110 1100110100 25.438 41.726 998.77 126672 16 7 11 58 51 4 $GNGGA,150818.00,,,,,0,00,99.9,,,,,,*44
125 15 08 19 Nan Nan Nan 10000000 1011001000 1011101101 1110110000 1111110101 1100110110 1101110000 10010111010 1 1101101110 1010011010 1011011000 1110111001 10000010011 1111001010 1100101111 1100111111 1100101010 25.438 41.604 998.77 127671 16 7 10 59 51 4 $GNGGA,150819.00,,,,,0,00,99.9,,,,,,*45
126 15 08 20 Nan Nan Nan 10000000 1011000110 1011101011 1110100111 1111110001 1100111001 1101110111 10010111011 1 1101101111 1010011111 1011011011 1110110011 10000010000 1111000010 1100101101 1101000011 1100101010 25.438 41.512 998.77 128670 17 7 10 58 51 4 $GNGGA,150820.00,,,,,0,00,99.9,,,,,,*4F
127 15 08 21 Nan Nan Nan 10000000 1011001001 1011101110 1110101111 1111110101 1100110101 1101101110 10010111000 1 1101101110 1010011101 1011011000 1110111111 10000010010 1110111110 1100101001 1100111100 1100100100 25.438 41.482 998.77 129672 16 7 11 59 52 3 $GNGGA,150821.00,,,,,0,00,4.95,,,,,,*4F
128 15 08 22 Nan Nan Nan 10000000 1011001000 1011101100 1110101010 1111110110 1100110110 1101101110 10010110011 1 1101101111 1010100001 1011011011 1110111010 10000010011 1111000001 1100101010 1101000000 1100100000 25.438 41.482 998.77 130669 17 7 11 60 51 3 $GNGGA,150822.00,,,,,0,00,4.95,,,,,,*4C
129 15 08 23 Nan Nan Nan 10000000 1011000111 1011101101 1110101010 1111110011 1100110111 1101101100 10010110011 1 1101101110 1010100000 1011011011 1111000001 10000010011 1111000000 1100101011 1101000001 1100100101 25.438 41.497 998.78 131670 16 8 11 59 51 4 $GNGGA,150823.00,,,,,0,00,4.95,,,,,,*4D
130 15 08 24 Nan Nan Nan 10000000 1011001010 1011101111 1110101101 1111110101 1100111100 1101110010 10010110010 1 1101101110 1010011100 1011011011 1110111010 10000010000 1111000110 1100101111 1100110110 1100100100 25.438 41.466 998.78 132669 17 7 11 60 51 3 $GNGGA,150824.00,,,,,0,00,4.95,,,,,,*4A
