id HH MM SS longitude latitude altitude adc_1_ch0 adc_1_ch1 adc_1_ch2 adc_1_ch3 adc_1_ch4 adc_1_ch5 adc_1_ch6 adc_1_ch7 adc_1_ch8 adc_2_ch0 adc_2_ch1 adc_2_ch2 adc_2_ch3 adc_2_ch4 adc_2_ch5 adc_2_ch6 adc_2_ch7 adc_2_ch8 temp hum pres t_prog t_gps t_split t_adc t_temp t_hum t_pres trame_gga
1 15 08 41 Nan Nan Nan 100000000000 0 0 1110100001 1111111011 1100111101 1101101100 10001111010 1 1101101110 1010011011 1011011010 1110101111 10000010000 1111001100 1100101001 1100101100 1100011000 25.438 42.061 795.83 3034 15 8 11 59 50 5 $GNGGA,150841.00,,,,,0,00,99.9,,,,,,*48
2 15 08 42 Nan Nan Nan 100000000000 0 0 1110100101 1111111011 1100110110 1101101001 10001111110 1 1101101110 1010011100 1011011011 1110111000 10000010011 1111001110 1100101100 1100110110 1100100001 25.375 42.138 998.78 4033 17 7 11 60 51 3 $GNGGA,150842.00,,,,,0,00,99.9,,,,,,*4B
3 15 08 43 Nan Nan Nan 100000000000 0 0 1110100100 1111111010 1100111000 1101101010 10001111000 1 1101101111 1010011011 1011011101 1110110000 10000001111 1111001110 1100100111 1100101110 1100011111 25.375 42.084 998.77 5032 16 7 12 59 51 3 $GNGGA,150843.00,,,,,0,00,99.9,,,,,,*4A
4 15 08 44 Nan Nan Nan 100000000000 0 0 1110101010 1111111110 1100111100 1101101001 10010000010 1 1101101110 1010011011 1011011100 1110110101 10000010010 1111010001 1100101100 1100101111 1100100010 25.375 42.077 998.78 6029 15 6 11 59 51 4 $GNGGA,150844.00,,,,,0,00,99.9,,,,,,*4D
5 15 08 45 Nan Nan Nan 100000000000 0 0 1110101001 1111111010 1100111010 1101101010 10010000001 1 1101101111 1010011100 1011011100 1110111011 10000010010 1111001111 1100101001 1100110011 1100101001 25.375 42.199 998.77 7029 17 7 10 58 51 4 $GNGGA,150845.00,,,,,0,00,99.9,,,,,,*4C
6 15 08 46 Nan Nan Nan 100000000000 0 0 1110011110 1111111011 1100111010 1101101111 10001111001 1 1101101111 1010011100 1011011010 1111000000 10000010011 1111010001 1100101010 1100110110 1100100101 25.438 42.321 998.75 8029 16 7 11 59 52 3 $GNGGA,150846.00,,,,,0,00,99.9,,,,,,*4F
7 15 08 47 Nan Nan Nan 100000000000 0 0 1110101010 1111111100 1100110110 1101100101 10001110100 1 1101101110 1010011110 1011011100 1110111011 10000010011 1111010011 1100101011 1100110100 1100100000 25.438 42.504 998.77 9028 16 7 11 60 51 3 $GNGGA,150847.00,,,,,0,00,99.9,,,,,,*4E
8 15 08 48 Nan Nan Nan 100000000000 0 0 1110100100 1111111100 1100111110 1101101100 10001110101 1 1101101111 1010011111 1011011010 1111000010 10000010101 1111010111 1100101110 1100110100 1100011111 25.438 42.496 998.77 10027 16 8 11 58 51 4 $GNGGA,150848.00,,,,,0,00,99.9,,,,,,*41
9 15 08 49 Nan Nan Nan 100000000000 0 0 1110101011 1111111110 1100110111 1101100111 10001110000 1 1101101110 1010011110 1011011011 1110111101 10000010000 1111001100 1100101011 1100110000 1100011100 25.438 42.473 998.78 11026 15 7 11 60 51 3 $GNGGA,150849.00,,,,,0,00,99.9,,,,,,*40
10 15 08 50 Nan Nan Nan 100000000000 0 0 1110011110 1111111000 1100111100 1101110100 10001101011 1 1101101111 1010100011 1011011101 1110100101 10000000101 1111010010 1100100111 1100100011 1100010111 25.375 42.550 998.78 12024 15 6 12 59 50 4 $GNGGA,150850.00,,,,,0,00,99.9,,,,,,*48
11 15 08 51 Nan Nan Nan 100000000000 0 0 1110100000 1111111110 1100111011 1101101110 10001101000 1 1101101110 1010100001 1011011100 1111000000 10000010010 1111011101 1100111001 1100111001 1100101000 25.438 42.725 998.77 13023 16 7 10 58 52 4 $GNGGA,150851.00,,,,,0,00,99.9,,,,,,*49
12 15 08 52 Nan Nan Nan 100000000000 0 0 1110111000 10000001110 1100111101 1101110010 10001011010 1 1101101111 1010011011 1011011000 1111000011 10000010100 1111011000 1100110001 1100110000 1100100001 25.438 42.992 998.77 14022 16 6 11 60 50 4 $GNGGA,150852.00,,,,,0,00,99.9,,,,,,*4A
13 15 08 53 Nan Nan Nan 100000000000 0 0 1110110010 10000000110 1100110011 1101100110 10001011111 1 1101101111 1010011111 1011011101 1111000001 10000010011 1111010001 1100100111 1100111010 1100101010 25.438 43.236 998.77 15022 16 8 10 58 51 5 $GNGGA,150853.00,,,,,0,00,99.9,,,,,,*4B
14 15 08 54 Nan Nan Nan 100000000000 0 0 1110110001 1111111101 1100110110 1101101011 10001100010 1 1101101111 1010011111 1011011011 1111000001 10000010010 1111010100 1100101101 1100110110 1100101100 25.438 43.229 998.77 16021 17 7 11 60 51 3 $GNGGA,150854.00,,,,,0,00,99.9,,,,,,*4C
15 15 08 55 Nan Nan Nan 100000000000 0 0 1110110110 10000000010 1100110110 1101101010 10001010111 1 1101101111 1010100000 1011011010 1111000100 10000010011 1111010001 1100101011 1100111011 1100100110 25.438 43.191 998.78 17019 16 7 11 58 51 4 $GNGGA,150855.00,,,,,0,00,99.9,,,,,,*4D
16 15 08 56 Nan Nan Nan 100100000111 111101111111 0 1110101011 1111111101 1100110111 1101101000 10001011101 1 1101101111 1010011101 1011011000 1111000011 10000010011 1111010110 1100101101 1100111000 1100100110 25.438 43.999 998.79 18020 16 7 10 59 51 4 $GNGGA,150856.00,,,,,0,00,99.9,,,,,,*4E
17 15 08 57 Nan Nan Nan 100100000111 111101111111 0 1110110010 10000000010 1100110111 1101101101 10001010010 1 1101101111 1010100000 1011011101 1111000000 10000010000 1111010110 1100101100 1100110001 1100100110 25.500 44.800 998.79 19019 17 7 11 59 50 4 $GNGGA,150857.00,,,,,0,00,99.9,,,,,,*4F
18 15 08 58 Nan Nan Nan 101000000000 0 0 1110111110 10000000100 1100111100 1101101101 10001010110 1 1101101111 1010011111 1011011100 1111000000 10000010100 1111010000 1100100110 1100101110 1100011111 25.438 45.701 998.78 20017 16 8 10 58 52 4 $GNGGA,150858.00,,,,,0,00,99.9,,,,,,*40
19 15 08 59 Nan Nan Nan 101000000000 0 0 1110111001 10000000110 1100110100 1101101000 10001010010 1 1101101111 1010011010 1011011000 1110111111 10000010011 1111010100 1100100110 1100101110 1100011100 25.438 45.991 998.78 21016 17 7 11 60 51 3 $GNGGA,150859.00,,,,,0,00,99.9,,,,,,*41
20 15 09 00 Nan Nan Nan 101100000111 111101111111 0 1110110010 1111111111 1100110010 1101100011 10001010111 1 1101101111 1010011000 1011010111 1111000010 10000010100 1111010011 1100101101 1100110101 1100100100 25.438 45.624 998.76 22018 16 8 12 59 51 3 $GNGGA,150900.00,,,,,0,00,99.9,,,,,,*4C
21 15 09 01 Nan Nan Nan 110100000111 111101111111 0 1110110010 1111111101 1100110101 1101101011 10001001110 1 1101101111 1010011011 1011011000 1111000001 10000010011 1111011001 1100101011 1100110111 1100101000 25.438 45.220 998.77 23015 16 6 11 60 50 4 $GNGGA,150901.00,,,,,0,00,99.9,,,,,,*4D
22 15 09 02 Nan Nan Nan 110000000000 0 0 1110111011 10000000001 1100110010 1101100111 10001001011 1 1101101111 1010010111 1011011001 1110111100 10000010011 1111010111 1100101011 1100111001 1100100011 25.438 45.174 998.78 24012 17 7 10 58 51 4 $GNGGA,150902.00,,,,,0,00,99.9,,,,,,*4E
23 15 09 03 Nan Nan Nan 110000000000 0 0 1110111001 10000000001 1100110010 1101100101 10001010000 1 1101101111 1010011110 1011011101 1110110110 10000010101 1111011100 1100101100 1100110011 1100101001 25.500 44.678 998.78 25023 17 7 11 60 51 3 $GNGGA,150903.00,,,,,0,00,2.28,,,,,,*4E
24 15 09 04 Nan Nan Nan 110100000111 111101111111 0 1110111011 10000000101 1100110101 1101100111 10001001110 1 1101101111 1010011011 1011011100 1110111010 10000010011 1111011001 1100101110 1100110110 1100100110 25.438 44.694 998.78 26014 17 7 11 60 51 3 $GNGGA,150904.00,,,,,0,00,2.28,,,,,,*49
25 15 09 05 Nan Nan Nan 110100000111 111101111111 0 1110101100 1111111011 1100110010 1101100100 10001001010 1 1101101110 1010011011 1011011100 1110110101 10000010101 1111011000 1100100111 1100111010 1100100111 25.438 45.365 998.78 27013 16 8 10 58 51 5 $GNGGA,150905.00,,,,,0,00,2.28,,,,,,*48
26 15 09 06 Nan Nan Nan 111000000000 0 0 1110110010 10000000000 1100101111 1101100010 10001001101 1 1101101111 1010011011 1011011011 1110111000 10000010011 1111011100 1100101010 1100110010 1100100110 25.500 45.327 998.79 28012 17 7 11 60 51 3 $GNGGA,150906.00,,,,,0,00,2.28,,,,,,*4B
27 15 09 07 Nan Nan Nan 111000000000 0 0 1110111001 1111111110 1100110111 1101100000 10001001100 1 1101101111 1010011011 1011011100 1110110011 10000010011 1111010011 1100101010 1100110111 1100100101 25.438 45.449 998.79 29010 16 7 11 58 51 4 $GNGGA,150907.00,,,,,0,00,2.28,,,,,,*4A
28 15 09 08 Nan Nan Nan 110100000111 111101111111 0 1110110011 10000000000 1100111011 1101100101 10001001001 1 1101101111 1010011100 1011011011 1110111011 10000010101 1111100000 1100101101 1100110010 1100100011 25.500 45.258 998.79 30010 16 7 11 60 51 3 $GNGGA,150908.00,,,,,0,00,2.28,,,,,,*45
29 15 09 09 Nan Nan Nan 110100000111 111101111111 0 1110110001 10000000010 1100111010 1101101010 10001000111 1 1101101111 1010011100 1011011010 1110111101 10000010110 1111011100 1100101101 1100101111 1100011111 25.438 44.747 998.80 31008 17 7 10 58 51 4 $GNGGA,150909.00,,,,,0,00,2.28,,,,,,*44
30 15 09 10 Nan Nan Nan 110100000111 111101111111 0 1110110011 10000000011 1100110001 1101100010 10001000111 1 1101101111 1010011011 1011011011 1110111010 10000010110 1111011010 1100100111 1100110100 1100100010 25.438 44.137 998.80 32008 16 7 10 59 51 4 $GNGGA,150910.00,,,,,0,00,2.28,,,,,,*4C
31 15 09 11 Nan Nan Nan 110000000000 0 0 1110110111 10000000110 1100111011 1101101000 10001000010 1 1101101110 1010011110 1011011001 1110110110 10000010011 1111010100 1100100010 1100101011 1100011011 25.438 43.534 998.80 33007 17 7 10 60 51 4 $GNGGA,150911.00,,,,,0,00,2.28,,,,,,*4D
32 15 09 12 Nan Nan Nan 110000000000 0 0 1110111110 10000000100 1100111011 1101101000 10000111100 1 1101101111 1010011110 1011011011 1110110110 10000010101 1111010111 1100101100 1100110110 1100100011 25.438 43.221 998.79 34007 16 8 11 59 50 4 $GNGGA,150912.00,,,,,0,00,2.28,,,,,,*4E
33 15 09 13 Nan Nan Nan 110000000000 0 0 1110111001 10000000111 1100111110 1101101100 10000111101 1 1101101110 1010100010 1011011110 1110111111 10000010110 1111010110 1100100100 1100110100 1100100011 25.438 42.786 998.79 35007 17 7 10 59 51 4 $GNGGA,150913.00,,,,,0,00,2.28,,,,,,*4F
34 15 09 14 Nan Nan Nan 110000000000 0 0 1110110100 10000000001 1100111000 1101100110 10000111001 1 1101101111 1010011110 1011011011 1111000000 10000010101 1111011000 1100101001 1100101011 1100011111 25.438 42.565 998.78 36005 16 7 12 59 51 3 $GNGGA,150914.00,,,,,0,00,3.09,,,,,,*4A
35 15 09 15 Nan Nan Nan 110000000000 0 0 1110110101 10000000100 1100111100 1101101000 10000110100 1 1101101111 1010011110 1011011011 1111000001 10000010110 1111011011 1100101011 1100101110 1100100001 25.438 42.222 998.79 37003 15 6 11 59 51 4 $GNGGA,150915.00,,,,,0,00,3.09,,,,,,*4B
36 15 09 16 Nan Nan Nan 101100000111 111101111111 0 1110110110 10000000100 1100111100 1101101011 10000110011 1 1101101111 1010100000 1011011110 1111000010 10000010011 1111011100 1100110001 1100101111 1100100001 25.438 41.886 998.79 38002 17 7 11 60 51 3 $GNGGA,150916.00,,,,,0,00,3.09,,,,,,*48
37 15 09 17 Nan Nan Nan 101100000111 111101111111 0 1110111001 10000000111 1101000100 1101101111 10000101101 1 1101101110 1010100000 1011011110 1111000000 10000010010 1111011011 1100101100 1100110000 1100011110 25.438 41.733 998.78 39001 16 8 10 59 50 5 $GNGGA,150917.00,,,,,0,00,3.74,,,,,,*43
38 15 09 18 Nan Nan Nan 101100000111 111101111111 0 1110111000 10000000101 1100111111 1101101011 10000101011 1 1101101111 1010100001 1011011010 1111000101 10000010101 1111010100 1100100100 1100101011 1100011010 25.438 41.558 998.79 40000 17 7 11 60 51 3 $GNGGA,150918.00,,,,,0,00,3.09,,,,,,*46
39 15 09 19 Nan Nan Nan 101100000111 111101111111 0 1110110100 10000000110 1101000001 1101101111 10000110011 1 1101101110 1010100000 1011011011 1111001000 10000010011 1111100000 1100101111 1100101101 1100011110 25.438 41.398 998.78 40999 16 7 12 59 50 4 $GNGGA,150919.00,,,,,0,00,3.74,,,,,,*4D
40 15 09 20 Nan Nan Nan 101100000111 111101111111 0 1110111011 10000001000 1101000000 1101101101 10000101101 1 1101101111 1010100010 1011011111 1111001111 10000010110 1111011100 1100101000 1100110100 1100100001 25.438 41.344 998.79 41997 16 7 11 59 52 3 $GNGGA,150920.00,,,,,0,00,3.74,,,,,,*47
41 15 09 21 Nan Nan Nan 101100000111 111101111111 0 1110110011 10000000101 1100111100 1101101001 10000110101 1 1101101111 1010100100 1011011100 1111001110 10000010100 1111011101 1100101010 1100100101 1100011010 25.438 41.756 998.78 42996 17 6 10 59 50 4 $GNGGA,150921.00,,,,,0,00,3.09,,,,,,*4C
42 15 09 22 Nan Nan Nan 101000000000 0 0 1110111000 10000000100 1101000010 1101100011 10000101110 1 1101101111 1010100011 1011011011 1111001000 10000010010 1111100100 1100110001 1100110011 1100100010 25.438 42.908 998.77 43997 15 7 11 59 52 3 $GNGGA,150922.00,,,,,0,00,3.09,,,,,,*4F
43 15 09 23 Nan Nan Nan 101000000000 0 0 1110110101 10000000011 1101000101 1101110010 10000110000 1 1101101111 1010101000 1011100000 1111010010 10000010110 1111100010 1100101100 1100110101 1100100010 25.500 43.221 998.77 44995 17 7 11 60 51 3 $GNGGA,150923.00,,,,,0,00,3.74,,,,,,*44
44 15 09 24 Nan Nan Nan 101000000000 0 0 1110111000 10000000111 1100111011 1101110001 10000110000 1 1101101111 1010100010 1011011100 1111001011 10000010011 1111100010 1100110001 1100111001 1100100110 25.500 42.992 998.78 45993 16 7 12 59 51 3 $GNGGA,150924.00,,,,,0,00,3.74,,,,,,*43
45 15 09 25 Nan Nan Nan 101000000000 0 0 1110110010 10000000111 1100111101 1101101001 10000110010 1 1101101111 1010100101 1011011101 1111001101 10000010101 1111011110 1100101111 1100110110 1100100000 25.500 42.939 998.77 46993 16 7 10 60 50 4 $GNGGA,150925.00,,,,,0,00,3.74,,,,,,*42
46 15 09 26 Nan Nan Nan 101000000000 0 0 1110101011 10000000101 1101000011 1101110000 10000101101 1 1101101111 1010100111 1011011101 1111010001 10000010101 1111011111 1100101010 1100110110 1100100110 25.500 43.274 998.77 47992 16 7 11 59 51 4 $GNGGA,150926.00,,,,,0,00,3.74,,,,,,*41
47 15 09 27 4333.6726800128.7539465.2 00128.75394 65.2  101000000000 0 0 1110110000 10000001000 1100111111 1101110000 10000101111 1 1101101111 1010100010 1011011110 1111001111 10000010110 1111011100 1100101000 1100110111 1100100100 25.438 43.984 998.78 49003 16 14 14 60 51 3 $GNGGA,150927.00,4333.67268,N,00128.75394,E,1,03,1.52,65.2,M,53.8,M,,*7D
48 15 09 28 4333.6691000128.7457075.1 00128.74570 75.1  101000000000 0 0 1110101010 10000000010 1101000001 1101101010 10000110010 1 1101101111 1010100011 1011011110 1111010010 10000010111 1111100001 1100101100 1100110110 1100100010 25.438 45.327 998.78 50001 15 15 15 59 51 3 $GNGGA,150928.00,4333.66910,N,00128.74570,E,1,03,1.52,75.1,M,53.8,M,,*78
49 15 09 29 4333.6675200128.7426577.8 00128.74265 77.8  101000000000 0 0 1110110111 10000000110 1101000011 1101101011 10000110100 1 1101101111 1010100100 1011011101 1111001101 10000010101 1111011011 1100101010 1100101111 1100011111 25.438 45.403 998.79 51000 16 16 13 59 52 3 $GNGGA,150929.00,4333.66752,N,00128.74265,E,1,03,1.52,77.8,M,53.8,M,,*79
50 15 09 30 Nan Nan Nan 101000000000 0 0 1110110011 10000000111 1100111111 1101110010 10000110110 1 1101101111 1010100010 1011011100 1111010000 10000010101 1111100010 1100101101 1100101011 1100010101 25.500 44.648 998.79 51986 15 7 11 60 51 3 $GNGGA,150930.00,,,,,0,00,99.9,,,,,,*4F
51 15 09 31 Nan Nan Nan 101000000000 0 0 1110110111 10000001001 1100111100 1101101110 10000110100 1 1101101110 1010101001 1011011010 1111010101 10000010101 1111011010 1100101000 1100110110 1100100101 25.500 43.999 998.79 52983 15 7 12 59 50 4 $GNGGA,150931.00,,,,,0,00,99.9,,,,,,*4E
52 15 09 32 4333.6692500128.7421781.4 00128.74217 81.4  101000000000 0 0 1110111000 10000001000 1101000001 1101101100 10000110011 1 1101101111 1010101001 1011011100 1111011111 10000010110 1111010111 1100100001 1100101111 1100011100 25.438 43.335 998.79 53996 17 14 13 59 51 4 $GNGGA,150932.00,4333.66925,N,00128.74217,E,1,03,3.74,81.4,M,53.8,M,,*7B
53 15 09 33 Nan Nan Nan 101000000000 0 0 1110110011 10000000110 1100111101 1101101111 10000111001 1 1101101111 1010110000 1011011111 1111100101 10000010111 1111011110 1100101010 1100110010 1100100011 25.500 42.626 998.79 54984 17 7 10 59 51 4 $GNGGA,150933.00,,,,,0,00,3.74,,,,,,*45
54 15 09 34 Nan Nan Nan 101000000000 0 0 1110111000 10000000111 1100111110 1101101010 10000111010 1 1101101110 1010101011 1011011110 1111100011 10000011000 1111011100 1100101100 1100110100 1100101000 25.500 42.069 998.79 55984 15 8 11 59 50 5 $GNGGA,150934.00,,,,,0,00,3.74,,,,,,*42
55 15 09 35 4333.6728400128.7399492.2 00128.73994 92.2  100100000111 111101111111 0 1110101111 10000000110 1100111101 1101101111 10000111100 1 1101101111 1010100110 1011011101 1111100001 10000010110 1111011000 1100101011 1100110000 1100100001 25.500 41.817 998.78 56994 16 15 15 59 51 3 $GNGGA,150935.00,4333.67284,N,00128.73994,E,1,04,1.41,92.2,M,53.8,M,,*7D
56 15 09 36 4333.6724900128.7384096.3 00128.73840 96.3  100100000111 111101111111 0 1110101110 10000000111 1100111000 1101100110 10000110100 1 1101101111 1010100111 1011011011 1111100000 10000010110 1111011010 1100100110 1100110001 1100100110 25.438 41.848 998.79 57995 16 15 13 58 52 4 $GNGGA,150936.00,4333.67249,N,00128.73840,E,1,04,1.41,96.3,M,53.8,M,,*72
57 15 09 37 4333.6723700128.7374097.4 00128.73740 97.4  101000000000 0 0 1110110000 10000000100 1101000010 1101110011 10000111001 1 1101101110 1010100110 1011011011 1111100101 10000011001 1111011011 1100101101 1100110000 1100100001 25.500 41.733 998.78 58991 16 14 14 60 51 3 $GNGGA,150937.00,4333.67237,N,00128.73740,E,1,04,1.41,97.4,M,53.8,M,,*73
58 15 09 38 4333.6721400128.7360198.9 00128.73601 98.9  100100000111 111101111111 0 1110101111 10000000111 1100111011 1101101111 10001000000 1 1101101111 1010100110 1011011100 1111011000 10000010110 1111100000 1100101010 1100110100 1100011110 25.500 41.573 998.78 59991 16 15 15 59 51 3 $GNGGA,150938.00,4333.67214,N,00128.73601,E,1,04,1.41,98.9,M,53.8,M,,*7B
59 15 09 39 4333.6726100128.73493100.3ó 00128.73493 100.3 100100000111 111101111111 0 1110110100 10000000111 1100111011 1101101110 10001000010 1 1101101111 1010101000 1011011101 1111011011 10000010101 1111100000 1100101011 1100111010 1100101001 25.438 41.520 998.78 60989 17 14 13 60 50 4 $GNGGA,150939.00,4333.67261,N,00128.73493,E,1,04,1.41,100.3,M,53.8,M,,*4B
60 15 09 40 4333.6717600128.73390101.7ó 00128.73390 101.7 100100000111 111101111111 0 1110101110 10000000111 1101000010 1101110100 10000111111 1 1101101111 1010100011 1011011101 1111011000 10000010101 1111100000 1100110000 1100101110 1100011000 25.438 41.543 998.77 61988 16 14 14 59 50 4 $GNGGA,150940.00,4333.67176,N,00128.73390,E,1,04,1.41,101.7,M,53.8,M,,*41
61 15 09 41 4333.6719200128.73386102.9ó 00128.73386 102.9 100100000111 111101111111 0 1110110100 10000000111 1100111111 1101101110 10001000011 1 1101101111 1010100011 1011011110 1111011010 10000011000 1111011110 1100101101 1100110111 1100100011 25.438 41.619 998.78 62988 16 16 14 59 52 3 $GNGGA,150941.00,4333.67192,N,00128.73386,E,1,03,3.74,102.9,M,53.8,M,,*43
62 15 09 42 4333.6719900128.73404104.2ó 00128.73404 104.2 100100000111 111101111111 0 1110110011 10000000111 1100110111 1101101010 10001000011 1 1101101111 1010100001 1011011100 1111010000 10000010110 1111100001 1100101010 1100101101 1100011101 25.438 41.527 998.78 63985 17 15 13 60 50 4 $GNGGA,150942.00,4333.67199,N,00128.73404,E,1,03,3.74,104.2,M,53.8,M,,*4B
63 15 09 43 4333.6725400128.73423105.1ó 00128.73423 105.1 100100000111 111101111111 0 1110110000 10000000101 1100111010 1101101110 10000111110 1 1101101111 1010011111 1011011100 1111010011 10000010111 1111011011 1100101010 1100110101 1100100101 25.438 41.497 998.78 64985 16 15 13 58 51 5 $GNGGA,150943.00,4333.67254,N,00128.73423,E,1,03,3.74,105.1,M,53.8,M,,*4F
64 15 09 44 4333.6730500128.73433106.4ó 00128.73433 106.4 100100000111 111101111111 0 1110101111 10000000100 1100111111 1101101111 10001000000 1 1101101110 1010100011 1011011101 1111000111 10000010011 1111011110 1100101010 1100110101 1100100000 25.438 41.596 998.78 65984 17 14 13 59 51 4 $GNGGA,150944.00,4333.67305,N,00128.73433,E,1,04,1.41,106.4,M,53.8,M,,*49
65 15 09 45 4333.6730200128.73363107.1ó 00128.73363 107.1 100100000111 111101111111 0 1110110110 10000000111 1100111110 1101110011 10001000000 1 1101101111 1010100000 1011011100 1111001000 10000010111 1111100010 1100101101 1100110110 1100011111 25.438 41.703 998.79 66983 16 14 14 58 51 4 $GNGGA,150945.00,4333.67302,N,00128.73363,E,1,04,1.41,107.1,M,53.8,M,,*49
66 15 09 46 4333.6732600128.73355107.8ó 00128.73355 107.8 100100000111 111101111111 0 1110110101 10000001000 1100111000 1101101110 10001000010 1 1101101111 1010011011 1011011011 1110111111 10000010111 1111100000 1100100111 1100110011 1100100001 25.375 41.565 998.78 67983 16 15 13 60 50 4 $GNGGA,150946.00,4333.67326,N,00128.73355,E,1,04,1.41,107.8,M,53.8,M,,*40
67 15 09 47 4333.6723900128.73373108.3ó 00128.73373 108.3 100100000111 111101111111 0 1110101111 10000000100 1100111000 1101101010 10001000001 1 1101101111 1010011101 1011011100 1111000011 10000011000 1111011110 1100100110 1100110101 1100100001 25.438 41.489 998.78 68980 16 14 14 59 50 4 $GNGGA,150947.00,4333.67239,N,00128.73373,E,1,04,1.41,108.3,M,53.8,M,,*4E
68 15 09 48 4333.6734300128.73351108.6ó 00128.73351 108.6 100100000111 111101111111 0 1110101100 10000000110 1100111010 1101110010 10001000110 1 1101101111 1010100001 1011011101 1111000100 10000011000 1111100101 1100101010 1100101111 1100011010 25.438 41.375 998.78 69980 16 15 13 59 51 4 $GNGGA,150948.00,4333.67343,N,00128.73351,E,1,04,1.41,108.6,M,53.8,M,,*48
69 15 09 49 4333.6737300128.73316109.0ó 00128.73316 109.0 100100000111 111101111111 0 1110110011 10000001000 1100111011 1101101110 10001000001 1 1101101110 1010011100 1011011011 1111000001 10000010110 1111100100 1100101010 1100101011 1100011010 25.438 41.352 998.77 70978 17 14 13 60 50 4 $GNGGA,150949.00,4333.67373,N,00128.73316,E,1,03,3.74,109.0,M,53.8,M,,*4D
70 15 09 50 4333.6750800128.73569109.1ó 00128.73569 109.1 100100000111 111101111111 0 1110110010 10000000111 1100111011 1101110000 10000111100 1 1101101110 1010100001 1011011101 1110111101 10000010111 1111100111 1100101101 1100110010 1100101001 25.438 41.382 998.77 71977 16 14 14 59 50 4 $GNGGA,150950.00,4333.67508,N,00128.73569,E,1,04,1.41,109.1,M,53.8,M,,*43
71 15 09 51 4333.6753100128.73566109.0ó 00128.73566 109.0 100100000111 111101111111 0 1110110100 10000000110 1100111101 1101110001 10000111110 1 1101101111 1010011101 1011011100 1111000011 10000011001 1111100000 1100101011 1100110010 1100100100 25.375 41.497 998.77 72977 17 14 13 60 50 4 $GNGGA,150951.00,4333.67531,N,00128.73566,E,1,04,1.41,109.0,M,53.8,M,,*46
72 15 09 52 4333.6750500128.73554108.8ó 00128.73554 108.8 100100000111 111101111111 0 1110110000 10000001000 1100111100 1101110100 10001000011 1 1101101111 1010100001 1011011100 1111000010 10000010110 1111101000 1100101011 1100110101 1100101001 25.438 41.672 998.77 73976 16 14 15 59 51 3 $GNGGA,150952.00,4333.67505,N,00128.73554,E,1,04,1.41,108.8,M,53.8,M,,*4A
73 15 09 53 4333.6749100128.73613108.9ó 00128.73613 108.9 100100000111 111101111111 0 1110110110 10000001100 1100111010 1101101001 10001000010 1 1101101111 1010100001 1011011101 1111000010 10000010111 1111011110 1100100111 1100110010 1100100011 25.500 41.581 998.76 74974 16 16 14 59 52 3 $GNGGA,150953.00,4333.67491,N,00128.73613,E,1,04,1.41,108.9,M,53.8,M,,*46
74 15 09 54 4333.6758800128.73653109.0ó 00128.73653 109.0 100100000111 111101111111 0 1110101110 10000001000 1100111001 1101100101 10000111100 1 1101101111 1010100010 1011011110 1110111110 10000010110 1111101010 1100110000 1100111000 1100100101 25.438 41.619 998.77 75974 17 14 13 60 50 4 $GNGGA,150954.00,4333.67588,N,00128.73653,E,1,03,3.74,109.0,M,53.8,M,,*47
75 15 09 55 4333.6767000128.73715109.3ó 00128.73715 109.3 100100000111 111101111111 0 1110110010 10000000111 1100111100 1101101101 10000110111 1 1101101110 1010100011 1011011111 1111000100 10000011000 1111100011 1100101010 1100110100 1100100111 25.375 41.741 998.77 76973 16 16 15 59 51 3 $GNGGA,150955.00,4333.67670,N,00128.73715,E,1,03,3.74,109.3,M,53.8,M,,*42
76 15 09 56 4333.6770600128.73776109.6ó 00128.73776 109.6 100100000111 111101111111 0 1110110011 10000001001 1100111011 1101101011 10000110011 1 1101101111 1010100001 1011011110 1111000101 10000010111 1111100011 1100100110 1100101110 1100011110 25.438 41.749 998.77 77973 17 15 14 60 51 3 $GNGGA,150956.00,4333.67706,N,00128.73776,E,1,03,3.74,109.6,M,53.8,M,,*41
77 15 09 57 4333.6775500128.73826110.0ó 00128.73826 110.0 100100000111 111101111111 0 1110110111 10000000111 1100110101 1101101000 10001001000 1 1101101110 1010100010 1011100001 1111000010 10000010111 1111100101 1100101010 1100101111 1100100011 25.438 41.779 998.77 78971 16 14 14 58 51 4 $GNGGA,150957.00,4333.67755,N,00128.73826,E,1,03,3.75,110.0,M,53.8,M,,*43
78 15 09 58 4333.6787200128.73860110.1ó 00128.73860 110.1 100100000111 111101111111 0 1110111001 10000001010 1100111110 1101101110 10000111110 1 1101101111 1010100010 1011011110 1111000000 10000010110 1111100011 1100101000 1100111001 1100100111 25.375 41.840 998.77 79971 16 16 13 59 51 4 $GNGGA,150958.00,4333.67872,N,00128.73860,E,1,03,3.75,110.1,M,53.8,M,,*45
79 15 09 59 4333.6786300128.73845110.5ó 00128.73845 110.5 100100000111 111101111111 0 1110110011 10000001011 1100110100 1101100101 10000111101 1 1101101111 1010100000 1011011110 1110111111 10000010100 1111100101 1100101000 1100110111 1100100001 25.438 41.916 998.76 80969 16 15 14 60 50 4 $GNGGA,150959.00,4333.67863,N,00128.73845,E,1,03,3.75,110.5,M,53.8,M,,*47
80 15 10 00 4333.6806400128.73950112.1ó 00128.73950 112.1 100100000111 111101111111 0 1110110101 10000001000 1100111010 1101101110 10000111001 1 1101101111 1010100000 1011011011 1111000100 10000011001 1111100110 1100100111 1100110001 1100011110 25.375 41.955 998.78 81967 16 16 14 59 51 4 $GNGGA,151000.00,4333.68064,N,00128.73950,E,1,04,11.6,112.1,M,53.8,M,,*40
81 15 10 01 4333.6810600128.73879112.2ó 00128.73879 112.2 100100000111 111101111111 0 1110110010 10000000101 1100111000 1101101010 10000110111 1 1101101111 1010011101 1011011011 1111000111 10000011000 1111101000 1100101110 1100110101 1100011100 25.438 41.886 998.77 82967 17 15 14 60 51 3 $GNGGA,151001.00,4333.68106,N,00128.73879,E,1,03,3.75,112.2,M,53.8,M,,*4D
82 15 10 02 4333.6825400128.73865112.2ó 00128.73865 112.2 100100000111 111101111111 0 1110110010 10000001000 1101000001 1101101111 10000111101 1 1101101110 1010100001 1011011011 1111001010 10000011000 1111100011 1100100110 1100110111 1100100011 25.375 41.863 998.78 83965 16 14 14 59 50 4 $GNGGA,151002.00,4333.68254,N,00128.73865,E,1,03,3.75,112.2,M,53.8,M,,*47
83 15 10 03 4333.6836900128.73856112.4ó 00128.73856 112.4 100100000111 111101111111 0 1110101110 10000000111 1100110111 1101101010 10000111100 1 1101101111 1010100011 1011011110 1111000110 10000011000 1111100110 1100101001 1100101011 1100100000 25.375 42.008 998.78 84965 17 15 14 60 51 3 $GNGGA,151003.00,4333.68369,N,00128.73856,E,1,03,3.75,112.4,M,53.8,M,,*4F
84 15 10 04 Nan Nan Nan 100100000111 111101111111 0 1110110100 10000001000 1100111001 1101101001 10001000001 1 1101101111 1010100100 1011100000 1111000111 10000010110 1111101111 1100101101 1100101111 1100011101 25.375 42.077 998.79 85951 18 7 10 60 50 4 $GNGGA,151004.00,,,,,0,00,99.9,,,,,,*40
85 15 10 05 Nan Nan Nan 100100000111 111101111111 0 1110110011 10000001000 1100111000 1101101000 10000110111 1 1101101111 1010100100 1011011101 1111001010 10000010111 1111100100 1100101110 1100111000 1100100100 25.438 42.115 998.78 86950 16 7 12 59 50 4 $GNGGA,151005.00,,,,,0,00,99.9,,,,,,*41
86 15 10 06 4333.6866900128.73832112.3ó 00128.73832 112.3 100100000111 111101111111 0 1110110000 10000001010 1100111010 1101110010 10000110100 1 1101101111 1010100101 1011011110 1111010001 10000011010 1111101000 1100101111 1100110111 1100100111 25.375 42.000 998.77 87962 17 14 13 59 51 4 $GNGGA,151006.00,4333.68669,N,00128.73832,E,1,03,2.31,112.3,M,53.8,M,,*4B
87 15 10 07 4333.6880500128.73836112.2ó 00128.73836 112.2 100100000111 111101111111 0 1110110010 10000001010 1100110111 1101100110 10000111011 1 1101101110 1010100100 1011011110 1111001001 10000011001 1111101100 1100101101 1100110001 1100100010 25.375 42.069 998.76 88961 16 15 14 59 50 4 $GNGGA,151007.00,4333.68805,N,00128.73836,E,1,03,2.31,112.2,M,53.8,M,,*4B
88 15 10 08 4333.6891600128.73858112.1ó 00128.73858 112.1 100100000111 111101111111 0 1110110010 10000001001 1100110101 1101101100 10000110000 1 1101101111 1010011111 1011011010 1111001110 10000011001 1111101011 1100101000 1100110001 1100100000 25.375 41.962 998.76 89960 17 14 13 59 51 4 $GNGGA,151008.00,4333.68916,N,00128.73858,E,1,03,2.31,112.1,M,53.8,M,,*4C
89 15 10 09 4333.6904700128.73874112.1ó 00128.73874 112.1 100100000111 111101111111 0 1110110101 10000001000 1100111001 1101101001 10000110101 1 1101101110 1010100100 1011100000 1111010101 10000011011 1111101010 1100101000 1100110101 1100011011 25.438 41.863 998.76 90959 16 14 14 58 51 4 $GNGGA,151009.00,4333.69047,N,00128.73874,E,1,03,2.31,112.1,M,53.8,M,,*4F
90 15 10 10 Nan Nan Nan 100100000111 111101111111 0 1110110010 10000001001 1100110110 1101101000 10000110100 1 1101101111 1010100010 1011011101 1111001111 10000011001 1111101001 1100101101 1100110100 1100011011 25.500 41.848 998.75 91945 16 7 12 59 51 3 $GNGGA,151010.00,,,,,0,00,99.9,,,,,,*45
91 15 10 11 Nan Nan Nan 100000000000 0 0 1110110100 10000001000 1100110111 1101101011 10000110010 1 1101101110 1010100100 1011011111 1111010000 10000010110 1111100011 1100100101 1100110100 1100011111 25.438 42.092 998.76 92945 16 7 10 59 51 4 $GNGGA,151011.00,,,,,0,00,2.31,,,,,,*4D
92 15 10 12 Nan Nan Nan 100100000111 111101111111 0 1110111011 10000000111 1100110111 1101100111 10000110011 1 1101101110 1010101000 1011011111 1111010001 10000010111 1111101010 1100101100 1100110100 1100100100 25.438 42.176 998.77 93945 16 7 12 59 51 3 $GNGGA,151012.00,,,,,0,00,2.31,,,,,,*4E
93 15 10 13 Nan Nan Nan 100000000000 0 0 1110110011 10000000111 1100110100 1101101100 10000101111 1 1101101111 1010100101 1011011111 1111001111 10000010111 1111100111 1100101011 1100101111 1100100010 25.438 42.191 998.76 94948 15 7 11 60 51 3 $GNGGA,151013.00,,,,,0,00,2.31,,,,,,*4F
94 15 10 14 4333.6952700128.74193110.6ó 00128.74193 110.6 100100000111 111101111111 0 1110111001 10000001010 1100110100 1101100101 10000110110 1 1101101111 1010100111 1011100001 1111010011 10000011001 1111100100 1100101011 1100110010 1100101001 25.375 42.130 998.77 95954 16 15 15 59 51 3 $GNGGA,151014.00,4333.69527,N,00128.74193,E,1,04,3.05,110.6,M,53.8,M,,*43
95 15 10 15 4333.6945600128.74223110.9ó 00128.74223 110.9 100100000111 111101111111 0 1110111101 10000001100 1100110011 1101101001 10000110111 1 1101101110 1010100110 1011100001 1111010011 10000011010 1111100101 1100100111 1100110001 1100011110 25.375 42.054 998.77 96953 16 16 14 60 51 3 $GNGGA,151015.00,4333.69456,N,00128.74223,E,1,04,3.05,110.9,M,53.8,M,,*42
96 15 10 16 4333.6947300128.74239110.0ó 00128.74239 110.0 100000000000 0 0 1110111011 10000001101 1100111000 1101101111 10000110111 1 1101101111 1010100001 1011011100 1111001111 10000010111 1111100110 1100101000 1100110111 1100101000 25.375 42.023 998.77 97951 15 15 15 59 51 3 $GNGGA,151016.00,4333.69473,N,00128.74239,E,1,03,3.75,110.0,M,53.8,M,,*44
97 15 10 17 4333.6942800128.74155109.9ó 00128.74155 109.9 100000000000 0 0 1110110001 10000001011 1100111010 1101101101 10000110111 1 1101101111 1010100101 1011011111 1111001101 10000010110 1111100110 1100100111 1100110001 1100100000 25.375 42.145 998.76 98951 16 15 13 59 51 4 $GNGGA,151017.00,4333.69428,N,00128.74155,E,1,03,3.75,109.9,M,53.8,M,,*43
98 15 10 18 4333.6940000128.74137109.1ó 00128.74137 109.1 100100000111 111101111111 0 1110110111 10000000111 1100110011 1101101101 10000110100 1 1101101110 1010101000 1011011111 1111001001 10000011010 1111100110 1100101000 1100110000 1100100001 25.375 42.191 998.76 99949 17 14 13 60 50 4 $GNGGA,151018.00,4333.69400,N,00128.74137,E,1,03,3.75,109.1,M,53.8,M,,*4A
99 15 10 19 4333.6976100128.74477107.3ó 00128.74477 107.3 100000000000 0 0 1110110110 10000001100 1100111001 1101101101 10000110000 1 1101101110 1010100101 1011011110 1111001010 10000010110 1111101010 1100101010 1100110010 1100100001 25.375 41.985 998.76 100948 16 15 15 59 51 3 $GNGGA,151019.00,4333.69761,N,00128.74477,E,1,03,3.75,107.3,M,53.8,M,,*42
100 15 10 20 Nan Nan Nan 100100000111 111101111111 0 1110110110 10000001010 1100110111 1101101010 10000110111 1 1101101111 1010100011 1011011101 1111001111 10000011100 1111101001 1100101101 1100101111 1100011001 25.375 41.832 998.75 101934 16 8 10 58 51 5 $GNGGA,151020.00,,,,,0,00,99.9,,,,,,*46
101 15 10 21 4333.6978900128.74518108.1ó 00128.74518 108.1 100000000000 0 0 1110111000 10000001011 1100110101 1101101000 10000101111 1 1101101111 1010100010 1011011100 1111001111 10000011010 1111101000 1100101111 1100101100 1100011110 25.375 41.718 998.75 102946 15 15 15 59 51 3 $GNGGA,151021.00,4333.69789,N,00128.74518,E,1,03,3.75,108.1,M,53.8,M,,*4A
102 15 10 22 4333.6970400128.74471109.0ó 00128.74471 109.0 100000000000 0 0 1110111100 10000001100 1100110101 1101100110 10000101011 1 1101101111 1010100000 1011011110 1111001101 10000011000 1111100111 1100100111 1100110100 1100011111 25.375 41.619 998.76 103944 16 15 13 58 52 4 $GNGGA,151022.00,4333.69704,N,00128.74471,E,1,03,3.75,109.0,M,53.8,M,,*42
103 15 10 23 4333.6926500128.73956111.7ó 00128.73956 111.7 100100000111 111101111111 0 1110111010 10000001100 1100110110 1101101110 10000110111 1 1101101110 1010100100 1011011111 1111001111 10000011010 1111101000 1100101001 1100110110 1100101100 25.438 41.550 998.76 104944 17 15 14 60 51 3 $GNGGA,151023.00,4333.69265,N,00128.73956,E,1,03,3.75,111.7,M,53.8,M,,*40
104 15 10 24 4333.6936300128.74021112.2ó 00128.74021 112.2 100000000000 0 0 1111000010 10000001100 1100110011 1101100110 10000110000 1 1101101110 1010100010 1011011110 1111000110 10000011000 1111100011 1100100100 1100111011 1100100111 25.375 41.504 998.76 105944 16 16 14 59 50 4 $GNGGA,151024.00,4333.69363,N,00128.74021,E,1,03,3.75,112.2,M,53.8,M,,*48
105 15 10 25 4333.6942800128.74037112.8ó 00128.74037 112.8 100000000000 0 0 1110111100 10000001010 1100110010 1101100111 10000110000 1 1101101110 1010100101 1011011101 1111001100 10000011001 1111100010 1100100010 1100111000 1100100001 25.375 41.474 998.76 106943 16 15 14 60 51 3 $GNGGA,151025.00,4333.69428,N,00128.74037,E,1,03,3.75,112.8,M,53.8,M,,*4C
106 15 10 26 Nan Nan Nan 100000000000 0 0 1110110100 10000000111 1100110110 1101101011 10000101011 1 1101101110 1010100100 1011011110 1111001011 10000010111 1111101100 1100101010 1100110011 1100011101 25.375 41.443 998.76 107930 17 7 10 59 51 4 $GNGGA,151026.00,,,,,0,00,3.75,,,,,,*48
107 15 10 27 Nan Nan Nan 100000000000 0 0 1110111001 10000001011 1100110111 1101101011 10000100110 1 1101101111 1010100100 1011011110 1111010011 10000011010 1111101101 1100101011 1100101111 1100011111 25.375 41.703 998.77 108929 16 7 11 59 50 4 $GNGGA,151027.00,,,,,0,00,3.75,,,,,,*49
108 15 10 28 Nan Nan Nan 100000000000 0 0 1110110101 10000001100 1100110110 1101101010 10000101100 1 1101101110 1010100101 1011100000 1111010000 10000011001 1111101110 1100101001 1100110110 1100100000 25.375 42.077 998.77 109928 17 7 10 60 50 4 $GNGGA,151028.00,,,,,0,00,3.75,,,,,,*46
109 15 10 29 Nan Nan Nan 100000000000 0 0 1110110110 10000001011 1100111010 1101101011 10000101110 1 1101101110 1010100010 1011100000 1111001101 10000011001 1111100111 1100100110 1100101111 1100011010 25.375 41.977 998.79 110926 15 7 12 59 50 4 $GNGGA,151029.00,,,,,0,00,3.75,,,,,,*47
110 15 10 30 Nan Nan Nan 100000000000 0 0 1110111001 10000001101 1100111010 1101101101 10000110001 1 1101101111 1010100010 1011011111 1111001101 10000011001 1111101100 1100101001 1100101101 1100100000 25.375 41.939 998.79 111927 16 7 11 59 52 3 $GNGGA,151030.00,,,,,0,00,3.75,,,,,,*4F
111 15 10 31 Nan Nan Nan 100000000000 0 0 1110111011 10000001011 1100110110 1101101000 10000101110 1 1101101111 1010100001 1011011111 1111000111 10000011000 1111100111 1100100110 1100110100 1100100101 25.375 42.115 998.78 112925 16 7 11 60 51 3 $GNGGA,151031.00,,,,,0,00,3.75,,,,,,*4E
112 15 10 32 Nan Nan Nan 100000000000 0 0 1110110100 10000001011 1100110110 1101101011 10000110001 1 1101101111 1010011111 1011011101 1111000101 10000010111 1111101001 1100101101 1100101101 1100100000 25.375 42.298 998.78 113924 15 7 11 59 50 5 $GNGGA,151032.00,,,,,0,00,3.75,,,,,,*4D
113 15 10 33 Nan Nan Nan 100000000000 0 0 1110111110 10000001111 1100110110 1101101000 10000110000 1 1101101110 1010100101 1011100001 1111001001 10000011001 1111101100 1100101001 1100101100 1100011100 25.375 42.351 998.77 114922 17 7 10 59 51 4 $GNGGA,151033.00,,,,,0,00,3.75,,,,,,*4C
114 15 10 34 Nan Nan Nan 100000000000 0 0 1110111100 10000001100 1100110010 1101100110 10000110001 1 1101101110 1010100100 1011100000 1111001001 10000011000 1111100111 1100101000 1100101011 1100011101 25.438 42.344 998.77 115922 15 7 12 59 51 3 $GNGGA,151034.00,,,,,0,00,3.75,,,,,,*4B
115 15 10 35 Nan Nan Nan 100000000000 0 0 1110111001 10000010000 1100110011 1101100111 10000101101 1 1101101110 1010100110 1011011110 1111001110 10000011001 1111101010 1100100111 1100101111 1100100100 25.375 42.168 998.77 116920 15 7 11 59 51 4 $GNGGA,151035.00,,,,,0,00,99.9,,,,,,*42
116 15 10 36 Nan Nan Nan 100000000000 0 0 1110111101 10000001101 1100110110 1101101010 10000101000 1 1101101111 1010100101 1011011110 1111001101 10000011010 1111101011 1100101100 1100110001 1100100000 25.375 42.038 998.77 117919 16 7 11 59 50 4 $GNGGA,151036.00,,,,,0,00,99.9,,,,,,*41
117 15 10 37 Nan Nan Nan 100000000000 0 0 1110111010 10000001010 1100110011 1101100111 10000101010 1 1101101110 1010100011 1011011110 1111001101 10000010111 1111110000 1100101101 1100101010 1100011011 25.375 42.191 998.77 118918 15 8 11 59 50 5 $GNGGA,151037.00,,,,,0,00,99.9,,,,,,*40
118 15 10 38 Nan Nan Nan 100000000000 0 0 1110110111 10000001010 1100111000 1101100111 10000101011 1 1101101110 1010100110 1011011110 1111001011 10000011001 1111101111 1100101011 1100110000 1100011011 25.375 42.283 998.78 119915 17 6 10 60 50 4 $GNGGA,151038.00,,,,,0,00,99.9,,,,,,*4F
119 15 10 39 Nan Nan Nan 100000000000 0 0 1110111001 10000001011 1100110010 1101100111 10000101110 1 1101101111 1010100111 1011100001 1111001001 10000010111 1111101000 1100101011 1100111010 1100100001 25.375 42.328 998.77 120914 16 7 12 59 51 3 $GNGGA,151039.00,,,,,0,00,99.9,,,,,,*4E
120 15 10 40 Nan Nan Nan 100000000000 0 0 1110111111 10000001101 1100110110 1101101000 10000110110 1 1101101110 1010101001 1011011111 1111001110 10000011001 1111110011 1100101010 1100111111 1100101001 25.438 42.428 998.78 121913 16 7 11 60 51 3 $GNGGA,151040.00,,,,,0,00,99.9,,,,,,*40
121 15 10 41 Nan Nan Nan 100000000000 0 0 1110111001 10000001000 1100110001 1101100011 10000111000 1 1101101110 1010100101 1011100001 1111010000 10000011010 1111101100 1100101011 1100110001 1100011011 25.438 42.275 998.77 122912 17 7 10 58 51 4 $GNGGA,151041.00,,,,,0,00,99.9,,,,,,*41
122 15 10 42 Nan Nan Nan 100000000000 0 0 1111000000 10000001110 1100110000 1101101010 10000110010 1 1101101110 1010100011 1011011101 1111011011 10000011110 1111101101 1100100110 1100101111 1100011100 25.375 42.222 998.76 123912 15 6 11 59 51 4 $GNGGA,151042.00,,,,,0,00,99.9,,,,,,*42
123 15 10 43 Nan Nan Nan 100000000000 0 0 1110111111 10000001011 1100101101 1101011110 10000101110 1 1101101110 1010100111 1011100011 1111010011 10000011010 1111101000 1100101000 1100111001 1100101001 25.438 42.161 998.76 124910 17 7 11 60 51 3 $GNGGA,151043.00,,,,,0,00,99.9,,,,,,*43
124 15 10 44 Nan Nan Nan 100000000000 0 0 1110111100 10000001000 1100111010 1101101101 10000101101 1 1101101110 1010100101 1011011111 1111010111 10000011000 1111101000 1100101000 1100111010 1100101000 25.375 42.183 998.77 125910 16 8 12 59 51 3 $GNGGA,151044.00,,,,,0,00,99.9,,,,,,*44
125 15 10 45 Nan Nan Nan 100000000000 0 0 1110111010 10000001011 1100111000 1101101100 10000101000 1 1101101110 1010100110 1011100000 1111010001 10000011011 1111101110 1100101110 1100110110 1100100010 25.375 42.168 998.77 126908 16 7 10 59 51 4 $GNGGA,151045.00,,,,,0,00,99.9,,,,,,*45
126 15 10 46 Nan Nan Nan 100000000000 0 0 1110111100 10000001110 1100110111 1101101001 10000101011 1 1101101110 1010100011 1011011110 1111010000 10000011000 1111101110 1100101110 1100110000 1100100011 25.375 42.260 998.77 127907 16 7 12 59 51 3 $GNGGA,151046.00,,,,,0,00,99.9,,,,,,*46
127 15 10 47 Nan Nan Nan 100000000000 0 0 1110111010 10000010000 1100110111 1101100101 10000101001 1 1101101110 1010100001 1011011100 1111010111 10000011011 1111101110 1100101000 1100110101 1100100100 25.375 42.260 998.77 128906 16 7 11 59 52 3 $GNGGA,151047.00,,,,,0,00,99.9,,,,,,*47
128 15 10 48 Nan Nan Nan 100000000000 0 0 1111000001 10000001100 1100110011 1101100101 10000101100 1 1101101110 1010100010 1011011110 1111010111 10000011100 1111101101 1100101011 1100110100 1100100011 25.375 42.100 998.76 129904 17 7 10 59 51 4 $GNGGA,151048.00,,,,,0,00,99.9,,,,,,*48
129 15 10 49 Nan Nan Nan 100000000000 0 0 1110111001 10000001101 1100110111 1101101100 10000110001 1 1101101110 1010100100 1011011100 1111010001 10000011010 1111101100 1100101100 1100110010 1100011011 25.375 41.977 998.76 130904 16 8 10 58 51 5 $GNGGA,151049.00,,,,,0,00,99.9,,,,,,*49
130 15 10 50 Nan Nan Nan 100000000000 0 0 1110111101 10000001100 1100110110 1101101001 10000101010 1 1101101111 1010100110 1011011101 1111010110 10000011100 1111101101 1100101001 1100111001 1100100000 25.375 41.916 998.76 131903 17 7 11 60 51 3 $GNGGA,151050.00,,,,,0,00,99.9,,,,,,*41
131 15 10 51 Nan Nan Nan 100000000000 0 0 1111000011 10000010000 1100110010 1101100110 10000101010 1 1101101111 1010100110 1011100000 1111010110 10000010101 1111101011 1100100110 1100110010 1100010111 25.375 41.916 998.76 132900 16 7 11 58 51 4 $GNGGA,151051.00,,,,,0,00,99.9,,,,,,*40
132 15 10 52 Nan Nan Nan 100000000000 0 0 1110111110 10000010000 1100110010 1101100101 10000101000 1 1101101110 1010101000 1011100000 1111010001 10000010111 1111110100 1100101011 1100110001 1100011011 25.375 41.977 998.75 133901 16 7 10 58 52 4 $GNGGA,151052.00,,,,,0,00,99.9,,,,,,*43
133 15 10 53 Nan Nan Nan 100000000000 0 0 1110110111 10000001010 1100110010 1101100101 10000100110 1 1101101110 1010100111 1011100000 1111010010 10000011011 1111101100 1100101001 1100110011 1100011110 25.375 42.077 998.76 134900 17 7 11 59 51 3 $GNGGA,151053.00,,,,,0,00,99.9,,,,,,*42
134 15 10 54 Nan Nan Nan 100000000000 0 0 1110110110 10000001100 1100110011 1101101010 10000101111 1 1101101110 1010101000 1011100000 1111010000 10000011000 1111101111 1100100111 1100110101 1100011100 25.375 42.107 998.75 135899 16 8 10 58 51 5 $GNGGA,151054.00,,,,,0,00,99.9,,,,,,*45
135 15 10 55 Nan Nan Nan 100000000000 0 0 1110111010 10000001101 1100110010 1101100101 10000101100 1 1101101111 1010101010 1011100010 1111011001 10000011101 1111101011 1100101001 1100110111 1100100100 25.375 42.153 998.75 136898 17 7 11 60 50 4 $GNGGA,151055.00,,,,,0,00,99.9,,,,,,*44
136 15 10 56 Nan Nan Nan 100000000000 0 0 1110111111 10000001110 1100111010 1101100111 10000100111 1 1101101111 1010100111 1011100001 1111001101 10000010111 1111110011 1100101011 1100110000 1100011100 25.375 42.191 998.74 137896 15 6 12 59 50 4 $GNGGA,151056.00,,,,,0,00,99.9,,,,,,*47
137 15 10 57 Nan Nan Nan 100000000000 0 0 1110111010 10000001010 1100101110 1101100111 10000100010 1 1101101110 1010100101 1011100001 1111010101 10000011110 1111100111 1100100010 1100110110 1100100100 25.375 42.168 998.74 138896 16 7 11 60 51 3 $GNGGA,151057.00,,,,,0,00,99.9,,,,,,*46
138 15 10 58 Nan Nan Nan 100000000000 0 0 1111000110 10000001111 1100110101 1101100101 10000101100 1 1101101111 1010100101 1011011111 1111001110 10000011010 1111101110 1100101111 1100110001 1100100111 25.375 42.145 998.74 139894 15 6 12 59 50 4 $GNGGA,151058.00,,,,,0,00,99.9,,,,,,*49
139 15 10 59 Nan Nan Nan 100000000000 0 0 1111000110 10000010001 1100110001 1101100110 10000101100 1 1101101110 1010100100 1011100000 1111000111 10000011001 1111101011 1100100111 1100110101 1100100111 25.375 42.138 998.74 140894 15 7 11 59 51 4 $GNGGA,151059.00,,,,,0,00,99.9,,,,,,*48
140 15 11 00 Nan Nan Nan 100000000000 0 0 1110111111 10000001111 1100110000 1101100000 10000101010 1 1101101111 1010101000 1011100001 1111010011 10000011101 1111101111 1100101110 1100110010 1100011101 25.375 42.161 998.75 141894 17 7 10 59 51 4 $GNGGA,151100.00,,,,,0,00,99.9,,,,,,*45
141 15 11 01 Nan Nan Nan 100000000000 0 0 1111000011 10000001111 1100101100 1101100011 10000100111 1 1101101110 1010100011 1011011100 1111001111 10000011001 1111110101 1100101101 1100110010 1100100110 25.375 42.183 998.75 142892 16 8 12 59 51 3 $GNGGA,151101.00,,,,,0,00,99.9,,,,,,*44
142 15 11 02 Nan Nan Nan 100000000000 0 0 1111000100 10000010000 1100110001 1101101000 10000101100 1 1101101111 1010100110 1011011111 1111010011 10000011101 1111101100 1100100111 1100101101 1100011110 25.375 42.199 998.75 143890 16 6 11 60 50 4 $GNGGA,151102.00,,,,,0,00,99.9,,,,,,*47
143 15 11 03 Nan Nan Nan 100000000000 0 0 1111000010 10000001111 1100111010 1101101111 10000101000 1 1101101110 1010101001 1011100000 1111010010 10000011011 1111101100 1100101010 1100101100 1100011101 25.375 42.229 998.76 144889 16 7 11 59 50 4 $GNGGA,151103.00,,,,,0,00,99.9,,,,,,*46
144 15 11 04 Nan Nan Nan 100000000000 0 0 1110111111 10000001101 1100110100 1101100110 10000101111 1 1101101110 1010101101 1011100001 1111010111 10000011110 1111101101 1100101001 1100110011 1100100011 25.375 42.298 998.76 145889 16 7 11 59 52 3 $GNGGA,151104.00,,,,,0,00,99.9,,,,,,*41
145 15 11 05 Nan Nan Nan 100000000000 0 0 1110110110 10000001010 1100110010 1101100110 10000101100 1 1101101111 1010101110 1011100101 1111010110 10000011101 1111101011 1100100101 1100101101 1100011011 25.375 42.344 998.76 146888 17 7 11 60 51 3 $GNGGA,151105.00,,,,,0,00,99.9,,,,,,*40
146 15 11 06 Nan Nan Nan 100000000000 0 0 1111000001 10000010010 1100101111 1101100001 10000101000 1 1101101111 1010100101 1011011111 1111010110 10000011100 1111101110 1100100111 1100101011 1100011111 25.375 42.351 998.76 147888 16 8 11 59 51 4 $GNGGA,151106.00,,,,,0,00,99.9,,,,,,*43
147 15 11 07 Nan Nan Nan 100000000000 0 0 1111000010 10000001100 1100110111 1101101011 10000110000 1 1101101110 1010100101 1011011110 1111010001 10000011100 1111110100 1100101111 1100101110 1100011110 25.375 42.420 998.77 148886 17 7 11 60 51 3 $GNGGA,151107.00,,,,,0,00,99.9,,,,,,*42
148 15 11 08 Nan Nan Nan 100000000000 0 0 1111000011 10000001111 1100111010 1101101001 10000101110 1 1101101110 1010101001 1011100011 1111010001 10000011001 1111110001 1100101001 1100101111 1100100001 25.375 42.595 998.76 149885 16 7 11 59 50 4 $GNGGA,151108.00,,,,,0,00,99.9,,,,,,*4D
149 15 11 09 Nan Nan Nan 100000000000 0 0 1111000101 10000010001 1100110110 1101101100 10000101000 1 1101101110 1010100011 1011011101 1111010011 10000011010 1111101111 1100101010 1100110000 1100100100 25.375 42.717 998.77 150884 16 7 11 60 51 3 $GNGGA,151109.00,,,,,0,00,99.9,,,,,,*4C
150 15 11 10 Nan Nan Nan 100000000000 0 0 1111000111 10000010010 1100110011 1101100101 10000101100 1 1101101110 1010100111 1011011110 1111010001 10000011001 1111110011 1100101100 1100110010 1100011100 25.375 42.771 998.76 151884 17 7 11 59 51 3 $GNGGA,151110.00,,,,,0,00,99.9,,,,,,*44
151 15 11 11 Nan Nan Nan 100000000000 0 0 1111000101 10000010001 1100101111 1101100001 10000101101 1 1101101111 1010100110 1011100011 1111010010 10000011001 1111110001 1100101100 1100101101 1100100010 25.375 42.748 998.75 152884 15 7 11 59 51 4 $GNGGA,151111.00,,,,,0,00,99.9,,,,,,*45
152 15 11 12 Nan Nan Nan 100000000000 0 0 1111000111 10000010010 1100110010 1101100100 10000101010 1 1101101110 1010100110 1011100000 1111001111 10000010111 1111111000 1100101010 1100101011 1100011001 25.438 42.649 998.76 153882 17 7 10 59 51 4 $GNGGA,151112.00,,,,,0,00,99.9,,,,,,*46
153 15 11 13 Nan Nan Nan 100000000000 0 0 1111000010 10000001110 1100110010 1101100011 10000101010 1 1101101110 1010101000 1011011111 1111011001 10000011010 1111101100 1100100110 1100110110 1100100110 25.438 42.527 998.75 154884 16 8 11 59 51 4 $GNGGA,151113.00,,,,,0,00,99.9,,,,,,*47
154 15 11 14 Nan Nan Nan 100000000000 0 0 1110111100 10000001101 1100110100 1101100111 10000100001 1 1101101110 1010100111 1011100010 1111010001 10000011000 1111101100 1100100101 1100110100 1100100101 25.375 42.382 998.75 155880 17 7 10 60 50 4 $GNGGA,151114.00,,,,,0,00,99.9,,,,,,*40
155 15 11 15 Nan Nan Nan 100000000000 0 0 1111000100 10000010001 1100110100 1101100010 10000100101 1 1101101110 1010100100 1011011110 1111010111 10000011001 1111101011 1100100110 1100101110 1100100100 25.375 42.176 998.74 156889 16 8 10 58 51 5 $GNGGA,151115.00,,,,,0,00,2.46,,,,,,*48
156 15 11 16 Nan Nan Nan 100000000000 0 0 1111000010 10000010010 1100110010 1101101010 10000100010 1 1101101111 1010100110 1011100000 1111011010 10000011011 1111110010 1100101011 1100110010 1100100111 25.375 42.077 998.74 157880 16 7 10 58 52 4 $GNGGA,151116.00,,,,,0,00,2.46,,,,,,*4B
157 15 11 17 Nan Nan Nan 100000000000 0 0 1110111010 10000001111 1100101110 1101100000 10000100101 1 1101101110 1010101001 1011011111 1111010101 10000011100 1111101111 1100101010 1100101110 1100011111 25.438 42.069 998.74 158879 17 7 11 59 51 3 $GNGGA,151117.00,,,,,0,00,2.46,,,,,,*4A
158 15 11 18 Nan Nan Nan 100000000000 0 0 1110111101 10000001101 1100110000 1101100101 10000100101 1 1101101110 1010100110 1011011110 1111010000 10000011011 1111101110 1100100010 1100101101 1100100101 25.375 42.267 998.74 159878 15 6 11 59 51 4 $GNGGA,151118.00,,,,,0,00,2.46,,,,,,*45
159 15 11 19 Nan Nan Nan 100000000000 0 0 1111000010 10000010001 1100101110 1101100101 10000101001 1 1101101110 1010101000 1011100000 1111010001 10000011011 1111101110 1100101000 1100101111 1100011000 25.375 42.450 998.75 160877 17 7 11 60 51 3 $GNGGA,151119.00,,,,,0,00,2.46,,,,,,*44
160 15 11 20 Nan Nan Nan 100000000000 0 0 1110111010 10000010001 1100110110 1101100100 10000100111 1 1101101111 1010101000 1011100010 1111011100 10000011010 1111110100 1100101001 1100110000 1100100001 25.375 42.458 998.75 161874 16 7 12 59 50 4 $GNGGA,151120.00,,,,,0,00,2.46,,,,,,*4E
161 15 11 21 Nan Nan Nan 100000000000 0 0 1111000110 10000010010 1100110000 1101101010 10000100110 1 1101101110 1010100101 1011011110 1111010110 10000011011 1111110100 1100101101 1100110001 1100011111 25.375 42.405 998.76 162874 16 7 10 59 51 4 $GNGGA,151121.00,,,,,0,00,2.46,,,,,,*4F
162 15 11 22 Nan Nan Nan 100000000000 0 0 1111000100 10000010010 1100110011 1101100010 10000100101 1 1101101111 1010100011 1011011111 1111001111 10000011011 1111110010 1100100101 1100101110 1100011010 25.375 42.443 998.75 163874 15 7 12 59 50 4 $GNGGA,151122.00,,,,,0,00,2.45,,,,,,*4F
163 15 11 23 Nan Nan Nan 100000000000 0 0 1111000100 10000010100 1100101111 1101100010 10000100110 1 1101101110 1010100110 1011100001 1111010011 10000011011 1111110001 1100100111 1100110001 1100100000 25.375 42.458 998.76 164873 16 7 11 59 52 3 $GNGGA,151123.00,,,,,0,00,2.45,,,,,,*4E
164 15 11 24 Nan Nan Nan 100000000000 0 0 1111000100 10000010011 1100111001 1101101000 10000100100 1 1101101110 1010101000 1011100000 1111001001 10000011001 1111101110 1100101000 1100100110 1100010111 25.375 42.779 998.76 165872 17 7 11 60 51 3 $GNGGA,151124.00,,,,,0,00,2.45,,,,,,*49
165 15 11 25 Nan Nan Nan 100000000000 0 0 1110111111 10000001111 1100110110 1101101010 10000101110 1 1101101110 1010100101 1011100010 1111001101 10000011010 1111101011 1100100011 1100101100 1100011100 25.375 42.679 998.77 166872 15 8 12 59 50 4 $GNGGA,151125.00,,,,,0,00,2.45,,,,,,*48
166 15 11 26 Nan Nan Nan 100000000000 0 0 1111000101 10000010100 1100111001 1101101010 10000100111 1 1101101110 1010101000 1011011111 1111010000 10000011100 1111101110 1100101011 1100110011 1100011111 25.375 42.489 998.77 167870 17 7 10 59 51 4 $GNGGA,151126.00,,,,,0,00,2.45,,,,,,*4B
167 15 11 27 Nan Nan Nan 100000000000 0 0 1111000000 10000001111 1100110000 1101100100 10000100101 1 1101101110 1010100110 1011100000 1111010010 10000011100 1111101110 1100101000 1100110101 1100100001 25.375 42.344 998.77 168869 16 7 12 59 51 3 $GNGGA,151127.00,,,,,0,00,2.45,,,,,,*4A
168 15 11 28 Nan Nan Nan 100000000000 0 0 1111000110 10000010011 1100101111 1101100011 10000011110 1 1101101110 1010101001 1011100001 1111011001 10000011011 1111101110 1100100101 1100111000 1100011111 25.375 42.656 998.77 169868 16 7 11 59 52 3 $GNGGA,151128.00,,,,,0,00,2.45,,,,,,*45
169 15 11 29 Nan Nan Nan 100000000000 0 0 1111001001 10000010001 1100110000 1101101000 10000101011 1 1101101110 1010101000 1011100001 1111010111 10000011001 1111101111 1100101001 1100110101 1100011101 25.375 42.840 998.76 170867 17 7 10 58 51 4 $GNGGA,151129.00,,,,,0,00,2.45,,,,,,*44
170 15 11 30 Nan Nan Nan 100000000000 0 0 1111000001 10000001111 1100110010 1101100111 10000101100 1 1101101110 1010101101 1011100000 1111010100 10000011011 1111110000 1100100111 1100110001 1100011011 25.375 42.794 998.77 171866 15 7 11 59 50 5 $GNGGA,151130.00,,,,,0,00,9.93,,,,,,*4C
171 15 11 31 Nan Nan Nan 100000000000 0 0 1111001011 10000001111 1100101100 1101100000 10000100100 1 1101101111 1010101100 1011100001 1111010111 10000011100 1111110010 1100101000 1100110000 1100011110 25.375 42.847 998.78 172863 17 7 11 60 51 3 $GNGGA,151131.00,,,,,0,00,9.91,,,,,,*4F
172 15 11 32 Nan Nan Nan 100000000000 0 0 1111000101 10000010001 1100110000 1101100011 10000101100 1 1101101110 1010101011 1011100001 1111010110 10000011010 1111110000 1100100101 1100110100 1100011110 25.375 43.030 998.78 173864 15 7 12 59 50 4 $GNGGA,151132.00,,,,,0,00,9.90,,,,,,*4D
173 15 11 33 Nan Nan Nan 100000000000 0 0 1111001001 10000010010 1100101110 1101100110 10000101111 1 1101101110 1010100101 1011011101 1111010100 10000011010 1111101110 1100100111 1100110001 1100100100 25.313 42.824 998.78 174862 16 7 10 60 50 4 $GNGGA,151133.00,,,,,0,00,9.88,,,,,,*45
174 15 11 34 Nan Nan Nan 100000000000 0 0 1111000101 10000001101 1100101100 1101100100 10000101101 1 1101101111 1010101100 1011100010 1111011110 10000011100 1111101110 1100101000 1100110100 1100100010 25.375 42.672 998.78 175862 17 7 11 59 51 3 $GNGGA,151134.00,,,,,0,00,9.86,,,,,,*4C
175 15 11 35 Nan Nan Nan 100000000000 0 0 1111001011 10000010000 1100110010 1101100110 10000100101 1 1101101111 1010101100 1011011111 1111100110 10000011110 1111101011 1100100010 1100110010 1100011101 25.375 42.779 998.76 176861 16 7 10 58 52 4 $GNGGA,151135.00,,,,,0,00,9.85,,,,,,*4E
176 15 11 36 Nan Nan Nan 100000000000 0 0 1111000110 10000010000 1100101110 1101100010 10000100101 1 1101101111 1010110000 1011100000 1111011110 10000011101 1111110000 1100100101 1100110011 1100100001 25.313 42.710 998.75 177861 16 7 11 60 50 4 $GNGGA,151136.00,,,,,0,00,9.83,,,,,,*4B
177 15 11 37 Nan Nan Nan 100000000000 0 0 1111000110 10000001110 1100110000 1101011110 10000100011 1 1101101110 1010110011 1011100010 1111101110 10000011100 1111101100 1100101100 1100110111 1100100000 25.375 42.664 998.76 178860 16 8 11 58 51 4 $GNGGA,151137.00,,,,,0,00,9.82,,,,,,*4B
178 15 11 38 Nan Nan Nan 100000000000 0 0 1111000111 10000010001 1100110110 1101101010 10000100001 1 1101101111 1010110001 1011100001 1111101100 10000011100 1111101000 1100100011 1100110100 1100100101 25.375 42.588 998.76 179857 16 7 10 59 51 4 $GNGGA,151138.00,,,,,0,00,9.80,,,,,,*46
179 15 11 39 Nan Nan Nan 100000000000 0 0 1110111111 10000010000 1100101101 1101100110 10000101000 1 1101101110 1010101100 1011100001 1111100111 10000011010 1111101111 1100100011 1100110100 1100011111 25.375 42.588 998.77 180857 16 7 12 59 51 3 $GNGGA,151139.00,,,,,0,00,9.78,,,,,,*40
180 15 11 40 Nan Nan Nan 100000000000 0 0 1111000101 10000010001 1100101111 1101100100 10000100000 1 1101101110 1010101011 1011100010 1111101101 10000011110 1111101010 1100100010 1100110011 1100011001 25.375 42.557 998.76 181857 16 7 10 58 52 4 $GNGGA,151140.00,,,,,0,00,9.77,,,,,,*41
181 15 11 41 Nan Nan Nan 100000000000 0 0 1111000101 10000010100 1100101110 1101100100 10000100110 1 1101101110 1010100101 1011011100 1111101110 10000011100 1111101101 1100101000 1100110010 1100100001 25.375 42.519 998.78 182855 17 7 10 60 50 4 $GNGGA,151141.00,,,,,0,00,9.75,,,,,,*42
182 15 11 42 Nan Nan Nan 100000000000 0 0 1111000000 10000010000 1100101110 1101100101 10000100111 1 1101101110 1010101100 1011100010 1111100101 10000011100 1111101100 1100101000 1100110001 1100100010 25.313 42.496 998.78 183854 16 8 10 58 51 5 $GNGGA,151142.00,,,,,0,00,9.74,,,,,,*40
183 15 11 43 Nan Nan Nan 100000000000 0 0 1111000111 10000010100 1100110010 1101100010 10000100010 1 1101101110 1010101010 1011100001 1111011100 10000011100 1111110011 1100100111 1100110011 1100011011 25.375 42.435 998.78 184855 17 7 11 60 51 3 $GNGGA,151143.00,,,,,0,00,9.72,,,,,,*47
184 15 11 44 Nan Nan Nan 100000000000 0 0 1111001110 10000010001 1100110001 1101100101 10000101000 1 1101101110 1010100110 1011100001 1111011110 10000011101 1111110000 1100101010 1100110000 1100100001 25.313 42.367 998.77 185852 15 6 12 59 50 4 $GNGGA,151144.00,,,,,0,00,9.71,,,,,,*43
185 15 11 45 Nan Nan Nan 100000000000 0 0 1111000010 10000010001 1100101011 1101100010 10000100110 1 1101101110 1010100100 1011011111 1111011000 10000011110 1111110010 1100101010 1100110001 1100011100 25.375 42.344 998.78 186853 16 7 10 59 51 4 $GNGGA,151145.00,,,,,0,00,2.92,,,,,,*44
186 15 11 46 Nan Nan Nan 100000000000 0 0 1111001000 10000010000 1100101000 1101011101 10000100100 1 1101101110 1010100100 1011100000 1111001110 10000011100 1111110011 1100101101 1100110101 1100100000 25.313 42.351 998.80 187851 17 7 10 58 51 4 $GNGGA,151146.00,,,,,0,00,2.92,,,,,,*47
187 15 11 47 Nan Nan Nan 100000000000 0 0 1111001101 10000010011 1100110110 1101100110 10000100101 1 1101101110 1010100100 1011100000 1111010111 10000011101 1111110000 1100100101 1100110111 1100100000 25.375 42.420 998.78 188850 16 7 11 59 52 3 $GNGGA,151147.00,,,,,0,00,2.92,,,,,,*46
188 15 11 48 Nan Nan Nan 100000000000 0 0 1111000110 10000010001 1100101101 1101100000 10000100110 1 1101101110 1010100010 1011011111 1111010110 10000011111 1111110110 1100101100 1100110010 1100011110 25.438 42.580 998.77 189847 16 6 11 60 50 4 $GNGGA,151148.00,,,,,0,00,9.64,,,,,,*4B
189 15 11 49 Nan Nan Nan 100000000000 0 0 1111001100 10000010010 1100101011 1101011100 10000101100 1 1101101111 1010100011 1011100001 1111010101 10000011101 1111111001 1100100110 1100110001 1100011111 25.375 42.809 998.78 190845 16 7 11 58 51 4 $GNGGA,151149.00,,,,,0,00,9.63,,,,,,*4D
190 15 11 50 Nan Nan Nan 100000000000 0 0 1111001110 10000010101 1100110010 1101100101 10000110000 1 1101101110 1010100101 1011100001 1111010001 10000011101 1111101101 1100100110 1100101111 1100100000 25.313 42.977 998.77 191846 16 7 11 60 51 3 $GNGGA,151150.00,,,,,0,00,9.61,,,,,,*47
191 15 11 51 Nan Nan Nan 100000000000 0 0 1111001100 10000010011 1100101110 1101100010 10000101010 1 1101101110 1010101011 1011100011 1111001111 10000011101 1111110110 1100101001 1100101100 1100011100 25.375 42.923 998.77 192845 16 7 12 59 51 3 $GNGGA,151151.00,,,,,0,00,9.60,,,,,,*47
192 15 11 52 Nan Nan Nan 100000000000 0 0 1111010110 10000010100 1100101011 1101100001 10000101101 1 1101101111 1010101010 1011100010 1111000111 10000011010 1111110100 1100101011 1100101100 1100100001 25.313 42.870 998.77 193844 16 7 11 59 52 3 $GNGGA,151152.00,,,,,0,00,9.58,,,,,,*4F
193 15 11 53 Nan Nan Nan 100000000000 0 0 1111001110 10000010011 1100101101 1101100001 10000101100 1 1101101110 1010101000 1011100010 1111010000 10000011101 1111110110 1100101001 1100110100 1100100001 25.375 42.923 998.77 194842 17 7 10 59 51 4 $GNGGA,151153.00,,,,,0,00,2.98,,,,,,*49
194 15 11 54 4333.6931000128.73749151.2ó 00128.73749 151.2 100000000000 0 0 1111001010 10000010100 1100101000 1101011100 10000101010 1 1101101110 1010100111 1011100101 1111001100 10000011011 1111111001 1100110011 1100110001 1100100100 25.375 42.794 998.78 195852 16 15 13 58 52 4 $GNGGA,151154.00,4333.69310,N,00128.73749,E,1,04,2.98,151.2,M,53.8,M,,*46
195 15 11 55 4333.6933600128.73787150.5ó 00128.73787 150.5 100000000000 0 0 1111001011 10000010001 1100110000 1101100111 10000101001 1 1101101111 1010101010 1011100010 1111001111 10000011101 1111110011 1100100100 1100110011 1100100001 25.375 42.733 998.78 196851 16 15 14 60 51 3 $GNGGA,151155.00,4333.69336,N,00128.73787,E,1,03,3.77,150.5,M,53.8,M,,*40
