id HH MM SS longitude latitude altitude adc_1_ch0 adc_1_ch1 adc_1_ch2 adc_1_ch3 adc_1_ch4 adc_1_ch5 adc_1_ch6 adc_1_ch7 adc_1_ch8 adc_2_ch0 adc_2_ch1 adc_2_ch2 adc_2_ch3 adc_2_ch4 adc_2_ch5 adc_2_ch6 adc_2_ch7 adc_2_ch8 temp hum pres t_prog t_gps t_split t_adc t_temp t_hum t_pres trame_gga
1 15 18 47 4333.6777500128.72199158.4ó 00128.72199 158.4 11100000111 111101111111 0 1111100010 10000100101 1100100010 1101010110 10000101010 1 1101101110 1010110010 1011100111 1111110010 10000100101 1111101011 1100100010 1100110110 1100011010 25.375 42.649 795.83 3635 16 15 13 58 52 4 $GNGGA,151847.00,4333.67775,N,00128.72199,E,1,06,2.55,158.4,M,53.8,M,,*42
2 15 18 48 4333.6783600128.72206158.5ó 00128.72206 158.5 11100000111 111101111111 0 1111100000 10000100100 1100100110 1101011000 10000100010 1 1101101110 1010101111 1011100111 1111101110 10000101001 1111101011 1100100001 1100110001 1100011011 25.375 42.656 998.71 4635 17 15 14 60 51 3 $GNGGA,151848.00,4333.67836,N,00128.72206,E,1,06,2.55,158.5,M,53.8,M,,*41
3 15 18 49 4333.6782000128.72199158.6ó 00128.72199 158.6 11100000111 111101111111 0 1111011110 10000100001 1100100110 1101011001 10000101001 1 1101101110 1010101111 1011100111 1111100110 10000100111 1111101111 1100011110 1100101101 1100011011 25.250 42.702 998.72 5632 16 15 14 59 50 4 $GNGGA,151849.00,4333.67820,N,00128.72199,E,1,05,2.58,158.6,M,53.8,M,,*4F
4 15 18 50 4333.6779600128.72191158.6ó 00128.72191 158.6 11100000111 111101111111 0 1111011011 10000100001 1100100100 1101011011 10000110110 1 1101101110 1010101100 1011101001 1111011100 10000100100 1111101101 1100100001 1100110010 1100100010 25.313 42.717 998.71 6631 17 14 14 60 51 3 $GNGGA,151850.00,4333.67796,N,00128.72191,E,1,05,2.58,158.6,M,53.8,M,,*4D
5 15 18 51 4333.6774800128.72201158.3ó 00128.72201 158.3 11100000111 111101111111 0 1111011110 10000100100 1100100010 1101010111 10000101100 1 1101101110 1010101011 1011101001 1111011000 10000100100 1111110010 1100100011 1100101111 1100011111 25.313 42.672 998.72 7630 16 15 15 59 51 3 $GNGGA,151851.00,4333.67748,N,00128.72201,E,1,05,2.58,158.3,M,53.8,M,,*40
6 15 18 52 4333.6771500128.72145158.0ó 00128.72145 158.0 11000000000 0 0 1111100011 10000100101 1100100111 1101011011 10000101001 1 1101101110 1010101110 1011101010 1111010110 10000100101 1111110000 1100100100 1100110000 1100011101 25.313 42.618 998.71 8629 16 15 13 59 51 4 $GNGGA,151852.00,4333.67715,N,00128.72145,E,1,05,2.58,158.0,M,53.8,M,,*4B
7 15 18 53 4333.6769600128.72062157.5ó 00128.72062 157.5 11100000111 111101111111 0 1111100010 10000100100 1100100001 1101011010 10000110000 1 1101101110 1010110001 1011101101 1111010100 10000100101 1111101011 1100011111 1100101011 1100010101 25.313 42.664 998.71 9628 17 15 14 60 51 3 $GNGGA,151853.00,4333.67696,N,00128.72062,E,1,05,4.06,157.5,M,53.8,M,,*43
8 15 18 54 4333.6767800128.72087157.0ó 00128.72087 157.0 11100000111 111101111111 0 1111011111 10000100101 1100100010 1101010011 10000101000 1 1101101110 1010111011 1011101101 1111010011 10000100100 1111110000 1100011111 1100110100 1100011010 25.313 42.923 998.71 10627 16 16 13 59 50 5 $GNGGA,151854.00,4333.67678,N,00128.72087,E,1,05,4.06,157.0,M,53.8,M,,*4A
9 15 18 55 4333.6778700128.72216157.1ó 00128.72216 157.1 11100000111 111101111111 0 1111011110 10000100001 1100100101 1101011100 10000101001 1 1101101110 1011000110 1011101011 1111100101 10000100110 1111101010 1100100000 1100101110 1100011001 25.313 42.908 998.70 11627 17 15 14 60 50 4 $GNGGA,151855.00,4333.67787,N,00128.72216,E,1,05,2.58,157.1,M,53.8,M,,*4C
10 15 18 56 4333.6783800128.72304156.9ó 00128.72304 156.9 11100000111 111101111111 0 1111100101 10000100101 1100011111 1101010111 10000101001 1 1101101110 1011001100 1011101010 1111111101 10000100111 1111101100 1100100010 1100110100 1100011100 25.313 42.893 998.71 12624 17 14 14 59 50 4 $GNGGA,151856.00,4333.67838,N,00128.72304,E,1,05,2.58,156.9,M,53.8,M,,*4F
11 15 18 57 4333.6785800128.72305156.7ó 00128.72305 156.7 11100000111 111101111111 0 1111011000 10000100000 1100101001 1101011101 10000101010 1 1101101110 1011001110 1011101010 10000010100 10000101000 1111101101 1100100011 1100110101 1100011100 25.313 42.923 998.71 13623 16 15 13 59 51 4 $GNGGA,151857.00,4333.67858,N,00128.72305,E,1,04,4.08,156.7,M,53.8,M,,*45
12 15 18 58 4333.6781700128.72289156.5ó 00128.72289 156.5 11100000111 111101111111 0 1111011110 10000100110 1100100000 1101010100 10000101000 1 1101101110 1011001100 1011101010 10000010110 10000100101 1111100110 1100100010 1100100110 1100010100 25.313 42.923 998.72 14623 16 15 15 59 51 3 $GNGGA,151858.00,4333.67817,N,00128.72289,E,1,04,4.08,156.5,M,53.8,M,,*46
13 15 18 59 4333.6785200128.72276159.7ó 00128.72276 159.7 11100000111 111101111111 0 1111011110 10000100100 1100100110 1101011100 10000100000 1 1101101110 1011000010 1011100111 10000011001 10000100110 1111100110 1100100011 1100110010 1100011101 25.313 42.916 998.70 15621 16 15 13 59 50 5 $GNGGA,151859.00,4333.67852,N,00128.72276,E,1,03,4.57,159.7,M,53.8,M,,*46
14 15 19 00 4333.6785600128.72282159.6ó 00128.72282 159.6 11100000111 111101111111 0 1111100111 10000100110 1100100101 1101010011 10000100001 1 1101101110 1011000100 1011100111 10000011110 10000101000 1111101100 1100100101 1100110111 1100100000 25.375 42.908 998.70 16621 17 15 14 60 51 3 $GNGGA,151900.00,4333.67856,N,00128.72282,E,1,03,4.56,159.6,M,53.8,M,,*44
15 15 19 01 4333.6786200128.72312159.5ó 00128.72312 159.5 11100000111 111101111111 0 1111011110 10000100010 1100100010 1101011001 10000011100 1 1101101110 1011000111 1011101010 10000100000 10000100110 1111100110 1100100100 1100110001 1100010111 25.313 43.015 998.69 17619 16 14 14 58 51 4 $GNGGA,151901.00,4333.67862,N,00128.72312,E,1,04,4.07,159.5,M,53.8,M,,*4A
16 15 19 02 4333.6788200128.72206159.5ó 00128.72206 159.5 11100000111 111101111111 0 1111100000 10000100011 1100101000 1101011101 10000100100 1 1101101110 1010111110 1011101010 10000011001 10000100101 1111101001 1100100010 1100111010 1100100000 25.313 43.099 998.69 18619 17 15 14 60 51 3 $GNGGA,151902.00,4333.67882,N,00128.72206,E,1,04,4.07,159.5,M,53.8,M,,*43
17 15 19 03 4333.6788700128.72195159.3ó 00128.72195 159.3 11100000111 111101111111 0 1111100100 10000100001 1100100011 1101011010 10000100110 1 1101101110 1010110111 1011101001 10000010100 10000101000 1111101000 1100100001 1100110001 1100011100 25.313 43.183 998.69 19618 16 15 15 59 51 3 $GNGGA,151903.00,4333.67887,N,00128.72195,E,1,04,4.07,159.3,M,53.8,M,,*48
18 15 19 04 4333.6795400128.72145159.3ó 00128.72145 159.3 11100000111 111101111111 0 1111011010 10000100000 1100100101 1101011101 10000101101 1 1101101110 1010111001 1011101100 10000010001 10000101000 1111101001 1100101001 1100110001 1100011001 25.313 43.000 998.71 20618 16 16 14 59 52 3 $GNGGA,151904.00,4333.67954,N,00128.72145,E,1,05,4.04,159.3,M,53.8,M,,*4F
19 15 19 05 4333.6795600128.72135159.2ó 00128.72135 159.2 11100000111 111101111111 0 1111101000 10000100010 1100100000 1101010110 10000101100 1 1101101110 1010110100 1011101001 10000000110 10000100110 1111100111 1100100011 1100101001 1100001100 25.313 42.870 998.69 21614 17 15 14 60 51 3 $GNGGA,151905.00,4333.67956,N,00128.72135,E,1,04,4.06,159.2,M,53.8,M,,*49
20 15 19 06 4333.6798200128.72133159.2ó 00128.72133 159.2 11100000111 111101111111 0 1111100110 10000100101 1100100000 1101010011 10000110000 1 1101101110 1010110100 1011100111 1111110101 10000100110 1111101011 1100011110 1100101111 1100011110 25.313 42.878 998.70 22615 17 16 14 59 50 4 $GNGGA,151906.00,4333.67982,N,00128.72133,E,1,04,4.06,159.2,M,53.8,M,,*45
21 15 19 07 4333.6798200128.72096159.1ó 00128.72096 159.1 11100000111 111101111111 0 1111101010 10000100110 1100100011 1101010111 10000110111 1 1101101110 1011000001 1011101011 1111110101 10000100110 1111011111 1100011001 1100110110 1100011101 25.375 42.740 998.70 23613 17 14 13 60 50 4 $GNGGA,151907.00,4333.67982,N,00128.72096,E,1,04,4.06,159.1,M,53.8,M,,*49
22 15 19 08 4333.6806800128.72173159.1ó 00128.72173 159.1 11100000111 111101111111 0 1111100000 10000100000 1100011101 1101010100 10000110010 1 1101101110 1011000111 1011101011 10000000010 10000100111 1111101000 1100100011 1100101011 1100010111 25.313 42.664 998.69 24612 16 15 15 59 51 3 $GNGGA,151908.00,4333.68068,N,00128.72173,E,1,04,4.06,159.1,M,53.8,M,,*4E
23 15 19 09 4333.6816800128.72294159.0ó 00128.72294 159.0 11100000111 111101111111 0 1111100111 10000100100 1100011110 1101011010 10000111110 1 1101101110 1011001000 1011101000 10000001010 10000100111 1111101010 1100100101 1100110000 1100011101 25.375 42.618 998.70 25611 16 16 14 59 52 3 $GNGGA,151909.00,4333.68168,N,00128.72294,E,1,04,4.06,159.0,M,53.8,M,,*45
24 15 19 10 4333.6816700128.72303158.9ó 00128.72303 158.9 11100000111 111101111111 0 1111100110 10000100110 1100100100 1101011110 10000111011 1 1101101110 1011001101 1011101011 10000011010 10000100111 1111100110 1100100001 1100101111 1100010110 25.313 42.580 998.69 26610 17 15 14 60 51 3 $GNGGA,151910.00,4333.68167,N,00128.72303,E,1,04,4.06,158.9,M,53.8,M,,*45
25 15 19 11 4333.6822100128.72298158.9ó 00128.72298 158.9 11100000111 111101111111 0 1111100111 10000100011 1100100000 1101011100 10000111000 1 1101101110 1011001001 1011101000 10000100001 10000101001 1111100001 1100011101 1100110011 1100010110 25.313 42.557 998.69 27609 16 16 14 59 51 4 $GNGGA,151911.00,4333.68221,N,00128.72298,E,1,04,4.05,158.9,M,53.8,M,,*45
26 15 19 12 4333.6820500128.72230158.9ó 00128.72230 158.9 11100000111 111101111111 0 1111100110 10000100100 1100100000 1101011001 10000111001 1 1101101110 1011001011 1011101100 10000101010 10000101000 1111100001 1100100010 1100111000 1100100010 25.313 42.519 998.68 28606 17 15 14 60 51 3 $GNGGA,151912.00,4333.68205,N,00128.72230,E,1,04,4.05,158.9,M,53.8,M,,*42
27 15 19 13 4333.6824200128.72263158.9ó 00128.72263 158.9 11100000111 111101111111 0 1111101000 10000100100 1100100010 1101011000 10001000101 1 1101101101 1011000100 1011101000 10000100111 10000100110 1111100100 1100100110 1100110110 1100100000 25.313 42.496 998.69 29607 16 14 14 59 50 4 $GNGGA,151913.00,4333.68242,N,00128.72263,E,1,04,4.05,158.9,M,53.8,M,,*46
28 15 19 14 4333.6823100128.72244159.0ó 00128.72244 159.0 11100000111 111101111111 0 1111101101 10000100110 1100100000 1101011101 10001010000 1 1101101110 1010111101 1011101010 10000011111 10000100101 1111100110 1100100110 1100111000 1100011111 25.313 42.481 998.68 30605 17 15 13 59 51 4 $GNGGA,151914.00,4333.68231,N,00128.72244,E,1,04,4.05,159.0,M,53.8,M,,*48
29 15 19 15 4333.6819200128.72230159.0ó 00128.72230 159.0 11100000111 111101111111 0 1111101110 10000100101 1100011100 1101010100 10001000010 1 1101101110 1010110100 1011101000 10000010100 10000101001 1111101001 1100100000 1100111001 1100011000 25.313 42.512 998.67 31604 16 14 14 59 51 4 $GNGGA,151915.00,4333.68192,N,00128.72230,E,1,04,4.05,159.0,M,53.8,M,,*40
30 15 19 16 4333.6821300128.72188159.0ó 00128.72188 159.0 11100000111 111101111111 0 1111101100 10000100101 1100100011 1101011101 10001001010 1 1101101110 1010101101 1011100111 10000001011 10000101011 1111101001 1100100100 1100110111 1100011000 25.313 42.679 998.68 32604 16 15 13 58 52 4 $GNGGA,151916.00,4333.68213,N,00128.72188,E,1,04,4.04,159.0,M,53.8,M,,*48
31 15 19 17 4333.6831500128.72274159.1ó 00128.72274 159.1 11100000111 111101111111 0 1111110000 10000101000 1100011101 1101011011 10001001111 1 1101101110 1010101000 1011101011 1111110010 10000100111 1111101001 1100100011 1100111010 1100100010 25.375 42.779 998.67 33603 17 15 14 60 51 3 $GNGGA,151917.00,4333.68315,N,00128.72274,E,1,04,4.04,159.1,M,53.8,M,,*4F
32 15 19 18 4333.6818800128.72163159.1ó 00128.72163 159.1 11000000000 0 0 1111101101 10000100100 1100011110 1101010111 10001001011 1 1101101110 1010100111 1011101011 1111100000 10000100111 1111110000 1100100110 1100111011 1100100101 25.375 42.855 998.67 34601 16 15 15 59 51 3 $GNGGA,151918.00,4333.68188,N,00128.72163,E,1,04,4.04,159.1,M,53.8,M,,*43
