id HH MM SS longitude latitude altitude adc_1_ch0 adc_1_ch1 adc_1_ch2 adc_1_ch3 adc_1_ch4 adc_1_ch5 adc_1_ch6 adc_1_ch7 adc_1_ch8 adc_2_ch0 adc_2_ch1 adc_2_ch2 adc_2_ch3 adc_2_ch4 adc_2_ch5 adc_2_ch6 adc_2_ch7 adc_2_ch8 temp hum pres t_prog t_gps t_split t_adc t_temp t_hum t_pres trame_gga
1 15 19 36 4333.6670000128.72830154.2ÿ 00128.72830 154.2 111111110111 111101111111 0 1111100110 10000100110 1100100011 1101011011 10001000010 1 1101101110 1010101100 1011101010 1111001010 10000100111 1111110101 1100100110 1100101100 1100010110 25.313 42.618 795.83 3543 17 16 15 59 50 4 $GNGGA,151936.00,4333.66700,N,00128.72830,E,1,05,1.67,154.2,M,53.8,M,,*47
2 15 19 37 4333.6674000128.72825154.1ÿ 00128.72825 154.1 111111110111 111101111111 0 1111100010 10000100100 1100011111 1101010101 10001000010 1 1101101110 1010101010 1011101001 1111000110 10000100101 1111101111 1100100000 1100101111 1100011010 25.313 43.007 998.65 4541 19 14 13 60 50 4 $GNGGA,151937.00,4333.66740,N,00128.72825,E,1,05,1.67,154.1,M,53.8,M,,*45
3 15 19 38 4333.6676700128.72875154.0ÿ 00128.72875 154.0 111111110111 111101111111 0 1111100101 10000100111 1100100100 1101011001 10000111100 1 1101101110 1010110000 1011100110 1111001001 10000100110 1111101111 1100100011 1100101100 1100010100 25.250 43.862 998.66 5540 17 15 15 59 51 3 $GNGGA,151938.00,4333.66767,N,00128.72875,E,1,05,1.67,154.0,M,53.8,M,,*4B
4 15 19 39 4333.6671400128.72805153.9ÿ 00128.72805 153.9 111111110111 111101111111 0 1111101001 10000100110 1100100011 1101010111 10001000000 1 1101101110 1011000000 1011101001 1111011000 10000100111 1111110001 1100100111 1100110011 1100011110 25.313 43.984 998.67 6538 18 15 13 58 52 4 $GNGGA,151939.00,4333.66714,N,00128.72805,E,1,04,3.73,153.9,M,53.8,M,,*41
5 15 19 40 4333.6677000128.72804153.8ÿ 00128.72804 153.8 0 0 0 1111100101 10000100110 1100011111 1101010111 10000111100 1 1101101110 1011000100 1011101001 1111101000 10000100110 1111110010 1100100111 1100101100 1100011010 25.313 43.763 998.66 7537 18 14 14 60 51 3 $GNGGA,151940.00,4333.66770,N,00128.72804,E,1,04,3.73,153.8,M,53.8,M,,*4D
6 15 19 41 4333.6683600128.72806153.7ÿ 00128.72806 153.7 111111110111 111101111111 0 1111100010 10000100010 1100100011 1101011100 10000111101 1 1101101110 1011000011 1011101000 1111101110 10000100100 1111100101 1100100010 1100110000 1100011001 25.313 43.572 998.66 8535 18 15 14 59 50 4 $GNGGA,151941.00,4333.66836,N,00128.72806,E,1,04,3.73,153.7,M,53.8,M,,*4C
7 15 19 42 4333.6691800128.72878154.7ÿ 00128.72878 154.7 111111110111 111101111111 0 1111011111 10000100010 1100100101 1101011101 10000110100 1 1101101110 1011001000 1011101001 10000000010 10000100111 1111100111 1100101001 1100110110 1100100000 25.313 43.305 998.67 9536 18 15 14 60 51 3 $GNGGA,151942.00,4333.66918,N,00128.72878,E,1,05,3.43,154.7,M,53.8,M,,*4E
8 15 19 43 4333.6708400128.73062155.4ÿ 00128.73062 155.4 111111110111 111101111111 0 1111100111 10000100111 1100100000 1101011000 10000110010 1 1101101110 1011001100 1011100111 10000001110 10000100111 1111100011 1100100001 1100101110 1100010110 25.313 43.076 998.66 10534 18 14 14 58 51 4 $GNGGA,151943.00,4333.67084,N,00128.73062,E,1,05,3.43,155.4,M,53.8,M,,*42
9 15 19 44 4333.6723800128.73257156.2ÿ 00128.73257 156.2 111111110111 111101111111 0 1111100010 10000100101 1100100011 1101010100 10000101101 1 1101101110 1011000101 1011101001 10000011001 10000100101 1111100111 1100100000 1100110100 1100011010 25.313 42.931 998.66 11534 18 16 14 59 52 3 $GNGGA,151944.00,4333.67238,N,00128.73257,E,1,05,3.43,156.2,M,53.8,M,,*41
10 15 19 45 4333.6727800128.73445156.9ÿ 00128.73445 156.9 111111110111 111101111111 0 1111011111 10000100101 1100011111 1101011010 10000110001 1 1101101110 1011000110 1011101110 10000100000 10000100101 1111100011 1100100010 1100101000 1100010100 25.313 42.916 998.65 12531 18 15 14 60 51 3 $GNGGA,151945.00,4333.67278,N,00128.73445,E,1,05,3.43,156.9,M,53.8,M,,*4A
11 15 19 46 4333.6731900128.73570157.6ÿ 00128.73570 157.6 111111110111 111101111111 0 1111100101 10000101000 1100100001 1101010111 10000101101 1 1101101110 1010111101 1011101001 10000011101 10000100101 1111100100 1100100010 1100101111 1100011101 25.313 42.893 998.66 13531 18 15 13 59 50 5 $GNGGA,151946.00,4333.67319,N,00128.73570,E,1,05,3.43,157.6,M,53.8,M,,*46
12 15 19 47 4333.6737900128.73625158.2ÿ 00128.73625 158.2 111111110111 111101111111 0 1111100010 10000100111 1100100001 1101010110 10000101111 1 1101101110 1010110110 1011101100 10000010001 10000100110 1111100100 1100100100 1100111011 1100010111 25.375 42.817 998.67 14530 18 15 14 60 51 3 $GNGGA,151947.00,4333.67379,N,00128.73625,E,1,05,3.43,158.2,M,53.8,M,,*49
13 15 19 48 4333.6747900128.73752158.7ÿ 00128.73752 158.7 111111110111 111101111111 0 1111011110 10000100011 1100011110 1101001111 10000101110 1 1101101110 1010101110 1011101010 10000001100 10000101000 1111100101 1100100001 1100110011 1100010101 25.313 42.817 998.67 15528 18 14 14 58 51 4 $GNGGA,151948.00,4333.67479,N,00128.73752,E,1,05,3.43,158.7,M,53.8,M,,*45
14 15 19 49 4333.6742600128.73766159.2ÿ 00128.73766 159.2 111111110111 111101111111 0 1111011100 10000100011 1100100010 1101010110 10000101110 1 1101101110 1010101011 1011101001 1111111100 10000100110 1111101011 1100100101 1100110001 1100011000 25.313 42.901 998.67 16528 18 15 14 60 51 3 $GNGGA,151949.00,4333.67426,N,00128.73766,E,1,05,3.43,159.2,M,53.8,M,,*4D
15 15 19 50 4333.6754700128.73778159.6ÿ 00128.73778 159.6 111111110111 111101111111 0 1111100001 10000100011 1100011111 1101010111 10000110100 1 1101101110 1010101001 1011101010 1111101110 10000100111 1111100111 1100100000 1100110001 1100011000 25.375 42.847 998.67 17527 17 15 15 59 51 3 $GNGGA,151950.00,4333.67547,N,00128.73778,E,1,05,3.43,159.6,M,53.8,M,,*48
16 15 19 51 4333.6761800128.73893159.9ÿ 00128.73893 159.9 111111110111 111101111111 0 1111100101 10000100011 1100100100 1101011011 10000110110 1 1101101110 1010101001 1011101010 1111100100 10000100110 1111101101 1100100001 1100110101 1100011101 25.313 42.756 998.68 18526 18 15 13 59 51 4 $GNGGA,151951.00,4333.67618,N,00128.73893,E,1,05,3.43,159.9,M,53.8,M,,*45
17 15 19 52 4333.6766000128.74010160.2ÿ 00128.74010 160.2 0 0 0 1111011111 10000100000 1100100101 1101011101 10000110111 1 1101101110 1010100111 1011101000 1111010011 10000100101 1111101111 1100100110 1100101110 1100011000 25.375 42.702 998.68 19523 18 14 13 59 51 4 $GNGGA,151952.00,4333.67660,N,00128.74010,E,1,05,3.43,160.2,M,53.8,M,,*4C
18 15 19 53 4333.6775500128.74197160.5ÿ 00128.74197 160.5 111111110111 111101111111 0 1111101110 10000100110 1100100011 1101011000 10000111111 1 1101101110 1010101010 1011101100 1111010001 10000101000 1111101000 1100011111 1100110001 1100011111 25.313 42.695 998.68 20524 18 15 14 58 51 4 $GNGGA,151953.00,4333.67755,N,00128.74197,E,1,05,3.43,160.5,M,53.8,M,,*43
19 15 19 54 4333.6786700128.74336160.8ÿ 00128.74336 160.8 111111110111 111101111111 0 1111101111 10000100110 1100100010 1101011011 10000111000 1 1101101110 1010100111 1011101000 1111001010 10000100111 1111110000 1100100110 1100101000 1100100000 25.313 42.664 998.67 21523 18 15 14 60 51 3 $GNGGA,151954.00,4333.67867,N,00128.74336,E,1,05,3.43,160.8,M,53.8,M,,*4E
20 15 19 55 4333.6794100128.74439161.1ÿ 00128.74439 161.1 111111110111 111101111111 0 1111100101 10000100100 1100011110 1101011010 10000110101 1 1101101110 1010101001 1011101001 1111000110 10000100110 1111101110 1100100000 1100101011 1100011000 25.313 42.634 998.66 22522 17 15 15 59 51 3 $GNGGA,151955.00,4333.67941,N,00128.74439,E,1,05,3.43,161.1,M,53.8,M,,*4A
21 15 19 56 4333.6793100128.74520161.3ÿ 00128.74520 161.3 111111110111 111101111111 0 1111100000 10000100010 1100011011 1101001111 10001000011 1 1101101110 1010101100 1011101001 1111000100 10000101000 1111110001 1100100010 1100101111 1100010110 25.250 42.626 998.66 23522 19 15 13 58 52 4 $GNGGA,151956.00,4333.67931,N,00128.74520,E,1,05,3.43,161.3,M,53.8,M,,*45
22 15 19 57 4333.6802300128.74599161.6ÿ 00128.74599 161.6 111111110111 111101111111 0 1111100111 10000100010 1100100011 1101011101 10000110110 1 1101101110 1010101111 1011101011 1111001100 10000101000 1111101100 1100011101 1100110110 1100100101 25.250 42.634 998.65 24520 18 15 14 60 51 3 $GNGGA,151957.00,4333.68023,N,00128.74599,E,1,05,3.43,161.6,M,53.8,M,,*46
23 15 19 58 4333.6809000128.74743161.7ÿ 00128.74743 161.7 0 0 0 1111101010 10000100111 1100100101 1101100000 10000110111 1 1101101110 1010111101 1011101011 1111010000 10000100111 1111110010 1100100101 1100101001 1100010100 25.313 42.717 998.65 25520 17 16 14 59 51 4 $GNGGA,151958.00,4333.68090,N,00128.74743,E,1,05,3.43,161.7,M,53.8,M,,*45
24 15 19 59 4333.6820700128.74799162.0ÿ 00128.74799 162.0 111111110111 111101111111 0 1111101000 10000100100 1100100010 1101011101 10000110011 1 1101101110 1010111111 1011101001 1111011100 10000100111 1111101100 1100100001 1100110000 1100011001 25.250 42.710 998.66 26518 18 14 14 60 51 3 $GNGGA,151959.00,4333.68207,N,00128.74799,E,1,05,3.43,162.0,M,53.8,M,,*4B
25 15 20 00 4333.6823700128.74621162.6ÿ 00128.74621 162.6 0 0 0 1111101010 10000100011 1100100100 1101011000 10000110011 1 1101101110 1010111011 1011100100 1111101001 10000100101 1111101010 1100100000 1100101011 1100010110 25.313 42.695 998.67 27517 17 14 14 58 51 4 $GNGGA,152000.00,4333.68237,N,00128.74621,E,1,06,2.16,162.6,M,53.8,M,,*48
26 15 20 01 4333.6824600128.74544163.0ÿ 00128.74544 163.0 111111110111 111101111111 0 1111100011 10000100011 1100101001 1101011110 10000101100 1 1101101110 1011000001 1011101001 1111110111 10000100101 1111100101 1100011111 1100110010 1100011010 25.313 42.695 998.67 28516 19 14 13 60 50 4 $GNGGA,152001.00,4333.68246,N,00128.74544,E,1,06,2.16,163.0,M,53.8,M,,*48
27 15 20 02 4333.6828100128.74445163.5ÿ 00128.74445 163.5 111111110111 111101111111 0 1111100000 10000100000 1100011110 1101011000 10000110001 1 1101101110 1011000001 1011101001 1111111101 10000101000 1111100111 1100011110 1100101101 1100010001 25.313 42.771 998.67 29515 17 14 15 59 51 3 $GNGGA,152002.00,4333.68281,N,00128.74445,E,1,06,2.16,163.5,M,53.8,M,,*45
28 15 20 03 4333.6838800128.74609163.8ÿ 00128.74609 163.8 111111110111 111101111111 0 1111101000 10000100100 1100100100 1101100000 10000101110 1 1101101110 1011000110 1011101011 10000000101 10000100111 1111100111 1100100100 1100101011 1100011010 25.250 42.946 998.69 30512 17 16 14 59 51 4 $GNGGA,152003.00,4333.68388,N,00128.74609,E,1,05,3.43,163.8,M,53.8,M,,*49
29 15 20 04 4333.6844500128.74703164.1ÿ 00128.74703 164.1 111111110111 111101111111 0 1111100110 10000100100 1100100100 1101011111 10000110001 1 1101101110 1011000100 1011100111 10000010011 10000101000 1111100001 1100100000 1100101010 1100011000 25.250 43.046 998.67 31512 19 14 13 59 51 4 $GNGGA,152004.00,4333.68445,N,00128.74703,E,1,05,3.43,164.1,M,53.8,M,,*4D
30 15 20 05 4333.6854100128.74711164.5ÿ 00128.74711 164.5 111111110111 111101111111 0 1111100100 10000100001 1100100011 1101011000 10000101101 1 1101101110 1011000111 1011101000 10000010111 10000100111 1111100110 1100100000 1100101011 1100010100 25.313 43.114 998.67 32512 17 16 15 59 51 3 $GNGGA,152005.00,4333.68541,N,00128.74711,E,1,05,3.43,164.5,M,53.8,M,,*4E
31 15 20 06 4333.6859500128.74829164.7ÿ 00128.74829 164.7 111111110111 111101111111 0 1111100100 10000100011 1100100010 1101011001 10000101110 1 1101101110 1011000011 1011101001 10000011110 10000100111 1111100101 1100100000 1100101010 1100011000 25.313 43.191 998.67 33511 18 15 14 60 51 3 $GNGGA,152006.00,4333.68595,N,00128.74829,E,1,05,3.43,164.7,M,53.8,M,,*42
32 15 20 07 4333.6863500128.74839165.0ÿ 00128.74839 165.0 111111110111 111101111111 0 1111100111 10000100111 1100100010 1101011100 10000101011 1 1101101110 1011000001 1011101010 10000100010 10000100100 1111100100 1100100001 1100100111 1100010100 25.250 43.145 998.67 34510 17 15 15 59 50 4 $GNGGA,152007.00,4333.68635,N,00128.74839,E,1,06,2.16,165.0,M,53.8,M,,*4F
33 15 20 08 4333.6864200128.74774165.4ÿ 00128.74774 165.4 111111110111 111101111111 0 1111100011 10000100100 1100100101 1101010101 10000101000 1 1101101110 1010111100 1011101010 10000010111 10000100111 1111100011 1100100100 1100111000 1100100101 25.313 43.023 998.67 35509 18 15 13 58 52 4 $GNGGA,152008.00,4333.68642,N,00128.74774,E,1,06,2.16,165.4,M,53.8,M,,*42
34 15 20 09 4333.6866000128.74636165.9ÿ 00128.74636 165.9 111111110111 111101111111 0 1111101000 10000100111 1100100001 1101011001 10000101010 1 1101101110 1010111000 1011101011 10000010101 10000100111 1111011100 1100011111 1100110110 1100100001 25.313 42.923 998.66 36508 19 15 13 60 50 4 $GNGGA,152009.00,4333.68660,N,00128.74636,E,1,06,2.16,165.9,M,53.8,M,,*49
35 15 20 10 4333.6871000128.74701166.3ÿ 00128.74701 166.3 111111110111 111101111111 0 1111101111 10000101000 1100011111 1101010110 10000101001 1 1101101110 1010110101 1011101100 10000000011 10000100111 1111100110 1100100010 1100110110 1100011100 25.313 42.870 998.66 37507 18 15 13 58 51 5 $GNGGA,152010.00,4333.68710,N,00128.74701,E,1,06,2.16,166.3,M,53.8,M,,*4B
36 15 20 11 4333.6876500128.74668166.8ÿ 00128.74668 166.8 111111110111 111101111111 0 1111100101 10000100011 1100011111 1101010111 10000100111 1 1101101110 1010101011 1011101010 1111111010 10000100110 1111101011 1100100010 1100101110 1100100001 25.313 42.847 998.67 38505 19 14 13 60 50 4 $GNGGA,152011.00,4333.68765,N,00128.74668,E,1,06,2.16,166.8,M,53.8,M,,*4D
37 15 20 12 4333.6872800128.74476167.3ÿ 00128.74476 167.3 111111110111 111101111111 0 1111101010 10000100110 1100100010 1101011110 10000110110 1 1101101110 1010101100 1011101011 1111101101 10000100111 1111101011 1100100101 1100110100 1100100000 25.250 42.832 998.66 39505 17 15 15 59 51 3 $GNGGA,152012.00,4333.68728,N,00128.74476,E,1,06,2.16,167.3,M,53.8,M,,*40
38 15 20 13 4333.6877400128.74405168.0ÿ 00128.74405 168.0 111111110111 111101111111 0 1111101110 10000100011 1100011100 1101010111 10000111010 1 1101101110 1010101010 1011101000 1111101000 10000100111 1111101001 1100011110 1100110000 1100011010 25.313 42.817 998.67 40505 19 14 13 59 51 4 $GNGGA,152013.00,4333.68774,N,00128.74405,E,1,06,2.16,168.0,M,53.8,M,,*40
