id HH MM SS longitude latitude altitude adc_1_ch0 adc_1_ch1 adc_1_ch2 adc_1_ch3 adc_1_ch4 adc_1_ch5 adc_1_ch6 adc_1_ch7 adc_1_ch8 adc_2_ch0 adc_2_ch1 adc_2_ch2 adc_2_ch3 adc_2_ch4 adc_2_ch5 adc_2_ch6 adc_2_ch7 adc_2_ch8 temp hum pres t_prog t_gps t_split t_adc t_temp t_hum t_pres trame_gga
1 15 20 30 4333.6882400128.73296167.8ÿ 00128.73296 167.8 1100010000 0 0 111110011 1000011100 110010000 110101100 1000010000 1 1101101101 1010110000 1011101101 1111100010 10000101000 1111101111 1100100010 1100101011 1100011011 25.250 43.107 795.83 3158 17 15 14 58 51 4 $GNGGA,152030.00,4333.68824,N,00128.73296,E,1,03,7.91,167.8,M,53.8,M,,*48
2 15 20 31 4333.6876800128.73162167.8ÿ 00128.73162 167.8 1100010111 111110000000 0 111101110 1000010010 110010001 110101110 1000010001 1 1101101110 1010101110 1011101011 1111010101 10000100100 1111101101 1100100100 1100110001 1100011101 25.250 43.023 998.67 4157 17 15 14 60 50 4 $GNGGA,152031.00,4333.68768,N,00128.73162,E,1,03,7.91,167.8,M,53.8,M,,*46
3 15 20 32 4333.6878100128.73111167.9ÿ 00128.73111 167.9 1100010000 0 0 111110000 1000011100 110010000 110101101 1000001110 0 1101101110 1010101011 1011100111 1111011000 10000100110 1111101010 1100100100 1100111010 1100100001 25.250 42.969 998.67 5154 17 14 14 58 51 4 $GNGGA,152032.00,4333.68781,N,00128.73111,E,1,04,3.63,167.9,M,53.8,M,,*49
4 15 20 33 4333.6873400128.72977167.9ÿ 00128.72977 167.9 1100010111 111110000000 0 111101111 1000010010 110010001 110101101 1000010010 1 1101101110 1010101101 1011101010 1111010101 10000100111 1111101111 1100100101 1100101111 1100011100 25.250 42.923 998.66 6155 17 16 14 59 52 3 $GNGGA,152033.00,4333.68734,N,00128.72977,E,1,04,3.63,167.9,M,53.8,M,,*4F
5 15 20 34 4333.6867200128.72862168.0ÿ 00128.72862 168.0 1100010111 111110000000 0 111111100 1000010011 110010010 110101110 1000010000 1 1101101110 1010110000 1011101011 1111010101 10000100110 1111100101 1100100000 1100101111 1100011000 25.313 42.908 998.67 7155 18 15 14 60 51 3 $GNGGA,152034.00,4333.68672,N,00128.72862,E,1,04,3.63,168.0,M,53.8,M,,*48
6 15 20 35 4333.6859200128.72686168.1ÿ 00128.72686 168.1 1100010000 0 0 111110001 1000010010 110010000 110100010 1000010010 1 1101101110 1010110010 1011101011 1111010100 10000100110 1111101111 1100011111 1100110010 1100011101 25.313 42.885 998.67 8154 17 15 13 58 51 5 $GNGGA,152035.00,4333.68592,N,00128.72686,E,1,04,3.63,168.1,M,53.8,M,,*41
7 15 20 36 4333.6853500128.72570168.1ÿ 00128.72570 168.1 1100010000 0 0 111111111 1000011100 110000011 110100001 1000010000 1 1101101110 1010101110 1011101010 1111011001 10000101000 1111101101 1100100011 1100101101 1100010110 25.375 42.870 998.66 9152 18 14 14 59 51 3 $GNGGA,152036.00,4333.68535,N,00128.72570,E,1,03,7.90,168.1,M,53.8,M,,*4A
8 15 20 37 4333.6852600128.72549168.2ÿ 00128.72549 168.2 1100010000 0 0 111111100 1000011100 110001111 110100011 1000010000 1 1101101110 1010101011 1011101000 1111011001 10000101000 1111100111 1100100001 1100101011 1100001101 25.313 42.893 998.65 10151 17 14 14 59 50 4 $GNGGA,152037.00,4333.68526,N,00128.72549,E,1,04,3.63,168.2,M,53.8,M,,*4F
9 15 20 38 4333.6855400128.72539168.3ÿ 00128.72539 168.3 1100010111 111110000000 0 111110010 1000010010 110010001 110101100 1000001110 1 1101101110 1010101110 1011101000 1111100000 10000101000 1111101100 1100100010 1100101001 1100010110 25.313 42.885 998.65 11150 18 16 14 59 52 3 $GNGGA,152038.00,4333.68554,N,00128.72539,E,1,04,3.63,168.3,M,53.8,M,,*43
10 15 20 39 4333.6858000128.72598168.3ÿ 00128.72598 168.3 1100010111 111110000000 0 111110011 1000010011 110001101 110100011 1000001101 1 1101101110 1010110000 1011101001 1111011101 10000101000 1111101011 1100011110 1100100010 1011111011 25.313 43.137 998.66 12148 17 15 15 59 51 3 $GNGGA,152039.00,4333.68580,N,00128.72598,E,1,04,3.63,168.3,M,53.8,M,,*40
11 15 20 40 4333.6857800128.72620168.4ÿ 00128.72620 168.4 1100010111 111110000000 0 111110010 1000010010 110010000 110101100 1000000000 1 1101101110 1010110001 1011101001 1111100100 10000101011 1111110010 1100100100 1100011110 1100000100 25.313 45.037 998.64 13148 17 16 13 59 50 5 $GNGGA,152040.00,4333.68578,N,00128.72620,E,1,04,3.63,168.4,M,53.8,M,,*4E
12 15 20 41 4333.6854100128.72629168.4ÿ 00128.72629 168.4 1100010111 111110000000 0 111110010 1000011100 110010000 110101101 1000000011 1 1101101110 1010101110 1011101001 1111010111 10000100101 1111101011 1100100011 1100110011 1100010111 25.250 46.845 998.64 14146 18 14 13 60 50 4 $GNGGA,152041.00,4333.68541,N,00128.72629,E,1,04,3.63,168.4,M,53.8,M,,*4C
13 15 20 42 4333.6866300128.72866168.5ÿ 00128.72866 168.5 1100010000 0 0 111110010 1000011101 110010000 110101110 1000000001 1 1101101110 1010110100 1011101100 1111010001 10000100110 1111100100 1100100000 1100110001 1100100000 25.250 48.798 998.64 15145 17 15 15 59 51 3 $GNGGA,152042.00,4333.68663,N,00128.72866,E,1,04,3.64,168.5,M,53.8,M,,*4F
14 15 20 43 4333.6862500128.72864168.5ÿ 00128.72864 168.5 1100010000 0 0 111101110 1000010011 110010001 110101110 1000000000 1 1101101111 1010111000 1011101011 1111011001 10000101000 1111101010 1100100010 1100101000 1100010010 25.313 49.813 998.64 16143 18 14 14 60 51 3 $GNGGA,152043.00,4333.68625,N,00128.72864,E,1,04,3.64,168.5,M,53.8,M,,*4E
15 15 20 44 4333.6869800128.73081168.6ÿ 00128.73081 168.6 1100010000 0 0 111111110 1000011101 110010010 110101101 1000001100 0 1101110000 1010111010 1011101101 1111100001 10000101000 1111101001 1100100100 1100110001 1100011110 25.250 48.256 998.65 17143 17 15 15 59 51 3 $GNGGA,152044.00,4333.68698,N,00128.73081,E,1,04,3.64,168.6,M,53.8,M,,*4E
16 15 20 45 4333.6871400128.73140168.6ÿ 00128.73140 168.6 1100010111 111110000000 0 111101111 1000011101 110010010 110101110 1000001111 1 1101110000 1011000111 1011101011 1111110000 10000100110 1111101011 1100100010 1100111010 1100100001 25.375 46.418 998.65 18143 17 15 13 58 52 4 $GNGGA,152045.00,4333.68714,N,00128.73140,E,1,05,1.81,168.6,M,53.8,M,,*4E
17 15 20 46 4333.6872400128.73050168.6ÿ 00128.73050 168.6 1100010111 111110000000 0 111111101 1000011100 110010001 110101101 1000000000 1 1101110001 1011000111 1011101001 1111111101 10000100110 1111101000 1100100001 1100101111 1100010111 25.375 45.189 998.64 19141 19 14 13 59 51 4 $GNGGA,152046.00,4333.68724,N,00128.73050,E,1,05,1.81,168.6,M,53.8,M,,*4E
18 15 20 47 4333.6873100128.73091168.6ÿ 00128.73091 168.6 1100010111 111110000000 0 111111100 1000011101 110001111 110101100 1000000010 1 1101110000 1011000111 1011101011 10000001100 10000100111 1111100101 1100100001 1100101111 1100010011 25.375 44.526 998.66 20141 17 16 15 59 51 3 $GNGGA,152047.00,4333.68731,N,00128.73091,E,1,05,1.81,168.6,M,53.8,M,,*46
19 15 20 48 4333.6869000128.72972168.6ÿ 00128.72972 168.6 1100100000 0 0 111111101 1000011101 110010010 110101111 1000000000 1 1101110000 1011000110 1011101001 10000001011 10000100110 1111011110 1100100010 1100110010 1100011100 25.375 44.404 998.66 21139 18 14 13 59 51 4 $GNGGA,152048.00,4333.68690,N,00128.72972,E,1,05,1.81,168.6,M,53.8,M,,*46
20 15 20 49 4333.6879900128.73009168.6ÿ 00128.73009 168.6 1100100000 0 0 111110001 1000010010 110010010 110101111 1000000010 1 1101110000 1011000110 1011101000 10000011110 10000101001 1111101001 1100100111 1100111000 1100011110 25.375 43.900 998.65 22138 17 15 15 59 51 3 $GNGGA,152049.00,4333.68799,N,00128.73009,E,1,05,1.81,168.6,M,53.8,M,,*4B
21 15 20 50 4333.6892800128.73162168.7ÿ 00128.73162 168.7 1100100111 111110000000 0 111101110 1000010001 110010011 110101101 1000000001 1 1101110000 1011000000 1011101000 10000100000 10000101000 1111101010 1100100111 1100111001 1100011111 25.375 43.526 998.65 23136 17 16 14 59 52 3 $GNGGA,152050.00,4333.68928,N,00128.73162,E,1,05,1.81,168.7,M,53.8,M,,*4A
22 15 20 51 4333.6908100128.73390168.7ÿ 00128.73390 168.7 1100100000 0 0 111101110 1000010001 110010010 110101110 1000001111 1 1101110000 1011000010 1011101001 10000100010 10000101000 1111100101 1100100011 1100111001 1100010110 25.313 43.137 998.64 24136 17 15 14 60 50 4 $GNGGA,152051.00,4333.69081,N,00128.73390,E,1,05,1.81,168.7,M,53.8,M,,*4F
23 15 20 52 4333.6906600128.73390168.8ÿ 00128.73390 168.8 1100100000 0 0 111110010 1000010010 110010001 110101110 1000001111 1 1101110000 1010111011 1011100111 10000100000 10000101010 1111100101 1100100001 1100110111 1100100100 25.375 42.893 998.64 25135 17 15 13 59 50 5 $GNGGA,152052.00,4333.69066,N,00128.73390,E,1,04,2.94,168.8,M,53.8,M,,*4C
24 15 20 53 4333.6912300128.73249168.7ÿ 00128.73249 168.7 1100100000 0 0 111111100 1000011100 110001110 110101100 1000001100 1 1101110000 1010111100 1011101100 10000010100 10000101001 1111100001 1100011110 1100111000 1100100000 25.375 42.717 998.64 26134 18 15 14 60 51 3 $GNGGA,152053.00,4333.69123,N,00128.73249,E,1,04,2.94,168.7,M,53.8,M,,*47
25 15 20 54 4333.6905100128.73062168.7ÿ 00128.73062 168.7 1100100000 0 0 111111101 1000011100 110001111 110101100 1000000001 1 1101101111 1010111011 1011101100 10000001111 10000101001 1111100110 1100100011 1100111001 1100011111 25.375 42.588 998.64 27132 17 15 15 59 51 3 $GNGGA,152054.00,4333.69051,N,00128.73062,E,1,04,2.94,168.7,M,53.8,M,,*4F
26 15 20 55 4333.6904500128.72984168.8ÿ 00128.72984 168.8 1100100000 0 0 111110000 1000011101 110001101 110100001 1000001101 1 1101101111 1010111101 1011101100 10000010000 10000101010 1111100100 1100011110 1100101111 1100010111 25.375 42.496 998.64 28132 17 16 14 60 51 3 $GNGGA,152055.00,4333.69045,N,00128.72984,E,1,04,2.95,168.8,M,53.8,M,,*45
27 15 20 56 4333.6892300128.72733168.7ÿ 00128.72733 168.7 1100100000 0 0 111110000 1000011101 110010000 110101101 1000000000 1 1101101111 1010110111 1011101010 10000001010 10000101001 1111100101 1100011110 1100110000 1100011100 25.313 42.428 998.64 29131 17 14 14 59 50 4 $GNGGA,152056.00,4333.68923,N,00128.72733,E,1,04,2.95,168.7,M,53.8,M,,*43
28 15 20 57 4333.6889400128.72613168.7ÿ 00128.72613 168.7 1100100000 0 0 111111110 1000011110 110010000 110101100 1000001100 1 1101101111 1010111000 1011101100 10000000100 10000101010 1111100101 1100100100 1100101110 1100011010 25.313 42.374 998.64 30131 17 15 13 58 52 4 $GNGGA,152057.00,4333.68894,N,00128.72613,E,1,04,2.95,168.7,M,53.8,M,,*4C
29 15 20 58 4333.6887100128.72590168.8ÿ 00128.72590 168.8 1100100000 0 0 111110010 1000010011 110001101 110100001 1000000010 1 1101101111 1010110000 1011101001 1111110110 10000100101 1111100100 1100011110 1100111000 1100100001 25.313 42.382 998.63 31129 18 14 13 60 50 4 $GNGGA,152058.00,4333.68871,N,00128.72590,E,1,04,2.95,168.8,M,53.8,M,,*4F
30 15 20 59 4333.6892600128.72705169.3ÿ 00128.72705 169.3 1100100000 0 0 111110001 1000011101 110001111 110100011 1000000001 1 1101101111 1010110000 1011101010 1111110101 10000100111 1111101011 1100100100 1100101110 1100011111 25.375 42.389 998.64 32129 17 16 15 59 51 3 $GNGGA,152059.00,4333.68926,N,00128.72705,E,1,05,1.81,169.3,M,53.8,M,,*4E
31 15 21 00 4333.6902000128.72808169.8ÿ 00128.72808 169.8 1100100000 0 0 111110010 1000011110 110001101 110100000 1000001101 1 1101101111 1010101010 1011100111 1111101100 10000100111 1111100111 1100100001 1100110010 1100011010 25.375 42.344 998.64 33128 17 15 14 60 51 3 $GNGGA,152100.00,4333.69020,N,00128.72808,E,1,05,1.81,169.8,M,53.8,M,,*44
32 15 21 01 4333.6908800128.72913170.4ÿ 00128.72913 170.4 1100100000 0 0 111111111 1000011110 110010000 110101100 1000001111 1 1101101111 1010101110 1011101011 1111100011 10000100111 1111101100 1100100001 1100110011 1100010100 25.375 42.283 998.65 34124 17 15 15 59 51 3 $GNGGA,152101.00,4333.69088,N,00128.72913,E,1,05,1.81,170.4,M,53.8,M,,*48
33 15 21 02 4333.6904100128.72912170.5ÿ 00128.72912 170.5 1100100000 0 0 111110010 1000011101 110010010 110101110 1000000010 1 1101101111 1010101110 1011101011 1111100010 10000100110 1111100111 1100011010 1100110011 1100010111 25.313 42.244 998.65 35125 16 16 14 59 51 4 $GNGGA,152102.00,4333.69041,N,00128.72912,E,1,04,2.97,170.5,M,53.8,M,,*4B
34 15 21 03 4333.6900800128.72846170.6ÿ 00128.72846 170.6 1100100000 0 0 111110001 1000011101 110001101 110100000 1000000010 1 1101101111 1010101101 1011101011 1111100010 10000101010 1111101000 1100100000 1100110110 1100011110 25.313 42.260 998.64 36123 18 14 13 60 50 4 $GNGGA,152103.00,4333.69008,N,00128.72846,E,1,04,2.97,170.6,M,53.8,M,,*44
35 15 21 04 4333.6896600128.72773170.6ÿ 00128.72773 170.6 1100100000 0 0 111111110 1000011110 110010001 110100011 1000001100 1 1101101111 1010101110 1011101101 1111011000 10000101000 1111101101 1100101000 1100100111 1100010100 25.313 42.275 998.64 37123 17 15 13 59 50 5 $GNGGA,152104.00,4333.68966,N,00128.72773,E,1,04,2.97,170.6,M,53.8,M,,*4A
36 15 21 05 4333.6891000128.72689170.7ÿ 00128.72689 170.7 1100010111 111110000000 0 111110010 1000011111 110010000 110101100 1000001101 0 1101101111 1010101011 1011100111 1111011101 10000101001 1111110011 1100101010 1100101000 1100010010 25.375 42.214 998.65 38121 18 15 14 60 51 3 $GNGGA,152105.00,4333.68910,N,00128.72689,E,1,04,2.97,170.7,M,53.8,M,,*4F
37 15 21 06 4333.6895100128.72766170.8ÿ 00128.72766 170.8 1100100000 0 0 111110011 1000011100 110010010 110101100 1000001101 1 1101101111 1010101101 1011101011 1111010100 10000100111 1111110000 1100100111 1100110110 1100100010 25.375 42.168 998.65 39120 17 14 14 58 51 4 $GNGGA,152106.00,4333.68951,N,00128.72766,E,1,04,2.98,170.8,M,53.8,M,,*49
38 15 21 07 4333.6891500128.72654170.8ÿ 00128.72654 170.8 1100010111 111110000000 0 111110010 1000011110 110010010 110101101 1000001100 1 1101101111 1010101111 1011101011 1111010101 10000100111 1111110001 1100101001 1100101011 1100010110 25.313 42.130 998.64 40120 17 16 14 59 52 3 $GNGGA,152107.00,4333.68915,N,00128.72654,E,1,04,2.98,170.8,M,53.8,M,,*48
39 15 21 08 4333.6888600128.72612170.8ÿ 00128.72612 170.8 1100100000 0 0 111110001 1000011101 110010001 110101100 1000000011 1 1101101111 1010101100 1011101001 1111010101 10000100111 1111101110 1100011111 1100101101 1100010111 25.375 42.115 998.65 41118 18 15 14 60 51 3 $GNGGA,152108.00,4333.68886,N,00128.72612,E,1,04,2.98,170.8,M,53.8,M,,*4E
40 15 21 09 4333.6892800128.72688170.9ÿ 00128.72688 170.9 1100100000 0 0 111110001 1000011110 110010011 110101110 1000001101 1 1101101111 1010110001 1011101010 1111010110 10000100101 1111101110 1100100100 1100101110 1100011010 25.313 42.138 998.65 42118 16 16 14 59 52 3 $GNGGA,152109.00,4333.68928,N,00128.72688,E,1,04,2.99,170.9,M,53.8,M,,*49
41 15 21 10 4333.6890500128.72612171.0ÿ 00128.72612 171.0 1100100000 0 0 111110001 1000011111 110010001 110101110 1000000001 1 1101101111 1010101111 1011101001 1111011111 10000101010 1111101111 1100100111 1100101110 1100010110 25.375 42.130 998.65 43116 18 14 13 60 50 4 $GNGGA,152110.00,4333.68905,N,00128.72612,E,1,04,2.99,171.0,M,53.8,M,,*45
42 15 21 11 4333.6887800128.72536171.0ÿ 00128.72536 171.0 1100100000 0 0 111111110 1000011111 110010010 110110000 1000000000 1 1101101111 1010110011 1011101101 1111100101 10000101000 1111101100 1100100011 1100101100 1100011100 25.313 42.107 998.65 44115 16 15 15 59 51 3 $GNGGA,152111.00,4333.68878,N,00128.72536,E,1,04,2.99,171.0,M,53.8,M,,*4A
43 15 21 12 4333.6883100128.72460171.1ÿ 00128.72460 171.1 1100100000 0 0 111110000 1000010001 110010001 110101100 1000000010 1 1101101111 1010110001 1011101001 1111011110 10000100111 1111101011 1100100100 1100101010 1100011000 25.375 42.115 998.65 45113 18 14 13 60 51 4 $GNGGA,152112.00,4333.68831,N,00128.72460,E,1,04,2.99,171.1,M,53.8,M,,*47
44 15 21 13 4333.6886100128.72495171.2ÿ 00128.72495 171.2 1100010111 111110000000 0 111111111 1000010000 110010011 110110001 1000000001 1 1101101111 1010111001 1011101111 1111100111 10000100111 1111101100 1100100001 1100101111 1100011010 25.375 42.115 998.66 46114 17 15 15 59 51 3 $GNGGA,152113.00,4333.68861,N,00128.72495,E,1,04,3.00,171.2,M,53.8,M,,*4B
45 15 21 14 4333.6888700128.72654171.3ÿ 00128.72654 171.3 1100100000 0 0 111111100 1000011110 110010010 110101101 1000000011 1 1101101111 1010110000 1011100110 1111101000 10000100110 1111101000 1100100011 1100100101 1100001111 25.375 42.092 998.65 47113 17 16 14 59 52 3 $GNGGA,152114.00,4333.68887,N,00128.72654,E,1,04,3.00,171.3,M,53.8,M,,*4A
46 15 21 15 4333.6884200128.72536171.3ÿ 00128.72536 171.3 1100010111 111110000000 0 111111101 1000011110 110010001 110101110 1000001111 1 1101101111 1010110110 1011101011 1111101011 10000101010 1111100110 1100011110 1100100110 1100010101 25.438 42.069 998.65 48111 18 14 13 59 51 4 $GNGGA,152115.00,4333.68842,N,00128.72536,E,1,04,3.00,171.3,M,53.8,M,,*45
47 15 21 16 4333.6888000128.72646171.3ÿ 00128.72646 171.3 1100010111 111110000000 0 111111101 1000011111 110010010 110101100 1000000000 1 1101101111 1010110010 1011101100 1111101001 10000101001 1111101000 1100100010 1100101100 1100011011 25.375 42.061 998.64 49110 17 15 14 58 51 4 $GNGGA,152116.00,4333.68880,N,00128.72646,E,1,04,3.01,171.3,M,53.8,M,,*4D
48 15 21 17 4333.6887800128.72694171.4ÿ 00128.72694 171.4 1100010111 111110000000 0 111110010 1000011101 110011101 110110000 1000001111 1 1101101111 1010110111 1011101010 1111101101 10000100110 1111101111 1100100100 1100101101 1100001101 25.313 42.130 998.64 50109 19 15 13 60 50 4 $GNGGA,152117.00,4333.68878,N,00128.72694,E,1,04,3.01,171.4,M,53.8,M,,*43
49 15 21 18 4333.6883400128.72616171.3ÿ 00128.72616 171.3 1100010111 111110000000 0 111101111 1000011100 110010001 110100010 1000000010 1 1101101111 1010110110 1011101101 1111101100 10000100110 1111101011 1100100010 1100101100 1100011000 25.375 42.191 998.64 51107 17 14 14 58 51 4 $GNGGA,152118.00,4333.68834,N,00128.72616,E,1,04,3.01,171.3,M,53.8,M,,*49
50 15 21 19 4333.6878300128.72567171.3ÿ 00128.72567 171.3 1100010111 111110000000 0 111101111 1000011100 110010011 110101111 1000000001 1 1101101101 1010110101 1011101100 1111101011 10000100111 1111101101 1100100110 1100100101 1100001010 25.375 42.176 998.64 52107 18 15 13 59 51 4 $GNGGA,152119.00,4333.68783,N,00128.72567,E,1,04,3.01,171.3,M,53.8,M,,*4E
51 15 21 20 4333.6877000128.72617171.4ÿ 00128.72617 171.4 1100010111 111110000000 0 111101110 1000011101 110010001 110101101 1000000000 1 1101101110 1010111010 1011101100 1111101010 10000101000 1111101001 1100100000 1100100110 1100001100 25.375 42.161 998.64 53106 19 15 13 60 50 4 $GNGGA,152120.00,4333.68770,N,00128.72617,E,1,04,3.02,171.4,M,53.8,M,,*48
52 15 21 21 4333.6877000128.72620171.4ÿ 00128.72620 171.4 1100010111 111110000000 0 111110001 1000011100 110010010 110101111 1000000000 1 1101101111 1010111001 1011101010 1111110000 10000101001 1111101101 1100100110 1100101011 1100010100 25.375 42.145 998.65 54104 17 16 15 59 50 4 $GNGGA,152121.00,4333.68770,N,00128.72620,E,1,04,3.02,171.4,M,53.8,M,,*4D
53 15 21 22 4333.6870700128.72558171.3ÿ 00128.72558 171.3 1100010111 111110000000 0 111110001 1000011101 110010001 110101100 1000001110 0 1101101110 1010111010 1011101001 1111110001 10000101000 1111101000 1100100111 1100100111 1100010100 25.375 42.153 998.64 55104 18 14 14 60 51 3 $GNGGA,152122.00,4333.68707,N,00128.72558,E,1,04,3.02,171.3,M,53.8,M,,*45
54 15 21 23 4333.6877500128.72600171.4ÿ 00128.72600 171.4 1100010111 111110000000 0 111101110 1000010011 110010011 110101110 1000000000 1 1101101111 1011000001 1011101101 1111111010 10000101000 1111101011 1100100010 1100100111 1100010011 25.375 42.199 998.65 56101 17 14 14 59 51 4 $GNGGA,152123.00,4333.68775,N,00128.72600,E,1,04,3.03,171.4,M,53.8,M,,*49
55 15 21 24 4333.6892600128.72863171.5ÿ 00128.72863 171.5 1100010111 111110000000 0 111110011 1000011101 110001111 110101111 1000001111 0 1101101111 1010111111 1011101100 10000000001 10000100110 1111101101 1100100111 1100101110 1100011100 25.375 42.298 998.64 57103 18 15 14 60 51 3 $GNGGA,152124.00,4333.68926,N,00128.72863,E,1,04,3.03,171.5,M,53.8,M,,*4C
56 15 21 25 4333.6891300128.72909171.5ÿ 00128.72909 171.5 1100010111 111110000000 0 111110010 1000011100 110010001 110101110 1000001100 1 1101101111 1010111000 1011101010 10000000000 10000100111 1111101010 1100100010 1100101000 1100011010 25.375 42.367 998.64 58102 17 15 15 59 51 3 $GNGGA,152125.00,4333.68913,N,00128.72909,E,1,04,3.03,171.5,M,53.8,M,,*46
57 15 21 26 4333.6885300128.72888171.5ÿ 00128.72888 171.5 1100010111 111110000000 0 111110001 1000011110 110010000 110101100 1000001110 1 1101101110 1010111000 1011101011 1111111111 10000101001 1111100111 1100100100 1100101111 1100011011 25.438 42.351 998.64 59101 18 16 13 59 51 4 $GNGGA,152126.00,4333.68853,N,00128.72888,E,1,04,3.03,171.5,M,53.8,M,,*48
58 15 21 27 4333.6883200128.72788171.5ÿ 00128.72788 171.5 1100010111 111110000000 0 111110001 1000011100 110011100 110101110 1000001111 1 1101101110 1010110100 1011101010 1111111100 10000101001 1111100110 1100011111 1100101110 1100011101 25.438 42.306 998.66 60099 18 15 14 60 51 3 $GNGGA,152127.00,4333.68832,N,00128.72788,E,1,04,3.04,171.5,M,53.8,M,,*46
59 15 21 28 4333.6882800128.72743171.5ÿ 00128.72743 171.5 1100010111 111110000000 0 111110001 1000011110 110010011 110101111 1000000011 1 1101101110 1010110001 1011101001 1111111001 10000100110 1111101001 1100100011 1100110001 1100010111 25.375 42.260 998.66 61099 17 16 15 59 51 3 $GNGGA,152128.00,4333.68828,N,00128.72743,E,1,04,3.04,171.5,M,53.8,M,,*45
