id HH MM SS longitude latitude altitude adc_1_ch0 adc_1_ch1 adc_1_ch2 adc_1_ch3 adc_1_ch4 adc_1_ch5 adc_1_ch6 adc_1_ch7 adc_1_ch8 adc_2_ch0 adc_2_ch1 adc_2_ch2 adc_2_ch3 adc_2_ch4 adc_2_ch5 adc_2_ch6 adc_2_ch7 adc_2_ch8 temp hum pres t_prog t_gps t_split t_adc t_temp t_hum t_pres trame_gga
1 15 21 45 Nan Nan Nan 1101100111 1011110010 1100010101 1111011100 10000101010 1100100010 1101010111 10000010110 1 1101101110 1010110011 1011101000 1111011111 10000100111 1111110010 1100100011 1100101011 1100010110 25.375 42.466 795.83 3516 16 7 11 60 51 3 $GNGGA,152145.00,,,,,0,00,99.9,,,,,,*47
2 15 21 46 4333.6888000128.72860170.8ó 00128.72860 170.8 1101100111 1011110011 1100010110 1111011101 10000101000 1100101001 1101011110 10000010001 1 1101101110 1010111001 1011101010 1111100001 10000100111 1111101010 1100100010 1100110000 1100011000 25.375 42.412 998.64 4529 16 16 14 59 52 3 $GNGGA,152146.00,4333.68880,N,00128.72860,E,1,04,2.30,170.8,M,53.8,M,,*4B
3 15 21 47 4333.6907500128.73228170.7ó 00128.73228 170.7 1101100111 1011110110 1100010111 1111100001 10000100111 1100100101 1101011001 10000011010 1 1101101110 1010110110 1011101011 1111101000 10000100110 1111101000 1100100001 1100101010 1100010111 25.438 42.351 998.64 5527 17 14 13 60 50 4 $GNGGA,152147.00,4333.69075,N,00128.73228,E,1,04,2.30,170.7,M,53.8,M,,*41
4 15 21 48 4333.6912300128.73337170.7ó 00128.73337 170.7 1101100111 1011110111 1100010101 1111100101 10000101000 1100100011 1101011010 10000010100 1 1101101110 1010110111 1011101100 1111101001 10000100110 1111101111 1100101000 1100101011 1100010110 25.313 42.344 998.64 6528 16 16 15 59 51 3 $GNGGA,152148.00,4333.69123,N,00128.73337,E,1,03,2.46,170.7,M,53.8,M,,*45
5 15 21 49 4333.6927300128.73567170.6ó 00128.73567 170.6 1101100111 1011111001 1100011010 1111011101 10000100101 1100100011 1101011111 10000001110 1 1101101110 1010110100 1011101001 1111101001 10000101000 1111101001 1100100110 1100101100 1100010101 25.438 42.351 998.64 7526 17 15 14 60 51 3 $GNGGA,152149.00,4333.69273,N,00128.73567,E,1,04,2.30,170.6,M,53.8,M,,*46
6 15 21 50 4333.6936100128.73679170.7ó 00128.73679 170.7 1101100111 1011111001 1100010111 1111100001 10000101011 1100100101 1101011010 10000001011 1 1101101111 1010110110 1011101101 1111101110 10000101011 1111101110 1100100110 1100101010 1100011001 25.313 42.359 998.63 8525 16 14 15 59 51 3 $GNGGA,152150.00,4333.69361,N,00128.73679,E,1,05,2.10,170.7,M,53.8,M,,*42
7 15 21 51 4333.6946800128.73991170.6ó 00128.73991 170.6 1101100111 1011110110 1100010101 1111011111 10000101000 1100100010 1101011011 10000010010 1 1101101110 1010110101 1011101000 1111100111 10000101000 1111101000 1100100010 1100110011 1100011100 25.375 42.367 998.64 9524 16 15 13 59 51 4 $GNGGA,152151.00,4333.69468,N,00128.73991,E,1,04,2.30,170.6,M,53.8,M,,*46
8 15 21 52 4333.6939600128.73754170.7ó 00128.73754 170.7 1101100111 1011111001 1100010101 1111100011 10000100111 1100101000 1101011010 10000010001 1 1101101110 1010110011 1011101010 1111100110 10000101001 1111100110 1100011110 1100110011 1100010111 25.438 42.389 998.65 10521 17 14 13 59 51 4 $GNGGA,152152.00,4333.69396,N,00128.73754,E,1,04,2.39,170.7,M,53.8,M,,*4C
9 15 21 53 4333.6932500128.73624170.7ó 00128.73624 170.7 1101100111 1011110101 1100010101 1111100101 10000101001 1100100000 1101010000 10000001011 1 1101101110 1010110010 1011101010 1111100011 10000101000 1111101110 1100101010 1100101111 1100011011 25.375 42.397 998.64 11522 16 16 15 59 51 3 $GNGGA,152153.00,4333.69325,N,00128.73624,E,1,03,2.46,170.7,M,53.8,M,,*4C
10 15 21 54 4333.6943800128.73829170.5ó 00128.73829 170.5 1101100111 1011110101 1100010101 1111100001 10000101001 1100011101 1101010000 10000001011 1 1101101111 1010110110 1011101100 1111100100 10000100110 1111100011 1100011111 1100110110 1100011000 25.313 42.405 998.62 12521 17 15 13 60 50 4 $GNGGA,152154.00,4333.69438,N,00128.73829,E,1,04,2.30,170.5,M,53.8,M,,*47
11 15 21 55 4333.6940100128.73794170.5ó 00128.73794 170.5 1101100111 1011110101 1100010100 1111100111 10000101100 1100100110 1101011010 10000001111 1 1101101110 1010101111 1011101010 1111100101 10000100111 1111101010 1100100000 1100101101 1100010010 25.375 42.397 998.63 13519 16 15 15 59 51 3 $GNGGA,152155.00,4333.69401,N,00128.73794,E,1,03,2.46,170.5,M,53.8,M,,*43
12 15 21 56 4333.6933300128.73667170.4ó 00128.73667 170.4 1101100111 1011110110 1100010101 1111100101 10000101010 1100100001 1101011001 10000010100 1 1101101110 1010110111 1011101100 1111100111 10000100111 1111100111 1100100001 1100101110 1100100001 25.375 42.382 998.63 14519 16 16 14 59 52 3 $GNGGA,152156.00,4333.69333,N,00128.73667,E,1,03,2.46,170.4,M,53.8,M,,*4A
13 15 21 57 4333.6933700128.73742170.3ó 00128.73742 170.3 1101100111 1011110101 1100010101 1111100000 10000101001 1100100101 1101011001 10000001111 1 1101101110 1010110100 1011101011 1111100010 10000100111 1111101011 1100101001 1100110000 1100011001 25.375 42.481 998.63 15517 18 15 13 60 50 4 $GNGGA,152157.00,4333.69337,N,00128.73742,E,1,03,2.46,170.3,M,53.8,M,,*4E
14 15 21 58 4333.6934800128.73708170.3ó 00128.73708 170.3 1101100111 1011111011 1100011010 1111100011 10000101100 1100100010 1101100000 10000001110 1 1101101110 1010110101 1011101110 1111100110 10000101001 1111100111 1100100111 1100101111 1100011100 25.375 42.489 998.63 16517 16 16 14 59 51 4 $GNGGA,152158.00,4333.69348,N,00128.73708,E,1,03,2.46,170.3,M,53.8,M,,*47
15 15 21 59 4333.6934200128.73654170.3ó 00128.73654 170.3 1101100111 1011110111 1100011000 1111011101 10000100110 1100100111 1101011101 10000001010 1 1101101110 1010101111 1011101000 1111100100 10000100111 1111101101 1100100001 1100101111 1100010101 25.375 42.435 998.62 17514 17 15 14 60 51 3 $GNGGA,152159.00,4333.69342,N,00128.73654,E,1,03,2.46,170.3,M,53.8,M,,*44
16 15 22 00 4333.6928800128.73593170.2ó 00128.73593 170.2 1101100111 1011110110 1100010111 1111011110 10000100011 1100100001 1101010110 10000001111 1 1101101110 1010110101 1011101101 1111100111 10000101010 1111100101 1100011100 1100110000 1100011000 25.375 42.405 998.63 18514 16 14 14 59 50 4 $GNGGA,152200.00,4333.69288,N,00128.73593,E,1,03,2.46,170.2,M,53.8,M,,*45
17 15 22 01 4333.6926000128.73521170.2ó 00128.73521 170.2 1101100111 1011110111 1100011000 1111011010 10000100110 1100100001 1101010111 10000000111 1 1101101110 1010101111 1011101010 1111100001 10000101000 1111100010 1100011101 1100110010 1100011000 25.438 42.397 998.65 19514 17 14 13 59 51 4 $GNGGA,152201.00,4333.69260,N,00128.73521,E,1,03,2.46,170.2,M,53.8,M,,*4B
18 15 22 02 4333.6930700128.73580170.1ó 00128.73580 170.1 1101100111 1011111000 1100011000 1111011101 10000100110 1100100101 1101011100 10000010000 1 1101101110 1010110001 1011101010 1111100001 10000101000 1111100100 1100011111 1100110100 1100011101 25.438 42.428 998.64 20512 16 15 15 59 51 3 $GNGGA,152202.00,4333.69307,N,00128.73580,E,1,03,2.46,170.1,M,53.8,M,,*40
19 15 22 03 4333.6926600128.73476170.1ó 00128.73476 170.1 1101100111 1011110111 1100011000 1111011111 10000101001 1100011101 1101010000 10000001001 1 1101101110 1010110001 1011101001 1111100111 10000101000 1111100110 1100011111 1100101100 1100010101 25.375 42.435 998.63 21511 16 16 14 59 52 3 $GNGGA,152203.00,4333.69266,N,00128.73476,E,1,03,2.46,170.1,M,53.8,M,,*4F
20 15 22 04 4333.6922600128.73377170.1ó 00128.73377 170.1 1101100111 1011110110 1100010110 1111100001 10000101001 1100100100 1101010111 10000001010 1 1101101110 1010110001 1011101100 1111100110 10000100110 1111100101 1100100011 1100110001 1100010100 25.375 42.420 998.64 22511 17 15 14 60 51 3 $GNGGA,152204.00,4333.69226,N,00128.73377,E,1,04,2.85,170.1,M,53.8,M,,*42
21 15 22 05 4333.6920400128.73305170.0ó 00128.73305 170.0 1101100111 1011110110 1100011001 1111100010 10000101001 1100100011 1101010110 10000010011 1 1101101110 1010110111 1011101110 1111100110 10000101001 1111100011 1100100000 1100101011 1100010010 25.375 42.428 998.65 23511 16 16 15 59 51 3 $GNGGA,152205.00,4333.69204,N,00128.73305,E,1,06,2.16,170.0,M,53.8,M,,*4F
22 15 22 06 4333.6909600128.73152169.9ó 00128.73152 169.9 1101100111 1011110101 1100010110 1111100101 10000101000 1100100101 1101011100 10000010111 1 1101101110 1010110101 1011101010 1111101010 10000101001 1111100110 1100011101 1100101111 1100011100 25.375 42.374 998.64 24510 17 15 14 60 51 3 $GNGGA,152206.00,4333.69096,N,00128.73152,E,1,06,2.16,169.9,M,53.8,M,,*44
23 15 22 07 4333.6906200128.73118169.9ó 00128.73118 169.9 1101100111 1011111001 1100011001 1111100100 10000100100 1100100101 1101010001 10000001110 1 1101101110 1010110011 1011101010 1111100101 10000101001 1111100110 1100011110 1100101101 1100100010 25.375 42.328 998.63 25508 16 15 15 59 51 3 $GNGGA,152207.00,4333.69062,N,00128.73118,E,1,06,2.16,169.9,M,53.8,M,,*40
24 15 22 08 4333.6908500128.73106169.9ó 00128.73106 169.9 1101100111 1011111000 1100010110 1111100011 10000100110 1100100000 1101010110 10000010000 1 1101101110 1010110101 1011101010 1111011101 10000100111 1111100111 1100011101 1100101110 1100010110 25.375 42.344 998.64 26508 16 15 13 58 52 4 $GNGGA,152208.00,4333.69085,N,00128.73106,E,1,06,2.16,169.9,M,53.8,M,,*49
25 15 22 09 4333.6907200128.73076170.0ó 00128.73076 170.0 1101100111 1011110111 1100010101 1111100011 10000100110 1100100101 1101011100 10000010100 1 1101101110 1010110100 1011101011 1111100111 10000101001 1111101010 1100100001 1100101111 1100010100 25.375 42.359 998.62 27507 17 15 13 60 50 4 $GNGGA,152209.00,4333.69072,N,00128.73076,E,1,06,2.16,170.0,M,53.8,M,,*47
26 15 22 10 4333.6904300128.73013170.1ó 00128.73013 170.1 1101100111 1011110110 1100010111 1111100111 10000100111 1100100101 1101011001 10000010110 1 1101101110 1010110100 1011101101 1111110000 10000101011 1111101101 1100100010 1100110001 1100100001 25.375 42.351 998.62 28504 16 15 13 58 51 5 $GNGGA,152210.00,4333.69043,N,00128.73013,E,1,06,2.16,170.1,M,53.8,M,,*4F
27 15 22 11 4333.6904200128.72986170.2ó 00128.72986 170.2 1101100111 1011111000 1100011000 1111100111 10000101100 1100100101 1101011110 10000010011 1 1101101110 1010110000 1011101100 1111100100 10000100111 1111101100 1100100111 1100101111 1100011011 25.375 42.313 998.62 29504 17 15 14 60 51 3 $GNGGA,152211.00,4333.69042,N,00128.72986,E,1,06,2.16,170.2,M,53.8,M,,*48
28 15 22 12 4333.6899900128.72968170.4ó 00128.72968 170.4 1101100111 1011110110 1100010111 1111011110 10000100101 1100100001 1101011100 10000010000 1 1101101110 1010110110 1011101110 1111101011 10000101010 1111101001 1100100100 1100101011 1100010010 25.375 42.290 998.62 30503 16 15 15 59 51 3 $GNGGA,152212.00,4333.68999,N,00128.72968,E,1,06,2.16,170.4,M,53.8,M,,*43
29 15 22 13 4333.6894800128.72858170.6ó 00128.72858 170.6 1101100111 1011110110 1100010111 1111011011 10000100101 1100011101 1101011000 10000010011 1 1101101110 1010110011 1011101011 1111101101 10000101001 1111101010 1100100100 1100101010 1100010011 25.375 42.275 998.63 31503 17 14 14 60 51 3 $GNGGA,152213.00,4333.68948,N,00128.72858,E,1,06,2.16,170.6,M,53.8,M,,*4E
30 15 22 14 4333.6893900128.72846170.7ó 00128.72846 170.7 1101100111 1011111010 1100011001 1111011101 10000101010 1100011110 1101010011 10000001101 1 1101101110 1010110101 1011101001 1111100111 10000101000 1111100101 1100100001 1100101101 1100010001 25.375 42.313 998.63 32500 16 14 14 59 50 4 $GNGGA,152214.00,4333.68939,N,00128.72846,E,1,06,2.16,170.7,M,53.8,M,,*41
31 15 22 15 4333.6898600128.72859170.8ó 00128.72859 170.8 1101100111 1011110110 1100010101 1111011110 10000100101 1100101000 1101011111 10000001001 1 1101101110 1010110010 1011101010 1111101001 10000101000 1111101000 1100011111 1100110000 1100011000 25.375 42.374 998.62 33501 16 15 13 59 51 4 $GNGGA,152215.00,4333.68986,N,00128.72859,E,1,06,2.16,170.8,M,53.8,M,,*45
32 15 22 16 4333.6902300128.72915171.0ó 00128.72915 171.0 1101100111 1011111001 1100011000 1111011101 10000100110 1100100010 1101010111 10000001000 1 1101101110 1010110101 1011101011 1111100110 10000100111 1111101010 1100100001 1100110101 1100011101 25.375 42.435 998.64 34498 17 14 13 60 50 4 $GNGGA,152216.00,4333.69023,N,00128.72915,E,1,06,2.16,171.0,M,53.8,M,,*41
33 15 22 17 4333.6902100128.72881171.1ó 00128.72881 171.1 1101100111 1011111010 1100011011 1111101010 10000101001 1100100000 1101010110 10000010000 1 1101101110 1010110011 1011101100 1111101100 10000101100 1111100011 1100100010 1100110001 1100011011 25.375 42.473 998.64 35497 16 14 14 58 51 4 $GNGGA,152217.00,4333.69021,N,00128.72881,E,1,06,2.16,171.1,M,53.8,M,,*4F
34 15 22 18 4333.6904300128.72966171.2ó 00128.72966 171.2 1101100111 1011110111 1100011000 1111100110 10000100111 1100100101 1101011101 10000010000 1 1101101111 1010110111 1011101100 1111100110 10000100111 1111101001 1100100010 1100101110 1100011101 25.375 42.504 998.63 36497 17 15 14 60 51 3 $GNGGA,152218.00,4333.69043,N,00128.72966,E,1,06,2.16,171.2,M,53.8,M,,*4F
35 15 22 19 4333.6902700128.72942171.4ó 00128.72942 171.4 1101100111 1011110111 1100011000 1111101010 10000101011 1100100001 1101010110 10000001011 1 1101101110 1010111001 1011101101 1111101101 10000101010 1111101001 1100100100 1100101111 1100010001 25.375 42.481 998.64 37496 16 15 15 59 51 3 $GNGGA,152219.00,4333.69027,N,00128.72942,E,1,06,2.16,171.4,M,53.8,M,,*4C
36 15 22 20 4333.6901400128.72885171.5ó 00128.72885 171.5 1101100111 1011110110 1100010111 1111101101 10000100110 1100011100 1101001011 10000010010 1 1101101110 1010110111 1011101101 1111101011 10000101000 1111100100 1100100100 1100101001 1100010110 25.375 42.512 998.62 38495 16 15 14 59 52 3 $GNGGA,152220.00,4333.69014,N,00128.72885,E,1,06,2.16,171.5,M,53.8,M,,*4D
37 15 22 21 4333.6904100128.72946171.6ó 00128.72946 171.6 1101100111 1011111000 1100011010 1111101010 10000101001 1100100001 1101011111 10000000101 1 1101101110 1010111010 1011101101 1111101011 10000101001 1111100111 1100100011 1100101010 1100010110 25.375 42.565 998.62 39492 17 15 14 60 51 3 $GNGGA,152221.00,4333.69041,N,00128.72946,E,1,06,2.16,171.6,M,53.8,M,,*41
38 15 22 22 4333.6900700128.72867171.7ó 00128.72867 171.7 1101100111 1011110101 1100010101 1111100001 10000100111 1100100001 1101010111 10000001111 1 1101101110 1010111000 1011101100 1111101001 10000101000 1111100010 1100011100 1100110001 1100011111 25.375 42.634 998.62 40493 16 15 15 59 51 3 $GNGGA,152222.00,4333.69007,N,00128.72867,E,1,06,2.16,171.7,M,53.8,M,,*43
39 15 22 23 4333.6895600128.72757171.8ó 00128.72757 171.8 1101100111 1011110101 1100011000 1111101000 10000101010 1100100011 1101011100 10000001011 1 1101101110 1010111100 1011101111 1111101110 10000100111 1111100101 1100100000 1100101111 1100011010 25.438 42.748 998.63 41492 17 15 14 60 51 3 $GNGGA,152223.00,4333.68956,N,00128.72757,E,1,06,2.16,171.8,M,53.8,M,,*4D
40 15 22 24 4333.6894200128.72679171.8ó 00128.72679 171.8 1101100111 1011110111 1100011000 1111101011 10000101001 1100011110 1101011000 10000010000 1 1101101110 1010111000 1011101110 1111110001 10000101010 1111100011 1100011110 1100101111 1100100011 25.375 42.763 998.63 42491 16 15 15 59 51 3 $GNGGA,152224.00,4333.68942,N,00128.72679,E,1,04,2.85,171.8,M,53.8,M,,*4A
41 15 22 25 4333.6890400128.72565171.7ó 00128.72565 171.7 1101100111 1011110111 1100010111 1111100011 10000100101 1100100001 1101010111 10000001101 1 1101101110 1010111010 1011101110 1111110100 10000101001 1111100111 1100011101 1100101000 1100010001 25.375 42.786 998.62 43490 16 15 13 59 51 4 $GNGGA,152225.00,4333.68904,N,00128.72565,E,1,04,2.85,171.7,M,53.8,M,,*48
42 15 22 26 4333.6893100128.72685171.7ó 00128.72685 171.7 1101100111 1011110111 1100010101 1111101010 10000101010 1100100100 1101011001 10000001110 1 1101101110 1010111000 1011101011 1111101010 10000101000 1111100111 1100100010 1100101001 1100011000 25.375 42.801 998.63 44489 17 14 13 58 51 4 $GNGGA,152226.00,4333.68931,N,00128.72685,E,1,05,2.75,171.7,M,53.8,M,,*4E
43 15 22 27 4333.6880700128.72372172.3ó 00128.72372 172.3 1101100111 1011111001 1100011000 1111100110 10000100111 1100100101 1101011101 10000001111 1 1101101110 1010110110 1011101011 1111101011 10000101000 1111100101 1100100100 1100110111 1100100011 25.375 42.763 998.62 45489 16 15 13 58 52 4 $GNGGA,152227.00,4333.68807,N,00128.72372,E,1,07,1.72,172.3,M,53.8,M,,*47
44 15 22 28 4333.6875700128.72219172.7ó 00128.72219 172.7 1101100111 1011111001 1100011001 1111101011 10000101000 1100011101 1101010110 10000001100 1 1101101110 1010110010 1011101010 1111101110 10000101011 1111101001 1100100110 1100110010 1100010111 25.438 42.710 998.63 46486 18 14 13 60 50 4 $GNGGA,152228.00,4333.68757,N,00128.72219,E,1,06,1.87,172.7,M,53.8,M,,*41
45 15 22 29 4333.6874800128.72138173.0ó 00128.72138 173.0 1101100111 1011111001 1100011010 1111100000 10000101000 1100100000 1101010010 10000010000 1 1101101110 1010110000 1011101010 1111101000 10000100111 1111100100 1100100010 1100101011 1100010110 25.438 42.687 998.62 47486 16 15 15 59 51 3 $GNGGA,152229.00,4333.68748,N,00128.72138,E,1,06,1.87,173.0,M,53.8,M,,*48
46 15 22 30 4333.6871800128.71957173.4ó 00128.71957 173.4 1101100111 1011111011 1100011011 1111100011 10000101000 1100011001 1101010001 10000010001 1 1101101110 1010110100 1011101100 1111100001 10000101001 1111100111 1100011101 1100101001 1100011011 25.438 42.672 998.63 48485 17 15 13 60 50 4 $GNGGA,152230.00,4333.68718,N,00128.71957,E,1,06,1.87,173.4,M,53.8,M,,*43
47 15 22 31 4333.6874300128.71896173.9ó 00128.71896 173.9 1101100111 1011110110 1100010110 1111100010 10000101000 1100100110 1101011100 10000010000 1 1101101110 1010111000 1011101100 1111100111 10000101000 1111100111 1100100101 1100100011 1100010100 25.375 42.717 998.64 49484 16 15 15 59 51 3 $GNGGA,152231.00,4333.68743,N,00128.71896,E,1,07,1.72,173.9,M,53.8,M,,*46
48 15 22 32 4333.6869700128.71743174.5ó 00128.71743 174.5 1101100111 1011110111 1100011010 1111100000 10000101000 1100011110 1101001110 10000001110 1 1101101110 1010110010 1011101010 1111100101 10000101001 1111100010 1100100010 1100101010 1100010111 25.375 42.649 998.63 50482 16 15 13 59 51 4 $GNGGA,152232.00,4333.68697,N,00128.71743,E,1,07,1.72,174.5,M,53.8,M,,*41
49 15 22 33 4333.6868100128.71622175.1ó 00128.71622 175.1 1101100111 1011110111 1100010111 1111100011 10000100111 1100100010 1101010100 10000001011 1 1101101110 1010110110 1011101011 1111110000 10000101100 1111100110 1100011111 1100100101 1100010110 25.375 42.588 998.63 51483 17 15 14 60 51 3 $GNGGA,152233.00,4333.68681,N,00128.71622,E,1,07,1.72,175.1,M,53.8,M,,*44
50 15 22 34 4333.6856200128.71350175.7ó 00128.71350 175.7 1101100111 1011110111 1100010111 1111100101 10000101010 1100100001 1101010111 10000001110 1 1101101110 1010111000 1011101110 1111101010 10000101011 1111100101 1100011111 1100100011 1100001101 25.375 42.550 998.62 52482 16 15 13 59 50 5 $GNGGA,152234.00,4333.68562,N,00128.71350,E,1,07,1.72,175.7,M,53.8,M,,*4B
51 15 22 35 4333.6847600128.71169176.2ó 00128.71169 176.2 1101100111 1011111000 1100011010 1111101001 10000101010 1100100000 1101011010 10000001100 1 1101101110 1010110100 1011101001 1111100010 10000101000 1111101001 1100100101 1100110001 1100010110 25.375 42.504 998.63 53481 17 14 13 59 51 4 $GNGGA,152235.00,4333.68476,N,00128.71169,E,1,07,1.72,176.2,M,53.8,M,,*40
52 15 22 36 4333.6844400128.71067176.6ó 00128.71067 176.6 1101100111 1011110110 1100010111 1111100010 10000100110 1100100010 1101011111 10000010010 1 1101101110 1010111000 1011101101 1111101001 10000101001 1111100100 1100100001 1100100011 1100010101 25.438 42.473 998.63 54479 16 15 15 59 50 4 $GNGGA,152236.00,4333.68444,N,00128.71067,E,1,06,1.86,176.6,M,53.8,M,,*43
53 15 22 37 4333.6847400128.71012177.1ó 00128.71012 177.1 1101100111 1011110110 1100011011 1111100011 10000100110 1100100000 1101010011 10000001111 1 1101101110 1010110111 1011101100 1111100110 10000100111 1111100110 1100100001 1100110010 1100011000 25.375 42.473 998.62 55479 16 16 14 59 52 3 $GNGGA,152237.00,4333.68474,N,00128.71012,E,1,07,1.72,177.1,M,53.8,M,,*4F
54 15 22 38 4333.6850400128.71048177.5ó 00128.71048 177.5 1101100111 1011111001 1100011001 1111101100 10000101010 1100100011 1101011000 10000001100 1 1101101110 1010111000 1011101101 1111100110 10000100111 1111100100 1100100000 1100101000 1100010101 25.313 42.481 998.62 56478 17 15 14 60 50 4 $GNGGA,152238.00,4333.68504,N,00128.71048,E,1,07,1.72,177.5,M,53.8,M,,*4D
55 15 22 39 4333.6840600128.70895177.9ó 00128.70895 177.9 1101100111 1011111001 1100011010 1111100110 10000101000 1100100001 1101010101 10000001101 1 1101101110 1010110110 1011101101 1111101110 10000101001 1111100110 1100100000 1100101101 1100010100 25.375 42.504 998.62 57476 17 16 13 59 50 5 $GNGGA,152239.00,4333.68406,N,00128.70895,E,1,07,1.72,177.9,M,53.8,M,,*4A
56 15 22 40 4333.6838500128.70771178.1ó 00128.70771 178.1 1101100111 1011110110 1100010111 1111011100 10000100101 1100011110 1101011000 10000010100 1 1101101110 1010110011 1011101100 1111100100 10000101000 1111101010 1100100011 1100101000 1100011100 25.375 42.534 998.62 58475 17 14 13 59 51 4 $GNGGA,152240.00,4333.68385,N,00128.70771,E,1,06,1.86,178.1,M,53.8,M,,*40
57 15 22 41 4333.6830800128.70634178.4ó 00128.70634 178.4 1101100111 1011111010 1100011010 1111101011 10000101011 1100100010 1101011010 10000010011 1 1101101110 1010110001 1011101011 1111100110 10000100111 1111100001 1100011110 1100101110 1100011001 25.375 42.557 998.62 59473 16 14 14 58 51 4 $GNGGA,152241.00,4333.68308,N,00128.70634,E,1,06,1.86,178.4,M,53.8,M,,*41
58 15 22 42 4333.6823900128.70531178.6ó 00128.70531 178.6 1101100111 1011111010 1100011001 1111101010 10000101001 1100100000 1101011001 10000001111 1 1101101110 1010110100 1011101101 1111101000 10000101001 1111100110 1100100101 1100101111 1100011101 25.375 42.550 998.62 60473 16 16 14 60 51 3 $GNGGA,152242.00,4333.68239,N,00128.70531,E,1,06,1.86,178.6,M,53.8,M,,*45
59 15 22 43 4333.6819000128.70476179.0ó 00128.70476 179.0 1101100111 1011110110 1100010110 1111011111 10000100110 1100100000 1101011010 10000010010 1 1101101110 1010110110 1011101001 1111100101 10000101011 1111100010 1100011111 1100110001 1100001111 25.438 42.534 998.61 61472 16 15 15 59 51 3 $GNGGA,152243.00,4333.68190,N,00128.70476,E,1,07,1.72,179.0,M,53.8,M,,*4B
60 15 22 44 4333.6827300128.70606179.3ó 00128.70606 179.3 1101100111 1011110011 1100010110 1111101010 10000101110 1100100100 1101010100 10000010010 1 1101101110 1010110110 1011101010 1111101010 10000101001 1111100110 1100011101 1100110000 1100011001 25.438 42.550 998.62 62471 16 15 13 58 52 4 $GNGGA,152244.00,4333.68273,N,00128.70606,E,1,07,1.72,179.3,M,53.8,M,,*44
61 15 22 45 4333.6828100128.70597179.5ó 00128.70597 179.5 1101100111 1011110101 1100010100 1111101001 10000101101 1100011111 1101010011 10000011100 1 1101101110 1010111000 1011101101 1111100111 10000101001 1111100011 1100011110 1100110001 1100011111 25.375 42.550 998.62 63469 17 14 13 60 50 4 $GNGGA,152245.00,4333.68281,N,00128.70597,E,1,06,1.86,179.5,M,53.8,M,,*4F
62 15 22 46 4333.6830500128.70680179.7ó 00128.70680 179.7 1101100111 1011110011 1100010101 1111011111 10000100110 1100100001 1101011011 10000001011 1 1101101110 1010110001 1011101010 1111101001 10000101100 1111100111 1100100111 1100101100 1100010110 25.375 42.565 998.62 64468 16 14 14 59 50 4 $GNGGA,152246.00,4333.68305,N,00128.70680,E,1,07,1.72,179.7,M,53.8,M,,*4C
63 15 22 47 4333.6829400128.70700179.8ó 00128.70700 179.8 1101100111 1011111000 1100010111 1111100011 10000101001 1100100000 1101010110 10000001110 1 1101101110 1010110100 1011101100 1111100001 10000100110 1111100111 1100100101 1100110011 1100011000 25.438 42.649 998.61 65467 17 15 14 60 51 3 $GNGGA,152247.00,4333.68294,N,00128.70700,E,1,06,1.86,179.8,M,53.8,M,,*48
64 15 22 48 4333.6828200128.70666179.9ó 00128.70666 179.9 1101100111 1011110111 1100010101 1111100001 10000100101 1100100000 1101011000 10000001001 1 1101101110 1010110110 1011101100 1111101011 10000101010 1111101000 1100100110 1100101100 1100001101 25.375 42.634 998.62 66466 16 15 15 59 51 3 $GNGGA,152248.00,4333.68282,N,00128.70666,E,1,06,1.86,179.9,M,53.8,M,,*40
65 15 22 49 4333.6836600128.70784180.1ó 00128.70784 180.1 1101100111 1011111000 1100011000 1111101010 10000101100 1100011110 1101010111 10000001000 1 1101101110 1010110010 1011101010 1111100100 10000101001 1111100010 1100011110 1100101100 1100010010 25.375 42.588 998.63 67465 16 15 13 58 52 4 $GNGGA,152249.00,4333.68366,N,00128.70784,E,1,06,1.78,180.1,M,53.8,M,,*48
66 15 22 50 4333.6832100128.70721180.2ó 00128.70721 180.2 1101100111 1011111001 1100010110 1111101010 10000101000 1100011111 1101011010 10000001011 1 1101101110 1010110101 1011101100 1111100011 10000101001 1111100010 1100011110 1100101111 1100010110 25.438 42.557 998.63 68463 18 15 13 60 50 4 $GNGGA,152250.00,4333.68321,N,00128.70721,E,1,06,1.86,180.2,M,53.8,M,,*4E
67 15 22 51 4333.6829900128.70683180.4ó 00128.70683 180.4 1101100111 1011111001 1100011011 1111100011 10000100110 1100100100 1101011100 10000001101 1 1101101110 1010110010 1011101010 1111100110 10000101000 1111100100 1100011100 1100101101 1100010101 25.438 42.534 998.62 69464 16 16 15 59 51 3 $GNGGA,152251.00,4333.68299,N,00128.70683,E,1,06,1.86,180.4,M,53.8,M,,*42
68 15 22 52 4333.6832500128.70794180.6ó 00128.70794 180.6 1101100111 1011110110 1100010100 1111100011 10000100110 1100100101 1101010110 10000000110 1 1101101110 1010110101 1011101101 1111101000 10000101010 1111100011 1100011110 1100100111 1100010011 25.438 42.534 998.63 70462 17 14 13 60 50 4 $GNGGA,152252.00,4333.68325,N,00128.70794,E,1,06,1.78,180.6,M,53.8,M,,*43
69 15 22 53 4333.6840100128.71061180.5ó 00128.71061 180.5 1101100111 1011110111 1100010111 1111101010 10000101001 1100100001 1101010110 10000010001 1 1101101110 1010110100 1011101100 1111101011 10000101010 1111100100 1100011111 1100110001 1100011101 25.375 42.489 998.63 71461 16 15 15 59 51 3 $GNGGA,152253.00,4333.68401,N,00128.71061,E,1,05,1.97,180.5,M,53.8,M,,*4E
70 15 22 54 4333.6838900128.71066180.5ó 00128.71066 180.5 1101100111 1011110111 1100010111 1111100011 10000101000 1100100100 1101011011 10000001010 1 1101101110 1010110100 1011101100 1111100110 10000100111 1111100001 1100011001 1100101101 1100010111 25.375 42.443 998.64 72460 15 16 14 59 51 4 $GNGGA,152254.00,4333.68389,N,00128.71066,E,1,05,1.97,180.5,M,53.8,M,,*49
71 15 22 55 4333.6843600128.71186180.5ó 00128.71186 180.5 1101100111 1011110111 1100011000 1111101011 10000100110 1100100011 1101011100 10000000100 1 1101101110 1010111000 1011101110 1111101100 10000101011 1111100000 1100011110 1100101100 1100010111 25.375 42.466 998.63 73458 17 15 14 60 50 4 $GNGGA,152255.00,4333.68436,N,00128.71186,E,1,04,3.53,180.5,M,53.8,M,,*4F
72 15 22 56 4333.6839600128.71174180.5ó 00128.71174 180.5 1101100111 1011110111 1100011000 1111100111 10000101000 1100100111 1101011001 10000000101 1 1101101110 1010110111 1011101101 1111101001 10000101010 1111100110 1100100111 1100110100 1100010111 25.375 42.534 998.63 74457 16 16 14 59 51 4 $GNGGA,152256.00,4333.68396,N,00128.71174,E,1,04,3.53,180.5,M,53.8,M,,*4C
73 15 22 57 4333.6835800128.71151180.5ó 00128.71151 180.5 1101100111 1011111000 1100011000 1111100110 10000101001 1100100101 1101011101 10000001111 1 1101101110 1010111000 1011101101 1111101100 10000101011 1111011110 1100100010 1100101111 1100010110 25.375 42.603 998.64 75456 17 14 13 59 51 4 $GNGGA,152257.00,4333.68358,N,00128.71151,E,1,05,1.97,180.5,M,53.8,M,,*43
74 15 22 58 4333.6841500128.71169180.6ó 00128.71169 180.6 1101100111 1011110110 1100010111 1111100101 10000101000 1100100000 1101010111 10000010000 1 1101101110 1010111010 1011101100 1111101100 10000101010 1111100101 1100100000 1100101101 1100011111 25.375 42.611 998.63 76454 16 14 14 59 50 4 $GNGGA,152258.00,4333.68415,N,00128.71169,E,1,05,1.97,180.6,M,53.8,M,,*4A
75 15 22 59 4333.6846200128.71314180.6ó 00128.71314 180.6 1101100111 1011110101 1100010111 1111100111 10000100110 1100100011 1101011101 10000001010 1 1101101110 1010110101 1011101100 1111101111 10000101010 1111100111 1100100011 1100110001 1100010100 25.375 42.626 998.62 77454 16 14 13 60 50 4 $GNGGA,152259.00,4333.68462,N,00128.71314,E,1,05,1.97,180.6,M,53.8,M,,*43
76 15 23 00 4333.6855200128.71519180.6ó 00128.71519 180.6 1101100111 1011111000 1100011000 1111100011 10000101001 1100100010 1101010011 10000000100 1 1101101111 1010110111 1011101111 1111101001 10000101011 1111100000 1100011110 1100100111 1100001111 25.375 42.679 998.62 78453 16 15 15 59 51 3 $GNGGA,152300.00,4333.68552,N,00128.71519,E,1,05,1.97,180.6,M,53.8,M,,*47
77 15 23 01 4333.6846000128.71286180.7ó 00128.71286 180.7 1101100111 1011111001 1100011100 1111100100 10000100110 1100011101 1101010100 10000000111 1 1101101110 1010110101 1011101110 1111101011 10000100111 1111101000 1100100100 1100101011 1100011010 25.375 42.740 998.63 79452 17 16 13 59 50 5 $GNGGA,152301.00,4333.68460,N,00128.71286,E,1,05,1.97,180.7,M,53.8,M,,*46
78 15 23 02 4333.6833700128.71049180.8ó 00128.71049 180.8 1101100111 1011111000 1100011001 1111101100 10000100111 1100100111 1101011100 10000000000 1 1101101110 1010110100 1011101100 1111101000 10000100111 1111100100 1100100100 1100110010 1100100000 25.438 42.786 998.62 80451 17 14 13 59 51 4 $GNGGA,152302.00,4333.68337,N,00128.71049,E,1,05,1.97,180.8,M,53.8,M,,*4E
79 15 23 03 4333.6837900128.71032181.1ó 00128.71032 181.1 1101100111 1011111001 1100010111 1111110000 10000101000 1100100011 1101010111 10000001010 1 1101101110 1010110110 1011101011 1111101111 10000101001 1111100100 1100100100 1100101001 1100010101 25.375 42.771 998.63 81451 17 16 14 59 50 4 $GNGGA,152303.00,4333.68379,N,00128.71032,E,1,05,1.97,181.1,M,53.8,M,,*41
80 15 23 04 4333.6834900128.70974181.1ó 00128.70974 181.1 1101100111 1011111001 1100011011 1111101100 10000100111 1100101000 1101011000 10000000100 1 1101101110 1010110111 1011101011 1111101000 10000100111 1111101001 1100100001 1100101111 1100011010 25.375 42.771 998.63 82449 18 14 13 60 50 4 $GNGGA,152304.00,4333.68349,N,00128.70974,E,1,05,1.97,181.1,M,53.8,M,,*4F
81 15 23 05 4333.6826500128.70891181.2ó 00128.70891 181.2 1101100111 1011111000 1100010111 1111101001 10000101010 1100100000 1101011011 10000001001 1 1101101110 1010111000 1011101101 1111101010 10000101011 1111100011 1100100000 1100101101 1100010101 25.375 42.878 998.63 83448 16 15 15 59 50 4 $GNGGA,152305.00,4333.68265,N,00128.70891,E,1,05,1.97,181.2,M,53.8,M,,*48
82 15 23 06 4333.6827400128.70936181.2ó 00128.70936 181.2 1101100111 1011110110 1100010110 1111101000 10000101000 1100100100 1101011101 10000000101 1 1101101110 1010110111 1011101110 1111101101 10000101010 1111100001 1100100110 1100101110 1100011010 25.375 43.015 998.63 84447 16 15 13 59 51 4 $GNGGA,152306.00,4333.68274,N,00128.70936,E,1,04,3.52,181.2,M,53.8,M,,*4D
83 15 23 07 4333.6835900128.71056181.3ó 00128.71056 181.3 1101100111 1011111000 1100011011 1111100100 10000100110 1100100000 1101011010 10000001001 1 1101101110 1010110010 1011101001 1111100001 10000101000 1111100100 1100100011 1100101000 1100001101 25.375 43.076 998.62 85445 17 15 14 60 51 3 $GNGGA,152307.00,4333.68359,N,00128.71056,E,1,04,3.52,181.3,M,53.8,M,,*4D
84 15 23 08 4333.6843500128.71203181.3ó 00128.71203 181.3 1101100111 1011110111 1100011001 1111101010 10000101010 1100011110 1101011000 10000000101 1 1101101110 1010110101 1011101011 1111101110 10000101010 1111100011 1100011101 1100101111 1100010001 25.375 43.084 998.62 86444 17 15 14 59 50 4 $GNGGA,152308.00,4333.68435,N,00128.71203,E,1,04,3.52,181.3,M,53.8,M,,*4D
85 15 23 09 4333.6839300128.71105181.2ó 00128.71105 181.2 1101100111 1011111010 1100011011 1111101101 10000101110 1100100101 1101011011 10000000100 1 1101101110 1010111000 1011101100 1111101010 10000101001 1111100001 1100011111 1100101100 1100011001 25.375 42.977 998.61 87444 17 14 13 59 51 4 $GNGGA,152309.00,4333.68393,N,00128.71105,E,1,04,3.52,181.2,M,53.8,M,,*43
86 15 23 10 4333.6847800128.71141181.1ó 00128.71141 181.1 1101100111 1011110100 1100010110 1111100101 10000101000 1100100111 1101011010 10000001101 1 1101101110 1010110110 1011101100 1111100101 10000100111 1111100110 1100100001 1100101000 1100010000 25.375 42.840 998.61 88442 16 14 14 59 50 4 $GNGGA,152310.00,4333.68478,N,00128.71141,E,1,04,3.52,181.1,M,53.8,M,,*4A
87 15 23 11 4333.6847400128.71201181.1ó 00128.71201 181.1 1101100111 1011110101 1100010101 1111101100 10000101001 1100100011 1101011000 10000000111 1 1101101110 1010111000 1011101101 1111100111 10000100111 1111100110 1100100101 1100101110 1100010101 25.375 42.756 998.61 89442 16 15 13 58 52 4 $GNGGA,152311.00,4333.68474,N,00128.71201,E,1,04,3.52,181.1,M,53.8,M,,*40
88 15 23 12 4333.6846400128.71201181.1ó 00128.71201 181.1 1101100111 1011111010 1100010111 1111100100 10000101000 1100011011 1101001111 10000000101 1 1101101110 1010110100 1011101100 1111101010 10000101001 1111100001 1100100000 1100101011 1100011000 25.375 42.702 998.61 90440 18 15 13 60 50 4 $GNGGA,152312.00,4333.68464,N,00128.71201,E,1,04,3.52,181.1,M,53.8,M,,*42
89 15 23 13 4333.6849700128.71199181.0ó 00128.71199 181.0 1101100111 1011111000 1100011001 1111101001 10000100111 1100011010 1101010100 10000000111 1 1101101110 1010111100 1011110000 1111110000 10000101100 1111100111 1100100000 1100110000 1100011101 25.375 42.687 998.61 91440 16 15 13 59 50 5 $GNGGA,152313.00,4333.68497,N,00128.71199,E,1,04,3.52,181.0,M,53.8,M,,*4C
90 15 23 14 4333.6854100128.71216181.0ó 00128.71216 181.0 1101100111 1011111001 1100011011 1111101000 10000101000 1100100011 1101010111 10000001000 1 1101101110 1010110111 1011101111 1111100110 10000100111 1111100111 1100100000 1100101101 1100010101 25.375 42.649 998.61 92438 17 14 13 59 51 4 $GNGGA,152314.00,4333.68541,N,00128.71216,E,1,04,3.51,181.0,M,53.8,M,,*46
91 15 23 15 4333.6857000128.71185181.0ó 00128.71185 181.0 1101100111 1011111001 1100011010 1111101011 10000101000 1100100001 1101011001 10000001001 1 1101101110 1010111001 1011101110 1111100101 10000101001 1111100011 1100011111 1100100110 1100001010 25.375 42.618 998.62 93437 16 14 14 58 51 4 $GNGGA,152315.00,4333.68570,N,00128.71185,E,1,04,3.51,181.0,M,53.8,M,,*4C
92 15 23 16 4333.6859500128.71238180.9ó 00128.71238 180.9 1101100111 1011111000 1100011000 1111110000 10000101000 1100100001 1101011100 10000001010 1 1101101110 1010110101 1011101100 1111101000 10000101001 1111100000 1100100001 1100110110 1100011101 25.375 42.603 998.61 94438 17 15 14 60 51 3 $GNGGA,152316.00,4333.68595,N,00128.71238,E,1,04,3.51,180.9,M,53.8,M,,*49
93 15 23 17 4333.6842400128.70994180.8ó 00128.70994 180.8 1101100111 1011110111 1100010110 1111101010 10000101011 1100011011 1101010010 10000000010 1 1101101110 1010110110 1011101101 1111101000 10000100111 1111100001 1100100111 1100110100 1100010101 25.375 42.588 998.61 95436 16 15 15 59 51 3 $GNGGA,152317.00,4333.68424,N,00128.70994,E,1,04,3.51,180.8,M,53.8,M,,*4E
94 15 23 18 4333.6835200128.71072180.6ó 00128.71072 180.6 1101100111 1011111000 1100010111 1111100101 10000101001 1100011010 1101010001 1111111111 1 1101101110 1010110101 1011101100 1111110000 10000101000 1111100100 1100011111 1100101011 1100011011 25.375 42.580 998.62 96435 16 15 13 59 51 4 $GNGGA,152318.00,4333.68352,N,00128.71072,E,1,04,3.51,180.6,M,53.8,M,,*49
95 15 23 19 4333.6838800128.71105179.8ó 00128.71105 179.8 1101100111 1011111001 1100011000 1111101000 10000101000 1100100001 1101011000 1111111111 1 1101101110 1010110110 1011101101 1111101100 10000101000 1111100101 1100100000 1100110100 1100011100 25.375 42.580 998.62 97433 17 15 14 60 51 3 $GNGGA,152319.00,4333.68388,N,00128.71105,E,1,03,4.30,179.8,M,53.8,M,,*41
96 15 23 20 4333.6834300128.71080179.7ó 00128.71080 179.7 1101100111 1011111000 1100011010 1111100101 10000100111 1100100010 1101011100 10000000100 1 1101101110 1010110110 1011101110 1111110110 10000101011 1111100100 1100100001 1100100111 1100010100 25.375 42.580 998.62 98433 16 15 14 58 51 4 $GNGGA,152320.00,4333.68343,N,00128.71080,E,1,03,4.30,179.7,M,53.8,M,,*4F
97 15 23 21 4333.6816400128.70904179.7ó 00128.70904 179.7 1101100111 1011110111 1100010110 1111100100 10000100111 1100011110 1101010111 10000000001 1 1101101110 1010111011 1011101011 1111101001 10000101001 1111100010 1100100010 1100101111 1100010111 25.375 42.588 998.62 99431 17 14 13 60 50 4 $GNGGA,152321.00,4333.68164,N,00128.70904,E,1,04,3.51,179.7,M,53.8,M,,*4A
98 15 23 22 4333.6807100128.70925179.5ó 00128.70925 179.5 1101100111 1011110111 1100011001 1111100110 10000100101 1100100010 1101010110 10000000000 1 1101101110 1010111011 1011101101 1111101101 10000101000 1111011011 1100011011 1100111000 1100100011 25.438 42.710 998.61 100430 16 15 15 59 51 3 $GNGGA,152322.00,4333.68071,N,00128.70925,E,1,04,3.51,179.5,M,53.8,M,,*4D
99 15 23 23 4333.6805000128.70979179.5ó 00128.70979 179.5 1101100111 1011111000 1100011000 1111101000 10000101010 1100100000 1101011000 10000000001 1 1101101110 1010111011 1011101100 1111101011 10000101001 1111100010 1100100100 1100100110 1100010100 25.313 42.901 998.62 101429 16 15 13 59 51 4 $GNGGA,152323.00,4333.68050,N,00128.70979,E,1,04,3.51,179.5,M,53.8,M,,*46
100 15 23 24 4333.6802600128.70961179.4ó 00128.70961 179.4 1101100111 1011110110 1100010111 1111100010 10000100111 1100100100 1101010101 1111111100 1 1101101110 1010111011 1011101100 1111101011 10000100111 1111100110 1100100001 1100101110 1100010111 25.375 42.916 998.62 102429 17 15 14 60 51 3 $GNGGA,152324.00,4333.68026,N,00128.70961,E,1,04,3.51,179.4,M,53.8,M,,*48
101 15 23 25 4333.6801700128.70765179.3ó 00128.70765 179.3 1101100110 1011110111 1100010110 1111101001 10000101010 1100100111 1101011101 10000000101 1 1101101110 1010110111 1011101011 1111101010 10000101011 1111100100 1100100101 1100110001 1100011011 25.375 42.824 998.61 103428 16 16 14 59 51 4 $GNGGA,152325.00,4333.68017,N,00128.70765,E,1,04,3.51,179.3,M,53.8,M,,*46
102 15 23 26 4333.6806600128.70773179.2ó 00128.70773 179.2 1101100110 1011110110 1100010111 1111101010 10000101000 1100010111 1101001101 10000000000 1 1101101110 1010111101 1011101110 1111110000 10000101100 1111100100 1100100011 1100100110 1100010010 25.375 42.756 998.60 104427 17 15 14 60 51 3 $GNGGA,152326.00,4333.68066,N,00128.70773,E,1,04,3.50,179.2,M,53.8,M,,*44
103 15 23 27 4333.6806300128.70855179.2ó 00128.70855 179.2 1101100111 1011111000 1100010111 1111100111 10000101001 1100100010 1101011100 1111111111 1 1101101110 1011000000 1011101100 1111110010 10000101010 1111100010 1100011101 1100101101 1100011010 25.375 42.725 998.61 105425 16 14 14 58 51 4 $GNGGA,152327.00,4333.68063,N,00128.70855,E,1,04,3.50,179.2,M,53.8,M,,*4B
104 15 23 28 4333.6812900128.71064179.1ó 00128.71064 179.1 1101100111 1011111010 1100011010 1111101010 10000101001 1100100001 1101011000 10000000000 1 1101101110 1010111010 1011101001 1111110111 10000101010 1111100100 1100100011 1100110011 1100010110 25.375 42.725 998.62 106425 16 16 14 60 51 3 $GNGGA,152328.00,4333.68129,N,00128.71064,E,1,05,2.20,179.1,M,53.8,M,,*44
105 15 23 29 4333.6825000128.71254179.0ó 00128.71254 179.0 1101100111 1011110111 1100011011 1111101011 10000101001 1100011101 1101011000 10000001000 1 1101101110 1010111110 1011101101 1111111110 10000101010 1111101000 1100100111 1100101011 1100010101 25.375 42.710 998.61 107424 17 14 14 59 50 4 $GNGGA,152329.00,4333.68250,N,00128.71254,E,1,05,2.20,179.0,M,53.8,M,,*48
106 15 23 30 4333.6822400128.71462178.9ó 00128.71462 178.9 1101100111 1011110101 1100010110 1111100101 10000100110 1100011110 1101010010 1111111010 1 1101101110 1010111011 1011101101 1111111100 10000101001 1111011111 1100100010 1100100110 1100010000 25.375 42.687 998.61 108422 16 16 14 59 52 3 $GNGGA,152330.00,4333.68224,N,00128.71462,E,1,05,2.20,178.9,M,53.8,M,,*48
107 15 23 31 4333.6813600128.71415178.7ó 00128.71415 178.7 1101100111 1011110110 1100010110 1111101001 10000101010 1100100010 1101010111 10000000010 1 1101101110 1010111000 1011101101 1111111010 10000101010 1111101001 1100100010 1100110000 1100011000 25.438 42.672 998.60 109423 18 15 13 60 50 4 $GNGGA,152331.00,4333.68136,N,00128.71415,E,1,05,2.20,178.7,M,53.8,M,,*47
108 15 23 32 4333.6833800128.71789178.5ó 00128.71789 178.5 1101100111 1011111000 1100011001 1111100110 10000101001 1100100000 1101010110 10000000001 1 1101101110 1010110001 1011101010 1111110111 10000101000 1111011010 1100011110 1100110001 1100010111 25.375 42.672 998.61 110422 16 15 14 58 51 4 $GNGGA,152332.00,4333.68338,N,00128.71789,E,1,05,2.20,178.5,M,53.8,M,,*4C
109 15 23 33 4333.6833400128.71748178.5ó 00128.71748 178.5 1101100111 1011111001 1100011010 1111101110 10000101001 1100011111 1101010101 10000000000 1 1101101110 1010110010 1011101101 1111110111 10000101000 1111100011 1100011011 1100101001 1100001111 25.375 42.679 998.61 111420 17 14 13 60 50 4 $GNGGA,152333.00,4333.68334,N,00128.71748,E,1,04,3.50,178.5,M,53.8,M,,*4B
110 15 23 34 4333.6825200128.71929178.4ó 00128.71929 178.4 1101100111 1011110111 1100010110 1111101011 10000101011 1100100110 1101011010 10000000010 1 1101101110 1010110100 1011101100 1111110100 10000101010 1111100100 1100100000 1100110001 1100010111 25.375 42.717 998.60 112419 16 14 14 58 51 4 $GNGGA,152334.00,4333.68252,N,00128.71929,E,1,04,3.50,178.4,M,53.8,M,,*45
111 15 23 35 4333.6826300128.72022178.3ó 00128.72022 178.3 1101100111 1011111010 1100011011 1111101100 10000101010 1100100001 1101011111 10000001000 1 1101101110 1010110001 1011101001 1111101011 10000100111 1111100110 1100100111 1100101011 1100010000 25.375 42.771 998.62 113419 16 15 13 58 52 4 $GNGGA,152335.00,4333.68263,N,00128.72022,E,1,04,3.50,178.3,M,53.8,M,,*40
112 15 23 36 4333.6837100128.72114178.2ó 00128.72114 178.2 1101100111 1011110111 1100010110 1111101101 10000101000 1100100000 1101010111 10000000101 1 1101101110 1010110100 1011101100 1111100101 10000101001 1111100101 1100100101 1100101011 1100010101 25.438 42.779 998.62 114417 17 14 14 59 51 3 $GNGGA,152336.00,4333.68371,N,00128.72114,E,1,03,4.28,178.2,M,53.8,M,,*4B
113 15 23 37 4333.6851400128.72268178.1ó 00128.72268 178.1 1101100111 1011110111 1100010111 1111101001 10000101010 1100011111 1101010101 10000000111 1 1101101110 1010110101 1011101110 1111100111 10000100111 1111100101 1100100100 1100101101 1100010110 25.375 42.771 998.60 115417 16 16 14 59 51 4 $GNGGA,152337.00,4333.68514,N,00128.72268,E,1,04,3.49,178.1,M,53.8,M,,*43
114 15 23 38 4333.6828600128.72443178.0ó 00128.72443 178.0 1101100111 1011110111 1100011001 1111110000 10000101100 1100100000 1101011000 1111111100 1 1101101110 1010110111 1011101100 1111100111 10000101011 1111100101 1100100100 1100101110 1100010011 25.438 42.771 998.60 116415 17 14 13 59 51 4 $GNGGA,152338.00,4333.68286,N,00128.72443,E,1,04,3.49,178.0,M,53.8,M,,*4E
115 15 23 39 4333.6836000128.72527177.9ó 00128.72527 177.9 1101100111 1011111001 1100011001 1111100100 10000100110 1100011100 1101010110 10000000010 1 1101101110 1010111001 1011101100 1111101011 10000101010 1111100010 1100011110 1100101010 1100011000 25.375 42.809 998.61 117414 16 15 15 59 51 3 $GNGGA,152339.00,4333.68360,N,00128.72527,E,1,04,3.49,177.9,M,53.8,M,,*43
116 15 23 40 4333.6832800128.72571177.8ó 00128.72571 177.8 1101100111 1011111000 1100011000 1111100111 10000100110 1100100000 1101010110 10000000110 1 1101101110 1010111001 1011101101 1111100100 10000101000 1111100001 1100100000 1100101100 1100010110 25.375 42.916 998.61 118413 16 16 14 59 52 3 $GNGGA,152340.00,4333.68328,N,00128.72571,E,1,04,3.49,177.8,M,53.8,M,,*43
117 15 23 41 4333.6835200128.72555177.8ó 00128.72555 177.8 1101100111 1011111001 1100010111 1111101101 10000100111 1100011101 1101010101 10000001011 1 1101101110 1010111010 1011101110 1111101010 10000101000 1111100001 1100100000 1100101110 1100011100 25.438 42.901 998.61 119409 17 14 13 60 50 4 $GNGGA,152341.00,4333.68352,N,00128.72555,E,1,04,3.49,177.8,M,53.8,M,,*49
118 15 23 42 4333.6846400128.72642177.7ó 00128.72642 177.7 1101100111 1011111010 1100011010 1111110000 10000101010 1100011111 1101011000 10000000100 1 1101101110 1010110101 1011101011 1111110100 10000101010 1111101000 1100100001 1100100110 1100011000 25.438 42.855 998.60 120409 17 15 13 59 50 5 $GNGGA,152342.00,4333.68464,N,00128.72642,E,1,04,3.49,177.7,M,53.8,M,,*42
119 15 23 43 4333.6853500128.72827177.7ó 00128.72827 177.7 1101100111 1011111001 1100010111 1111101010 10000101000 1100100011 1101010111 10000001111 1 1101101110 1010110101 1011101011 1111110100 10000101011 1111100101 1100100101 1100110000 1100011000 25.375 42.809 998.61 121409 17 14 13 59 51 4 $GNGGA,152343.00,4333.68535,N,00128.72827,E,1,04,3.49,177.7,M,53.8,M,,*4B
120 15 23 44 4333.6858300128.73050177.6ó 00128.73050 177.6 1101100111 1011110101 1100010110 1111101010 10000101001 1100100000 1101010110 10000001001 1 1101101110 1010111001 1011110000 1111101010 10000101000 1111100101 1100011111 1100101100 1100010110 25.375 42.794 998.61 122408 16 15 15 59 51 3 $GNGGA,152344.00,4333.68583,N,00128.73050,E,1,04,3.49,177.6,M,53.8,M,,*49
121 15 23 45 4333.6863400128.73014177.6ó 00128.73014 177.6 1101100111 1011110111 1100011000 1111101110 10000100111 1100100010 1101011000 10000010001 1 1101101110 1010110011 1011101000 1111101101 10000101010 1111011111 1100011110 1100101011 1100001110 25.375 42.809 998.60 123407 17 14 13 59 51 4 $GNGGA,152345.00,4333.68634,N,00128.73014,E,1,04,3.49,177.6,M,53.8,M,,*47
122 15 23 46 4333.6869200128.73291177.5ó 00128.73291 177.5 1101100111 1011111010 1100011000 1111110000 10000101100 1100011101 1101011011 10000001110 1 1101101110 1010110100 1011101010 1111101010 10000101011 1111100100 1100100011 1100110000 1100010111 25.375 42.733 998.61 124405 16 14 14 59 50 4 $GNGGA,152346.00,4333.68692,N,00128.73291,E,1,04,3.49,177.5,M,53.8,M,,*44
123 15 23 47 4333.6869000128.73367177.4ó 00128.73367 177.4 1101100111 1011111000 1100011000 1111100100 10000101000 1100100011 1101011010 10000001111 1 1101101110 1010110101 1011101110 1111101101 10000101001 1111100011 1100100001 1100110010 1100011011 25.375 42.679 998.60 125405 16 15 13 58 52 4 $GNGGA,152347.00,4333.68690,N,00128.73367,E,1,04,3.49,177.4,M,53.8,M,,*4E
124 15 23 48 4333.6852500128.73365177.4ó 00128.73365 177.4 1101100110 1011111100 1100011001 1111100011 10000101000 1100100000 1101010110 10000001101 1 1101101110 1010110111 1011101011 1111101001 10000101001 1111100100 1100100100 1100110011 1100011110 25.375 42.656 998.60 126403 17 15 14 60 51 3 $GNGGA,152348.00,4333.68525,N,00128.73365,E,1,04,3.49,177.4,M,53.8,M,,*4E
125 15 23 49 4333.6858400128.73404177.4ó 00128.73404 177.4 1101100111 1011110101 1100010110 1111101110 10000101101 1100100001 1101011100 10000001110 1 1101101110 1010111001 1011101110 1111100010 10000101000 1111100100 1100011111 1100101011 1100010101 25.375 42.656 998.62 127403 16 15 14 58 51 4 $GNGGA,152349.00,4333.68584,N,00128.73404,E,1,04,3.48,177.4,M,53.8,M,,*45
126 15 23 50 4333.6860100128.73551177.3ó 00128.73551 177.3 1101100111 1011111000 1100011001 1111101100 10000101000 1100011110 1101011001 10000001111 1 1101101110 1010110110 1011101110 1111101011 10000101001 1111100011 1100011111 1100101001 1100011110 25.375 42.687 998.62 128402 17 14 13 60 50 4 $GNGGA,152350.00,4333.68601,N,00128.73551,E,1,04,3.48,177.3,M,53.8,M,,*45
127 15 23 51 4333.6859000128.73537177.3ó 00128.73537 177.3 1101100111 1011111000 1100011000 1111101001 10000101000 1100100100 1101011101 10000001011 1 1101101110 1010110011 1011101010 1111101110 10000101100 1111100010 1100011101 1100101001 1100010100 25.438 42.717 998.61 129400 16 14 14 59 50 4 $GNGGA,152351.00,4333.68590,N,00128.73537,E,1,03,4.27,177.3,M,53.8,M,,*46
128 15 23 52 4333.6857900128.73656177.2ó 00128.73656 177.2 1101100110 1011111001 1100011010 1111110010 10000101010 1100100010 1101010111 10000000110 1 1101101110 1010111001 1011101110 1111101100 10000101010 1111100110 1100011110 1100101010 1100010010 25.438 42.763 998.61 130400 16 15 13 58 52 4 $GNGGA,152352.00,4333.68579,N,00128.73656,E,1,03,4.40,177.2,M,53.8,M,,*46
129 15 23 53 4333.6856400128.73609177.1ó 00128.73609 177.1 1101100111 1011111000 1100011000 1111110000 10000101001 1100100000 1101010101 10000000010 1 1101101110 1010110101 1011101100 1111100110 10000101011 1111100100 1100100000 1100101111 1100010101 25.375 42.801 998.60 131400 17 14 14 60 51 3 $GNGGA,152353.00,4333.68564,N,00128.73609,E,1,03,4.27,177.1,M,53.8,M,,*43
130 15 23 54 4333.6870900128.73698177.1ó 00128.73698 177.1 1101100111 1011111010 1100011010 1111101010 10000101011 1100100010 1101010101 10000001101 1 1101101110 1010110101 1011101101 1111101001 10000101011 1111100101 1100100000 1100110011 1100011101 25.438 42.840 998.61 132400 17 16 13 59 50 5 $GNGGA,152354.00,4333.68709,N,00128.73698,E,1,03,7.49,177.1,M,53.8,M,,*4E
131 15 23 55 Nan Nan Nan 1101100111 1011111000 1100011001 1111101001 10000100111 1100011110 1101010111 10000000101 1 1101101110 1010110111 1011101011 1111100111 10000101000 1111011110 1100011100 1100110011 1100010111 25.375 42.862 998.61 133383 16 7 11 59 52 3 $GNGGA,152355.00,,,,,0,00,99.9,,,,,,*44
132 15 23 56 Nan Nan Nan 1101100111 1011111001 1100011100 1111101000 10000100110 1100011111 1101010011 10000001010 1 1101101110 1010110011 1011101101 1111100110 10000101010 1111100010 1100100000 1100110010 1100011100 25.438 42.840 998.60 134381 17 6 11 60 50 4 $GNGGA,152356.00,,,,,0,00,99.9,,,,,,*47
133 15 23 57 Nan Nan Nan 1101100111 1011111000 1100011000 1111101010 10000100101 1100100000 1101011010 10000000001 1 1101101110 1010110010 1011101001 1111100111 10000101001 1111100010 1100011111 1100110111 1100011010 25.375 42.847 998.60 135380 16 7 11 58 51 4 $GNGGA,152357.00,,,,,0,00,99.9,,,,,,*46
134 15 23 58 Nan Nan Nan 1101100111 1011111000 1100011000 1111101100 10000101010 1100100010 1101011000 10000000101 1 1101101110 1010110101 1011101110 1111100111 10000101001 1111100100 1100100101 1100101010 1100010101 25.375 42.954 998.60 136380 16 7 11 60 51 3 $GNGGA,152358.00,,,,,0,00,99.9,,,,,,*49
135 15 23 59 Nan Nan Nan 1101100111 1011110111 1100010111 1111110001 10000101100 1100011011 1101010100 10000001000 1 1101101110 1010111001 1011101110 1111101100 10000101101 1111011110 1100011110 1100110001 1100010011 25.375 43.038 998.60 137377 17 7 10 58 51 4 $GNGGA,152359.00,,,,,0,00,99.9,,,,,,*48
136 15 24 00 Nan Nan Nan 1101100111 1011111001 1100011001 1111101011 10000101000 1100100001 1101011010 10000000111 1 1101101110 1010110101 1011101101 1111101011 10000101010 1111100111 1100100100 1100101101 1100010010 25.375 43.015 998.60 138378 16 7 11 59 52 3 $GNGGA,152400.00,,,,,0,00,99.9,,,,,,*43
137 15 24 01 Nan Nan Nan 1101100111 1011111011 1100010111 1111101001 10000100111 1100100100 1101010111 10000000110 1 1101101110 1010111001 1011101100 1111101011 10000101011 1111101000 1100100001 1100110100 1100011110 25.375 43.068 998.59 139377 17 7 11 60 51 3 $GNGGA,152401.00,,,,,0,00,99.9,,,,,,*42
138 15 24 02 Nan Nan Nan 1101100111 1011111001 1100011001 1111101001 10000101010 1100100000 1101010110 10000001010 1 1101101110 1010111011 1011110000 1111101000 10000101000 1111100011 1100011001 1100110011 1100100100 25.375 43.091 998.61 140376 16 8 12 59 51 3 $GNGGA,152402.00,,,,,0,00,99.9,,,,,,*41
139 15 24 03 Nan Nan Nan 1101100111 1011111000 1100011001 1111101001 10000101010 1100011101 1101010101 10000001101 1 1101101110 1010111010 1011101110 1111100100 10000100111 1111100110 1100100101 1100101001 1100010000 25.375 43.122 998.62 141377 17 7 11 60 50 4 $GNGGA,152403.00,,,,,0,00,99.9,,,,,,*40
140 15 24 04 Nan Nan Nan 1101100111 1011111100 1100011011 1111101101 10000101010 1100011101 1101010110 10000000110 1 1101101110 1010110101 1011101011 1111101001 10000101010 1111100100 1100100000 1100101011 1100010011 25.438 43.122 998.63 142373 16 7 12 59 51 3 $GNGGA,152404.00,,,,,0,00,99.9,,,,,,*47
141 15 24 05 Nan Nan Nan 1101100111 1011111000 1100010111 1111101101 10000101001 1100100001 1101011100 1111111111 1 1101101110 1010110111 1011101101 1111101001 10000101000 1111100011 1100100110 1100101100 1100011000 25.375 43.107 998.61 143372 16 7 10 58 52 4 $GNGGA,152405.00,,,,,0,00,99.9,,,,,,*46
142 15 24 06 Nan Nan Nan 1101100111 1011111010 1100011000 1111101001 10000101001 1100011000 1101010001 10000000000 1 1101101110 1010111001 1011101010 1111110001 10000101010 1111100011 1100100110 1100101011 1100011011 25.375 43.107 998.62 144370 17 7 10 59 51 4 $GNGGA,152406.00,,,,,0,00,99.9,,,,,,*45
143 15 24 07 Nan Nan Nan 1101100111 1011110110 1100010101 1111101011 10000101110 1100100000 1101010111 10000000001 1 1101101110 1010111100 1011101100 1111101101 10000101001 1111011100 1100011100 1100100111 1100010000 25.375 43.122 998.63 145371 16 8 11 59 50 5 $GNGGA,152407.00,,,,,0,00,99.9,,,,,,*44
144 15 24 08 Nan Nan Nan 1101100111 1011110111 1100010111 1111110000 10000101101 1100011110 1101010111 10000000011 1 1101101110 1010111011 1011101110 1111101010 10000101010 1111011110 1100011110 1100101101 1100011001 25.438 43.282 998.62 146368 17 7 10 59 51 4 $GNGGA,152408.00,,,,,0,00,99.9,,,,,,*4B
145 15 24 09 Nan Nan Nan 1101100111 1011110111 1100010111 1111110011 10000101010 1100100000 1101011001 10000000000 1 1101101110 1010111111 1011101100 1111101101 10000100111 1111100011 1100100000 1100101101 1100011011 25.375 43.587 998.62 147367 16 7 12 59 50 4 $GNGGA,152409.00,,,,,0,00,99.9,,,,,,*4A
146 15 24 10 Nan Nan Nan 1101100110 1011111000 1100011000 1111110011 10000101011 1100011100 1101010111 10000000010 1 1101101110 1011001000 1011101101 1111111001 10000101000 1111011111 1100011111 1100101100 1100011100 25.375 43.931 998.62 148365 16 7 11 59 52 3 $GNGGA,152410.00,,,,,0,00,99.9,,,,,,*42
147 15 24 11 Nan Nan Nan 1101100111 1011111001 1100011010 1111101111 10000101000 1100011010 1101010010 10000000010 1 1101101110 1011001101 1011101011 10000000101 10000101010 1111011110 1100100001 1100110011 1100100000 25.438 44.266 998.62 149365 17 7 10 58 51 4 $GNGGA,152411.00,,,,,0,00,99.9,,,,,,*43
148 15 24 12 Nan Nan Nan 1101100111 1011110111 1100011000 1111101100 10000101001 1100011011 1101010100 10000001000 1 1101101110 1011001010 1011101110 10000010001 10000101101 1111011110 1100100011 1100101101 1100011011 25.438 44.465 998.62 150364 16 6 11 59 51 4 $GNGGA,152412.00,,,,,0,00,99.9,,,,,,*40
149 15 24 13 Nan Nan Nan 1101100111 1011111000 1100010111 1111101100 10000101001 1100011111 1101011011 10000000011 1 1101101110 1011001011 1011101111 10000011010 10000101001 1111011101 1100100100 1100101110 1100010100 25.438 44.190 998.62 151363 17 7 11 60 51 3 $GNGGA,152413.00,,,,,0,00,99.9,,,,,,*41
150 15 24 14 Nan Nan Nan 1101100111 1011110111 1100011000 1111101011 10000100111 1100011111 1101011000 10000001001 1 1101101110 1011000110 1011101101 10000100000 10000101010 1111011000 1100011100 1100110000 1100011101 25.375 43.770 998.61 152361 16 6 12 59 50 4 $GNGGA,152414.00,,,,,0,00,99.9,,,,,,*46
151 15 24 15 Nan Nan Nan 1101100111 1011111001 1100011001 1111100111 10000100110 1100011111 1101010100 10000000101 1 1101101110 1011001001 1011101111 10000011011 10000101011 1111011001 1100011000 1100101011 1100001111 25.375 43.488 998.62 153362 17 7 10 59 51 4 $GNGGA,152415.00,,,,,0,00,99.9,,,,,,*47
152 15 24 16 Nan Nan Nan 1101100110 1011111000 1100010111 1111110000 10000101011 1100100000 1101010110 10000001100 1 1101101110 1011000101 1011101110 10000010111 10000101000 1111010110 1100011101 1100101010 1100010111 25.375 43.290 998.62 154360 16 7 11 58 51 4 $GNGGA,152416.00,,,,,0,00,99.9,,,,,,*44
153 15 24 17 Nan Nan Nan 1101100111 1011111001 1100011011 1111110010 10000101011 1100011100 1101011000 10000000110 1 1101101110 1011000111 1011101111 10000011101 10000101100 1111010010 1100011010 1100110110 1100010100 25.375 43.160 998.63 155358 17 7 10 58 52 4 $GNGGA,152417.00,,,,,0,00,99.9,,,,,,*45
154 15 24 18 Nan Nan Nan 1101100111 1011110111 1100011010 1111101101 10000101001 1100011110 1101010111 10000000101 1 1101101110 1011000010 1011101100 10000011010 10000101011 1111011011 1100011100 1100110001 1100011111 25.438 43.061 998.64 156369 16 7 12 59 51 3 $GNGGA,152418.00,,,,,0,00,3.66,,,,,,*40
155 15 24 19 Nan Nan Nan 1101100110 1011111010 1100011010 1111101011 10000100111 1100011110 1101011000 10000001001 1 1101101110 1010111101 1011101101 10000010100 10000101000 1111011000 1100011010 1100110011 1100011010 25.375 43.007 998.63 157361 16 8 11 59 52 3 $GNGGA,152419.00,,,,,0,00,3.66,,,,,,*41
156 15 24 20 Nan Nan Nan 1101100111 1011111010 1100011011 1111110001 10000101001 1100011010 1101010100 10000001001 1 1101101110 1010110110 1011101011 10000001110 10000101010 1111011001 1100100000 1100110010 1100010011 25.375 43.252 998.62 158359 17 7 11 60 51 3 $GNGGA,152420.00,,,,,0,00,3.66,,,,,,*4B
157 15 24 21 Nan Nan Nan 1101100111 1011111010 1100011101 1111101100 10000101010 1100011010 1101010110 10000010000 1 1101101110 1010111011 1011101111 10000000111 10000101010 1111011010 1100011101 1100110000 1100010101 25.438 43.328 998.64 159354 16 7 11 58 51 4 $GNGGA,152421.00,,,,,0,00,99.9,,,,,,*40
158 15 24 22 Nan Nan Nan 1101100111 1011111000 1100011000 1111110100 10000101100 1100100001 1101011001 10000000110 1 1101101110 1010111001 1011101100 10000000010 10000101011 1111011110 1100011110 1100110100 1100010110 25.375 43.168 998.64 160358 16 7 11 60 51 3 $GNGGA,152422.00,,,,,0,00,3.66,,,,,,*49
159 15 24 23 Nan Nan Nan 1101100110 1011111000 1100010111 1111110011 10000100110 1100100010 1101011001 10000000111 1 1101101110 1010111110 1011101011 1111111100 10000101001 1111100100 1100101011 1100101111 1100011001 25.375 43.450 998.64 161355 17 6 11 59 50 4 $GNGGA,152423.00,,,,,0,00,3.65,,,,,,*4B
160 15 24 24 Nan Nan Nan 1101100111 1011111011 1100011001 1111110011 10000101010 1100011111 1101011000 10000001010 1 1101101110 1011000000 1011101101 10000000000 10000101100 1111100000 1100100000 1100110000 1100010010 25.500 43.580 998.64 162356 16 7 10 58 52 4 $GNGGA,152424.00,,,,,0,00,3.65,,,,,,*4C
161 15 24 25 Nan Nan Nan 1101100111 1011111010 1100011000 1111110111 10000101101 1100011100 1101010110 10000000110 1 1101101110 1011000100 1011101101 10000000110 10000101011 1111011001 1100100000 1100101101 1100011011 25.438 43.572 998.64 163354 17 7 11 60 51 3 $GNGGA,152425.00,,,,,0,00,3.65,,,,,,*4D
162 15 24 26 Nan Nan Nan 1101100111 1011111001 1100011001 1111110110 10000101010 1100100001 1101011011 10000010000 1 1101101110 1011001001 1011101101 10000001001 10000101010 1111011000 1100100001 1100110000 1100010010 25.438 43.511 998.64 164350 16 7 12 59 51 3 $GNGGA,152426.00,,,,,0,00,99.9,,,,,,*47
163 15 24 27 Nan Nan Nan 1101100110 1011111000 1100010111 1111110101 10000101100 1100100010 1101011100 10000010100 1 1101101110 1011010010 1011101111 10000010100 10000101011 1111011001 1100011101 1100101111 1100011101 25.438 43.442 998.64 165353 17 7 11 60 51 3 $GNGGA,152427.00,,,,,0,00,3.45,,,,,,*4D
164 15 24 28 4333.7034500128.76579177.0ó 00128.76579 177.0 1101100111 1011111001 1100010111 1111110011 10000101011 1100100010 1101010110 10000010100 1 1101101110 1011010100 1011101111 10000011100 10000101101 1111011011 1100100101 1100110011 1100011101 25.438 43.480 998.62 166360 17 15 13 59 50 5 $GNGGA,152428.00,4333.70345,N,00128.76579,E,1,04,3.45,177.0,M,53.8,M,,*40
165 15 24 29 4333.7028600128.76615176.6ó 00128.76615 176.6 1101100111 1011111011 1100011100 1111101110 10000101000 1100011111 1101011001 10000010001 1 1101101110 1011010100 1011101101 10000100111 10000101010 1111010110 1100100010 1100101111 1100010110 25.438 43.526 998.62 167360 17 14 13 60 50 4 $GNGGA,152429.00,4333.70286,N,00128.76615,E,1,04,3.45,176.6,M,53.8,M,,*41
166 15 24 30 4333.7009600128.76236176.4ó 00128.76236 176.4 1101100111 1011111101 1100011010 1111110100 10000101010 1100100011 1101011011 10000001110 1 1101101110 1011011001 1011101011 10000110111 10000101010 1111010111 1100100001 1100101110 1100011001 25.438 43.557 998.63 168360 16 15 15 59 51 3 $GNGGA,152430.00,4333.70096,N,00128.76236,E,1,04,3.45,176.4,M,53.8,M,,*4D
