id HH MM SS longitude latitude altitude adc_1_ch0 adc_1_ch1 adc_1_ch2 adc_1_ch3 adc_1_ch4 adc_1_ch5 adc_1_ch6 adc_1_ch7 adc_1_ch8 adc_2_ch0 adc_2_ch1 adc_2_ch2 adc_2_ch3 adc_2_ch4 adc_2_ch5 adc_2_ch6 adc_2_ch7 adc_2_ch8 temp hum pres t_prog t_gps t_split t_adc t_temp t_hum t_pres trame_gga
1 15 36 22 4333.7105700128.73826155.5ó 00128.73826 155.5 1101100111 1011111101 1100011111 1111100100 10000101011 1100100010 1101010101 10000000111 1 1101101101 1010111111 1011101111 1111111100 10000101110 1110111111 1100011001 1100100100 1100010110 25.813 42.313 795.83 3892 16 15 13 59 51 4 $GNGGA,153622.00,4333.71057,N,00128.73826,E,1,04,2.86,155.5,M,53.8,M,,*41
2 15 36 23 4333.7109500128.73799155.5ó 00128.73799 155.5 1101100111 1011111001 1100011101 1111101010 10000101110 1100100110 1101010110 10000001110 1 1101101101 1011000000 1011110000 1111111011 10000101100 1110111111 1100011110 1100110000 1100010110 25.813 42.191 998.56 4891 17 15 14 60 51 3 $GNGGA,153623.00,4333.71095,N,00128.73799,E,1,04,2.86,155.5,M,53.8,M,,*45
3 15 36 24 4333.7106400128.73853155.4ó 00128.73853 155.4 1101100111 1011111110 1100100000 1111101001 10000101100 1100011111 1101011011 10000001111 1 1101101101 1011000001 1011110010 1111111000 10000101111 1110111111 1100011100 1100101011 1100010111 25.813 41.817 998.56 5889 16 16 15 59 51 3 $GNGGA,153624.00,4333.71064,N,00128.73853,E,1,04,2.86,155.4,M,53.8,M,,*44
4 15 36 25 4333.7118000128.73850155.4ó 00128.73850 155.4 1101100111 1011111100 1100011101 1111110001 10000110000 1100100010 1101011000 10000001000 1 1101101101 1011000000 1011110000 1111111011 10000101110 1111000010 1100011110 1100100110 1100010011 25.813 41.474 998.58 6889 17 14 13 59 51 4 $GNGGA,153625.00,4333.71180,N,00128.73850,E,1,04,2.86,155.4,M,53.8,M,,*4D
5 15 36 26 4333.7101200128.73851155.4ó 00128.73851 155.4 1101100111 1011111001 1100011100 1111101110 10000101100 1100100000 1101010010 10000001001 1 1101101101 1011000000 1011110000 1111111100 10000101100 1111000111 1100011100 1100101001 1100010111 25.813 41.253 998.58 7888 16 15 15 59 51 3 $GNGGA,153626.00,4333.71012,N,00128.73851,E,1,04,2.86,155.4,M,53.8,M,,*45
6 15 36 27 4333.7099800128.73868155.4ó 00128.73868 155.4 1101100111 1011111111 1100011110 1111101010 10000101101 1100011100 1101010110 10000000110 1 1101101101 1010111110 1011110000 1111111011 10000101110 1111001000 1100100000 1100101101 1100011001 25.813 41.146 998.58 8886 16 16 14 59 52 3 $GNGGA,153627.00,4333.70998,N,00128.73868,E,1,04,2.85,155.4,M,53.8,M,,*47
7 15 36 28 4333.7087400128.73875155.4ó 00128.73875 155.4 1101100111 1011111011 1100011101 1111100111 10000101100 1100100010 1101011010 10000000110 1 1101101101 1010111101 1011101111 1111111001 10000101111 1111001001 1100011110 1100101110 1100011011 25.813 41.115 998.57 9886 17 15 14 60 51 3 $GNGGA,153628.00,4333.70874,N,00128.73875,E,1,04,2.85,155.4,M,53.8,M,,*47
8 15 36 29 4333.7076800128.73884155.5ó 00128.73884 155.5 1101100111 1011111100 1100011111 1111101100 10000101010 1100100010 1101011001 10000001100 1 1101101101 1010111011 1011101101 1111110101 10000101100 1111000011 1100011100 1100101100 1100010101 25.813 41.520 998.58 10885 16 15 13 58 51 5 $GNGGA,153629.00,4333.70768,N,00128.73884,E,1,04,2.85,155.5,M,53.8,M,,*4B
9 15 36 30 4333.7071100128.73910155.4ó 00128.73910 155.4 1101100111 1011111111 1100100001 1111100110 10000101011 1100100010 1101011000 10000001001 1 1101101101 1010111110 1011101110 1111111010 10000101101 1111000110 1100011001 1100101100 1100010110 25.813 41.970 998.57 11885 17 15 14 60 50 4 $GNGGA,153630.00,4333.70711,N,00128.73910,E,1,04,2.85,155.4,M,53.8,M,,*40
10 15 36 31 4333.7052700128.73890155.3ó 00128.73890 155.3 1101100111 1011111101 1100100001 1111101101 10000101110 1100100100 1101011001 10000000111 1 1101101101 1010111110 1011110000 1111111000 10000101111 1111000110 1100011111 1100100101 1100010000 25.813 42.214 998.57 12884 16 14 14 58 51 4 $GNGGA,153631.00,4333.70527,N,00128.73890,E,1,05,2.72,155.3,M,53.8,M,,*41
11 15 36 32 4333.7035100128.73841155.2ó 00128.73841 155.2 1101100111 1011111110 1100011111 1111110010 10000101110 1100011111 1101010011 10000001000 1 1101101101 1011000001 1011110011 1111111110 10000101101 1110111101 1100011001 1100101001 1100010111 25.813 42.389 998.56 13883 17 14 13 59 51 4 $GNGGA,153632.00,4333.70351,N,00128.73841,E,1,05,2.72,155.2,M,53.8,M,,*48
12 15 36 33 4333.7025000128.73813155.1ó 00128.73813 155.1 1101100111 1100000001 1100100001 1111101111 10000110001 1100100000 1101010111 10000001001 1 1101101101 1010111010 1011110001 1111111100 10000101111 1111000101 1100011101 1100100111 1100010110 25.813 42.496 998.57 14882 16 14 14 58 51 4 $GNGGA,153633.00,4333.70250,N,00128.73813,E,1,05,2.72,155.1,M,53.8,M,,*4D
13 15 36 34 4333.7018800128.73851155.0ó 00128.73851 155.0 1101100111 1011111101 1100011110 1111101101 10000101110 1100100000 1101010110 10000000111 1 1101101101 1011000000 1011110001 1111110110 10000101101 1111001001 1100100010 1100101010 1100010111 25.750 42.534 998.56 15881 16 15 13 58 52 4 $GNGGA,153634.00,4333.70188,N,00128.73851,E,1,05,2.72,155.0,M,53.8,M,,*4B
14 15 36 35 4333.7015400128.73880155.0ó 00128.73880 155.0 1101100111 1011111101 1100100000 1111101111 10000101110 1100100011 1101011011 10000000111 1 1101101101 1010111101 1011110001 1111111100 10000101101 1111000010 1100011101 1100101000 1100010100 25.813 42.595 998.58 16880 17 15 14 60 51 3 $GNGGA,153635.00,4333.70154,N,00128.73880,E,1,05,2.72,155.0,M,53.8,M,,*47
15 15 36 36 4333.7011100128.73872154.9ó 00128.73872 154.9 1101100111 1011111111 1100011111 1111101110 10000101111 1100011100 1101010001 10000001111 1 1101101101 1010111111 1011110001 1111111101 10000101101 1111000010 1100011110 1100101010 1100011010 25.750 42.595 998.58 17879 16 15 14 59 50 4 $GNGGA,153636.00,4333.70111,N,00128.73872,E,1,05,2.72,154.9,M,53.8,M,,*40
16 15 36 37 4333.7008500128.73889154.8ó 00128.73889 154.8 1101100111 1011111100 1100011100 1111101011 10000101110 1100100101 1101010111 10000001110 1 1101101101 1010111100 1011110011 1111111100 10000101011 1111000011 1100011101 1100101111 1100011101 25.813 42.435 998.58 18878 17 15 14 60 51 3 $GNGGA,153637.00,4333.70085,N,00128.73889,E,1,05,2.72,154.8,M,53.8,M,,*48
17 15 36 38 4333.7006400128.73897154.8ó 00128.73897 154.8 1101100111 1011111101 1100100001 1111101110 10000101110 1100100011 1101010111 10000001101 1 1101101101 1011000001 1011110011 1111110101 10000101100 1111000011 1100011100 1100101111 1100011010 25.750 42.130 998.57 19875 17 15 14 59 50 4 $GNGGA,153638.00,4333.70064,N,00128.73897,E,1,05,2.72,154.8,M,53.8,M,,*47
18 15 36 39 4333.7003700128.73876154.7ó 00128.73876 154.7 1101100111 1011111100 1100100000 1111101100 10000101100 1100011101 1101010010 10000001100 1 1101101101 1010111110 1011110011 1111111110 10000110000 1111000111 1100011100 1100101010 1100010001 25.813 41.886 998.58 20875 16 15 13 59 51 4 $GNGGA,153639.00,4333.70037,N,00128.73876,E,1,05,2.72,154.7,M,53.8,M,,*40
19 15 36 40 4333.7001000128.73848154.8ó 00128.73848 154.8 1101100111 1011111101 1100011110 1111101100 10000101001 1100100001 1101010111 10000010001 1 1101101101 1011000010 1011110010 1111111101 10000101111 1111000011 1100011011 1100101101 1100010100 25.813 41.733 998.58 21874 17 14 14 59 51 3 $GNGGA,153640.00,4333.70010,N,00128.73848,E,1,05,2.72,154.8,M,53.8,M,,*49
20 15 36 41 4333.6998500128.73826154.7ó 00128.73826 154.7 1101100111 1011111010 1100011011 1111101101 10000101101 1100011110 1101010101 10000000111 1 1101101101 1011000001 1011110010 1111111100 10000101101 1110111011 1100010111 1100110100 1100011101 25.813 41.649 998.58 22873 16 15 13 59 50 5 $GNGGA,153641.00,4333.69985,N,00128.73826,E,1,05,2.72,154.7,M,53.8,M,,*42
21 15 36 42 4333.6995600128.73794154.7ó 00128.73794 154.7 1101100111 1011111101 1100011110 1111110100 10000110001 1100100001 1101011010 10000001000 1 1101101101 1010111100 1011101111 1111110110 10000101101 1110111111 1100011001 1100101101 1100011001 25.813 41.604 998.57 23872 17 15 14 60 51 3 $GNGGA,153642.00,4333.69956,N,00128.73794,E,1,05,2.72,154.7,M,53.8,M,,*49
22 15 36 43 4333.6994800128.73836154.7ó 00128.73836 154.7 1101100111 1011111101 1100011110 1111101101 10000101110 1100010111 1101010001 10000001101 1 1101101101 1010111101 1011110001 1111111001 10000101101 1111000001 1100011111 1100100110 1100010100 25.813 41.535 998.57 24872 16 14 14 58 51 4 $GNGGA,153643.00,4333.69948,N,00128.73836,E,1,05,2.72,154.7,M,53.8,M,,*40
23 15 36 44 4333.6992100128.73792154.7ó 00128.73792 154.7 1101100111 1011111101 1100100011 1111101101 10000101101 1100011101 1101010001 10000011000 1 1101101101 1011000100 1011110011 1111110000 10000101011 1111000010 1100011010 1100100010 1100001011 25.750 41.413 998.57 25870 16 14 13 58 52 4 $GNGGA,153644.00,4333.69921,N,00128.73792,E,1,05,2.72,154.7,M,53.8,M,,*49
24 15 36 45 4333.6989200128.73738154.6ó 00128.73738 154.6 1101100111 1011111011 1100011100 1111101100 10000101010 1100011111 1101010011 10000010010 1 1101101101 1011000000 1011101111 1111111001 10000101101 1111000011 1100011011 1100101110 1100011001 25.813 41.245 998.57 26869 16 14 15 58 51 3 $GNGGA,153645.00,4333.69892,N,00128.73738,E,1,05,2.72,154.6,M,53.8,M,,*40
25 15 36 46 4333.6985100128.73666154.6ó 00128.73666 154.6 1101100111 1011111100 1100011101 1111101011 10000101101 1100100100 1101010100 10000001111 1 1101101101 1011000000 1011110100 1111111100 10000101110 1110111110 1100010111 1100101101 1100001111 25.750 41.108 998.56 27869 16 16 14 59 52 3 $GNGGA,153646.00,4333.69851,N,00128.73666,E,1,05,2.72,154.6,M,53.8,M,,*46
26 15 36 47 4333.6982900128.73643154.5ó 00128.73643 154.5 1101100111 1011111101 1100100011 1111101010 10000101110 1100100000 1101010001 10000001101 1 1101101101 1010111101 1011110001 1111111100 10000101110 1111000111 1100011101 1100101011 1100010000 25.813 41.024 998.56 28867 17 14 13 59 51 4 $GNGGA,153647.00,4333.69829,N,00128.73643,E,1,05,2.71,154.5,M,53.8,M,,*4F
27 15 36 48 4333.6981000128.73621154.5ó 00128.73621 154.5 1101100111 1011111101 1100011101 1111101110 10000101110 1100011100 1101010111 10000001110 1 1101101101 1010111100 1011101111 10000000001 10000101110 1111000011 1100011111 1100101111 1100010110 25.750 40.947 998.57 29867 16 16 15 59 51 3 $GNGGA,153648.00,4333.69810,N,00128.73621,E,1,05,2.71,154.5,M,53.8,M,,*4E
28 15 36 49 4333.6978800128.73579154.4ó 00128.73579 154.4 1101100111 1011111110 1100011111 1111100110 10000101100 1100100001 1101010010 10000001000 1 1101101101 1011000010 1011110001 1111110111 10000101101 1111000001 1100011110 1100101101 1100011000 25.813 40.902 998.57 30864 18 15 13 60 50 4 $GNGGA,153649.00,4333.69788,N,00128.73579,E,1,05,2.71,154.4,M,53.8,M,,*4E
29 15 36 50 4333.6977100128.73585154.4ó 00128.73585 154.4 1101100111 1011111101 1100011110 1111110000 10000101101 1100100000 1101010010 10000010001 1 1101101101 1010111101 1011101111 1111111101 10000101110 1110111110 1100011011 1100100110 1100010011 25.813 40.894 998.57 31864 16 15 15 59 51 3 $GNGGA,153650.00,4333.69771,N,00128.73585,E,1,05,2.71,154.4,M,53.8,M,,*43
30 15 36 51 4333.6973600128.73541154.4ó 00128.73541 154.4 1101100111 1011111111 1100100000 1111101010 10000101011 1100011111 1101010110 10000000111 1 1101101101 1011000001 1011110010 1111111100 10000101110 1111001001 1100100001 1100101000 1100010011 25.813 40.909 998.57 32864 16 15 13 59 51 4 $GNGGA,153651.00,4333.69736,N,00128.73541,E,1,05,2.71,154.4,M,53.8,M,,*49
31 15 36 52 4333.6969900128.73483154.4ó 00128.73483 154.4 1101100111 1011111100 1100011110 1111101011 10000101110 1100011001 1101010110 10000000110 1 1101101101 1010111110 1011110010 1111111011 10000101110 1110111101 1100011011 1100100111 1100001100 25.750 41.176 998.57 33862 17 15 14 60 51 3 $GNGGA,153652.00,4333.69699,N,00128.73483,E,1,05,2.71,154.4,M,53.8,M,,*41
32 15 36 53 4333.6968200128.73475154.3ó 00128.73475 154.3 1101100111 1011111110 1100011110 1111101101 10000101010 1100100000 1101011000 10000001010 1 1101101101 1010111111 1011110001 1111111011 10000101101 1111000010 1100100101 1100101011 1100010111 25.813 41.443 998.57 34862 16 16 14 59 51 4 $GNGGA,153653.00,4333.69682,N,00128.73475,E,1,05,2.71,154.3,M,53.8,M,,*44
33 15 36 54 4333.6964600128.73439154.3ó 00128.73439 154.3 1101100111 1100000001 1100011111 1111101011 10000101111 1100011101 1101010111 10000001110 1 1101101101 1010111101 1011110010 1111111001 10000101011 1110111101 1100011000 1100110011 1100010111 25.750 41.390 998.57 35860 18 15 13 60 50 4 $GNGGA,153654.00,4333.69646,N,00128.73439,E,1,05,2.71,154.3,M,53.8,M,,*43
34 15 36 55 4333.6962600128.73430154.3ó 00128.73430 154.3 1101100111 1011111101 1100100000 1111100110 10000101110 1100011111 1101011001 10000010100 1 1101101101 1010111110 1011101110 1111111000 10000101101 1111000001 1100011100 1100101110 1100010100 25.750 41.245 998.58 36860 16 15 15 59 51 3 $GNGGA,153655.00,4333.69626,N,00128.73430,E,1,05,2.71,154.3,M,53.8,M,,*4D
35 15 36 56 4333.6960400128.73410154.3ó 00128.73410 154.3 1101100111 1011111110 1100011111 1111101101 10000101111 1100100001 1101010100 10000001010 1 1101101101 1010111111 1011110000 1111111010 10000101110 1111000001 1100011110 1100101101 1100010010 25.813 41.123 998.57 37857 16 16 14 59 52 3 $GNGGA,153656.00,4333.69604,N,00128.73410,E,1,05,2.71,154.3,M,53.8,M,,*4C
36 15 36 57 4333.6957300128.73383154.3ó 00128.73383 154.3 1101100111 1011111111 1100100000 1111110000 10000101110 1100011111 1101010110 10000001001 1 1101101101 1011000001 1011110011 1111110110 10000101101 1111000001 1100011001 1100100110 1100010001 25.813 41.062 998.57 38857 17 14 13 59 50 4 $GNGGA,153657.00,4333.69573,N,00128.73383,E,1,05,2.71,154.3,M,53.8,M,,*43
37 15 36 58 4333.6958100128.73365154.3ó 00128.73365 154.3 1101100111 1011111110 1100100000 1111110000 10000101110 1100011111 1101010111 10000010000 1 1101101101 1010111111 1011110011 1111110011 10000101101 1111000100 1100100001 1100101010 1100010011 25.813 41.031 998.57 39857 16 16 14 59 52 3 $GNGGA,153658.00,4333.69581,N,00128.73365,E,1,05,2.71,154.3,M,53.8,M,,*49
38 15 36 59 4333.6958200128.73309154.2ó 00128.73309 154.2 1101100111 1011111101 1100011100 1111110011 10000101111 1100100001 1101010101 10000010010 1 1101101101 1011000000 1011110010 1111111000 10000101110 1111000000 1100011101 1100110000 1100011010 25.750 41.108 998.57 40856 18 15 13 60 50 4 $GNGGA,153659.00,4333.69582,N,00128.73309,E,1,05,2.71,154.2,M,53.8,M,,*40
39 15 37 00 4333.6958500128.73328154.3ó 00128.73328 154.3 1101100111 1011111111 1100100011 1111101001 10000101011 1100100010 1101010101 10000001001 1 1101101101 1011000010 1011110011 10000000100 10000101111 1111000111 1100100000 1100101110 1100010011 25.813 41.215 998.57 41853 16 14 14 59 50 4 $GNGGA,153700.00,4333.69585,N,00128.73328,E,1,06,2.13,154.3,M,53.8,M,,*4F
40 15 37 01 4333.6959600128.73283154.3ó 00128.73283 154.3 1101100111 1011111111 1100100001 1111110011 10000110001 1100100000 1101010111 10000000101 1 1101101101 1010111110 1011110010 1111111010 10000101110 1111000010 1100100000 1100100111 1100010101 25.750 41.268 998.57 42854 17 14 13 60 50 4 $GNGGA,153701.00,4333.69596,N,00128.73283,E,1,06,2.13,154.3,M,53.8,M,,*4C
41 15 37 02 4333.6958200128.73250154.3ó 00128.73250 154.3 1101100111 1100000000 1100100010 1111110110 10000101110 1100100110 1101011101 10000000011 1 1101101101 1011000001 1011110100 1111111111 10000110000 1110111111 1100011111 1100110101 1100100100 25.750 41.344 998.56 43853 16 15 15 59 51 3 $GNGGA,153702.00,4333.69582,N,00128.73250,E,1,06,2.13,154.3,M,53.8,M,,*44
42 15 37 03 4333.6970400128.73250153.3ó 00128.73250 153.3 1101100111 1011111011 1100011100 1111110000 10000101111 1100011101 1101010011 10000001000 1 1101101101 1010111110 1011101111 10000000001 10000101101 1111000010 1100011110 1100101011 1100011010 25.813 41.657 998.56 44853 16 16 14 59 52 3 $GNGGA,153703.00,4333.69704,N,00128.73250,E,1,07,1.48,153.3,M,53.8,M,,*42
43 15 37 04 4333.6980100128.73299152.3ó 00128.73299 152.3 1101100111 1011111100 1100011111 1111101100 10000101011 1100011110 1101011010 10000001010 1 1101101101 1011000010 1011110011 1111110110 10000101101 1111000000 1100011010 1100101011 1100011011 25.813 41.955 998.57 45851 17 14 13 60 50 4 $GNGGA,153704.00,4333.69801,N,00128.73299,E,1,07,1.48,152.3,M,53.8,M,,*4B
44 15 37 05 4333.6992600128.73297151.3ó 00128.73297 151.3 1101100111 1011111100 1100011110 1111101111 10000110001 1100011111 1101010110 10000000010 1 1101101101 1011000011 1011110011 10000000001 10000101101 1111000100 1100100011 1100100111 1100010110 25.813 42.100 998.57 46853 16 16 14 59 51 4 $GNGGA,153705.00,4333.69926,N,00128.73297,E,1,07,1.48,151.3,M,53.8,M,,*43
45 15 37 06 4333.7001700128.73295150.0ó 00128.73295 150.0 1101100111 1011111111 1100011111 1111110000 10000101110 1100100010 1101011010 10000000000 1 1101101101 1011000001 1011110010 1111111001 10000101011 1111000100 1100011101 1100101011 1100011110 25.813 42.336 998.58 47850 17 15 14 60 51 3 $GNGGA,153706.00,4333.70017,N,00128.73295,E,1,07,1.48,150.0,M,53.8,M,,*43
46 15 37 07 4333.7012400128.73309148.7ó 00128.73309 148.7 1101100111 1011111110 1100100001 1111110011 10000101100 1100011110 1101010011 10000001001 1 1101101101 1011000000 1011110100 10000000000 10000101101 1111000001 1100011011 1100100010 1100010100 25.750 42.428 998.56 48846 16 14 14 58 51 4 $GNGGA,153707.00,4333.70124,N,00128.73309,E,1,07,1.48,148.7,M,53.8,M,,*49
47 15 37 08 4333.7018000128.73244147.8ó 00128.73244 147.8 1101100111 1011111100 1100011111 1111110100 10000101111 1100011101 1101010001 10000000111 1 1101101101 1010111101 1011110000 1111111101 10000101101 1111000000 1100011100 1100101001 1100010101 25.813 42.374 998.56 49847 16 16 14 59 52 3 $GNGGA,153708.00,4333.70180,N,00128.73244,E,1,07,1.48,147.8,M,53.8,M,,*40
48 15 37 09 4333.7018300128.73172147.8ó 00128.73172 147.8 1101100111 1011111111 1100011110 1111110010 10000101101 1100100001 1101011001 10000001001 1 1101101101 1010111111 1011110000 1111111000 10000101100 1111000110 1100011011 1100101000 1100010010 25.813 42.306 998.57 50846 17 15 14 60 51 3 $GNGGA,153709.00,4333.70183,N,00128.73172,E,1,06,2.13,147.8,M,53.8,M,,*48
49 15 37 10 4333.7014600128.73194147.6ó 00128.73194 147.6 1101100111 1100000000 1100011111 1111110011 10000110000 1100100001 1101010101 1111111111 1 1101101101 1010111100 1011101110 1111111111 10000101101 1111000001 1100011111 1100101001 1100011001 25.813 42.313 998.57 51845 16 16 14 59 51 4 $GNGGA,153710.00,4333.70146,N,00128.73194,E,1,06,2.13,147.6,M,53.8,M,,*4F
50 15 37 11 4333.7013000128.73207147.4ó 00128.73207 147.4 1101100111 1011111111 1100011111 1111101101 10000101101 1100100000 1101010101 10000001000 1 1101101101 1011000000 1011101111 1111111011 10000101110 1111000010 1100011101 1100100010 1100010011 25.813 42.351 998.57 52843 17 14 13 60 50 4 $GNGGA,153711.00,4333.70130,N,00128.73207,E,1,06,2.13,147.4,M,53.8,M,,*44
51 15 37 12 4333.7008900128.73231147.3ó 00128.73231 147.3 1101100111 1011111101 1100100000 1111110100 10000110011 1100100000 1101011000 1111111101 1 1101101101 1011000000 1011110001 1111111010 10000101100 1110111111 1100011101 1100101001 1100011000 25.813 42.435 998.58 53842 16 15 15 59 51 3 $GNGGA,153712.00,4333.70089,N,00128.73231,E,1,06,2.13,147.3,M,53.8,M,,*46
52 15 37 13 4333.7006300128.73287147.3ó 00128.73287 147.3 1101100110 1011111100 1100011110 1111110010 10000101110 1100100001 1101011010 10000000011 1 1101101101 1010111011 1011110000 10000000011 10000101101 1111000000 1100100001 1100101011 1100011000 25.813 42.512 998.56 54841 18 14 13 60 50 4 $GNGGA,153713.00,4333.70063,N,00128.73287,E,1,06,2.13,147.3,M,53.8,M,,*4E
53 15 37 14 4333.7003500128.73344147.1ó 00128.73344 147.1 1101100111 1011111011 1100011110 1111110100 10000101111 1100100100 1101010110 10000001001 1 1101101101 1010111110 1011110000 10000000000 10000101011 1111000100 1100011111 1100100110 1100010101 25.813 42.580 998.57 55840 17 14 14 59 50 4 $GNGGA,153714.00,4333.70035,N,00128.73344,E,1,06,2.13,147.1,M,53.8,M,,*46
54 15 37 15 4333.7005000128.73401147.0ó 00128.73401 147.0 1101100111 1011111111 1100011111 1111101011 10000101101 1100100100 1101011101 10000010001 1 1101101101 1011000010 1011110101 1111110100 10000101110 1111000101 1100100000 1100100111 1100001001 25.813 42.588 998.56 56840 16 15 13 58 52 4 $GNGGA,153715.00,4333.70050,N,00128.73401,E,1,06,2.13,147.0,M,53.8,M,,*43
55 15 37 16 4333.6998600128.73393146.9ó 00128.73393 146.9 1101100111 1011111100 1100011101 1111101100 10000101110 1100011111 1101011000 10000001100 1 1101101101 1011000001 1011110001 1111111101 10000101110 1111000001 1100011110 1100100100 1100011000 25.813 42.573 998.55 57839 17 15 14 60 51 3 $GNGGA,153716.00,4333.69986,N,00128.73393,E,1,07,1.48,146.9,M,53.8,M,,*42
56 15 37 17 4333.6994500128.73420146.9ó 00128.73420 146.9 1101100111 1011111110 1100100001 1111101111 10000101101 1100011001 1101001110 10000001010 1 1101101101 1010111101 1011110010 1111110111 10000101110 1111000001 1100010111 1100101010 1100010100 25.813 42.573 998.55 58838 16 15 14 58 51 4 $GNGGA,153717.00,4333.69945,N,00128.73420,E,1,06,1.90,146.9,M,53.8,M,,*47
57 15 37 18 4333.6988600128.73465147.0ó 00128.73465 147.0 1101100111 1011111110 1100011111 1111110001 10000101011 1100100001 1101010111 10000001001 1 1101101101 1011000001 1011110011 1111111011 10000110000 1111000111 1100100000 1100101010 1100011010 25.813 42.649 998.56 59836 17 15 14 60 51 3 $GNGGA,153718.00,4333.69886,N,00128.73465,E,1,07,1.48,147.0,M,53.8,M,,*4B
58 15 37 19 4333.6986900128.73458147.1ó 00128.73458 147.1 1101100111 1011111101 1100011111 1111111010 10000101111 1100011111 1101010101 10000010011 1 1101101101 1010111110 1011110100 1111111000 10000101100 1111000010 1100011110 1100100101 1100010011 25.813 42.695 998.56 60836 16 15 15 59 51 3 $GNGGA,153719.00,4333.69869,N,00128.73458,E,1,07,1.48,147.1,M,53.8,M,,*44
59 15 37 20 4333.6983900128.73426147.5ó 00128.73426 147.5 1101100110 1011111111 1100011110 1111110010 10000101110 1100011111 1101010101 10000001101 1 1101101101 1011000000 1011110010 1111111001 10000101100 1110111101 1100011101 1100101001 1100010011 25.813 42.725 998.56 61836 16 16 14 59 52 3 $GNGGA,153720.00,4333.69839,N,00128.73426,E,1,07,1.48,147.5,M,53.8,M,,*46
60 15 37 21 4333.6981900128.73466147.7ó 00128.73466 147.7 1101100111 1011111111 1100011111 1111110011 10000110001 1100100110 1101011110 10000010101 1 1101101101 1010111111 1011110001 1111111000 10000110000 1111000100 1100100001 1100101100 1100010110 25.750 42.756 998.56 62834 17 15 14 60 51 3 $GNGGA,153721.00,4333.69819,N,00128.73466,E,1,07,1.48,147.7,M,53.8,M,,*43
61 15 37 22 4333.6973800128.73406148.0ó 00128.73406 148.0 1101100111 1011111011 1100011110 1111110101 10000101110 1100100111 1101011000 10000001010 1 1101101101 1010111110 1011110010 1111111001 10000110000 1111000001 1100011011 1100100110 1100001101 25.813 42.801 998.56 63833 16 15 13 59 50 5 $GNGGA,153722.00,4333.69738,N,00128.73406,E,1,07,1.48,148.0,M,53.8,M,,*42
62 15 37 23 4333.6965200128.73448148.3ó 00128.73448 148.3 1101100111 1011111101 1100011111 1111101110 10000101011 1100011110 1101010010 10000001100 1 1101101101 1011000010 1011110011 1111111010 10000101101 1110111111 1100011011 1100101011 1100010011 25.750 42.824 998.55 64832 17 15 14 60 51 3 $GNGGA,153723.00,4333.69652,N,00128.73448,E,1,07,1.48,148.3,M,53.8,M,,*47
63 15 37 24 4333.6959000128.73438148.6ó 00128.73438 148.6 1101100111 1011111101 1100011111 1111101111 10000101101 1100011011 1101010011 10000001110 1 1101101101 1011000000 1011110001 1111111100 10000101101 1110111101 1100011100 1100100001 1100001101 25.750 42.794 998.55 65830 16 14 14 58 51 4 $GNGGA,153724.00,4333.69590,N,00128.73438,E,1,07,1.48,148.6,M,53.8,M,,*4F
64 15 37 25 4333.6955900128.73432148.9ó 00128.73432 148.9 1101100111 1011111110 1100011110 1111110100 10000101101 1100100010 1101010101 10000001011 1 1101101101 1010111101 1011110000 10000000001 10000110000 1110111111 1100011101 1100101010 1100010100 25.813 42.779 998.55 66830 16 16 14 59 52 3 $GNGGA,153725.00,4333.69559,N,00128.73432,E,1,07,1.48,148.9,M,53.8,M,,*4E
65 15 37 26 4333.6950600128.73491149.0ó 00128.73491 149.0 1101100110 1011111011 1100011100 1111110101 10000101111 1100011010 1101010001 10000001111 1 1101101101 1010111111 1011110001 1111111010 10000101011 1110111101 1100011001 1100100100 1100010011 25.750 42.817 998.55 67828 16 14 14 59 50 4 $GNGGA,153726.00,4333.69506,N,00128.73491,E,1,07,1.48,149.0,M,53.8,M,,*46
66 15 37 27 4333.6948500128.73503149.1ó 00128.73503 149.1 1101100111 1011111101 1100011101 1111110101 10000101110 1100100010 1101010110 10000010010 1 1101101101 1011000011 1011110100 1111110111 10000101101 1111000010 1100011111 1100100111 1100001110 25.813 42.878 998.55 68829 16 15 13 58 52 4 $GNGGA,153727.00,4333.69485,N,00128.73503,E,1,07,1.48,149.1,M,53.8,M,,*46
67 15 37 28 4333.6946100128.73471149.3ó 00128.73471 149.3 1101100111 1011111011 1100011100 1111110011 10000101111 1100100011 1101011001 10000001011 1 1101101101 1010111101 1011110001 1111111001 10000110000 1110111101 1100011110 1100100000 1100001101 25.813 42.916 998.54 69826 17 14 13 60 51 4 $GNGGA,153728.00,4333.69461,N,00128.73471,E,1,06,1.90,149.3,M,53.8,M,,*41
68 15 37 29 4333.6940200128.73427149.5ó 00128.73427 149.5 1101100111 1011111100 1100011101 1111110010 10000110000 1100100010 1101011000 10000011000 1 1101101101 1010111011 1011110001 1111110100 10000101101 1111000100 1100011111 1100101000 1100010100 25.813 42.946 998.56 70823 17 15 14 59 50 4 $GNGGA,153729.00,4333.69402,N,00128.73427,E,1,06,1.90,149.5,M,53.8,M,,*40
69 15 37 30 4333.6935500128.73451149.8ó 00128.73451 149.8 1101100111 1011111011 1100100000 1111101101 10000101011 1100011101 1101010011 10000001101 1 1101101101 1010111101 1011110010 1111111010 10000101110 1111000101 1100100010 1100100101 1100010100 25.813 42.977 998.55 71825 17 15 14 60 51 3 $GNGGA,153730.00,4333.69355,N,00128.73451,E,1,06,1.90,149.8,M,53.8,M,,*41
70 15 37 31 4333.6928400128.73483150.1ó 00128.73483 150.1 1101100111 1011111100 1100011111 1111101110 10000101110 1100010111 1101010000 10000001111 1 1101101101 1010111111 1011110001 10000000011 10000110001 1111000010 1100011110 1100100101 1100010010 25.750 42.977 998.55 72824 16 14 14 58 51 4 $GNGGA,153731.00,4333.69284,N,00128.73483,E,1,07,1.48,150.1,M,53.8,M,,*47
71 15 37 32 4333.6925900128.73435150.2ó 00128.73435 150.2 1101100111 1011111100 1100100001 1111101101 10000101100 1100011111 1101010101 1111111111 1 1101101101 1010111110 1011110010 10000000000 10000101110 1111000000 1100011101 1100011110 1100000110 25.813 42.969 998.55 73823 16 16 14 59 52 3 $GNGGA,153732.00,4333.69259,N,00128.73435,E,1,06,1.90,150.2,M,53.8,M,,*4E
72 15 37 33 4333.6924800128.73471150.5ó 00128.73471 150.5 1101100111 1011111010 1100011111 1111110011 10000110001 1100011011 1101010001 10000001111 1 1101101101 1010111110 1011110100 1111111001 10000101100 1111000011 1100100000 1100101011 1100010101 25.813 42.962 998.55 74821 17 14 13 60 50 4 $GNGGA,153733.00,4333.69248,N,00128.73471,E,1,05,2.84,150.5,M,53.8,M,,*4D
73 15 37 34 4333.6924600128.73438150.8ó 00128.73438 150.8 1101100111 1011111101 1100100000 1111101110 10000110000 1100011101 1101010011 10000001101 1 1101101101 1010111100 1011110010 10000000001 10000101110 1111000001 1100011110 1100101101 1100011000 25.813 42.954 998.56 75820 16 15 14 59 50 4 $GNGGA,153734.00,4333.69246,N,00128.73438,E,1,05,2.84,150.8,M,53.8,M,,*44
74 15 37 35 4333.6924000128.73460150.9ó 00128.73460 150.9 1101100111 1011111110 1100011111 1111110101 10000110100 1100011100 1101010100 10000001000 1 1101101101 1010111100 1011101111 1111111011 10000101101 1110111101 1100011010 1100100110 1100010011 25.813 42.901 998.57 76819 17 14 13 60 50 4 $GNGGA,153735.00,4333.69240,N,00128.73460,E,1,06,1.54,150.9,M,53.8,M,,*42
75 15 37 36 4333.6923200128.73435151.0ó 00128.73435 151.0 1101100111 1011111110 1100011111 1111101101 10000101111 1100100001 1101010101 10000000110 1 1101101101 1010111111 1011110000 10000000001 10000101111 1111000000 1100011101 1100101010 1100011000 25.813 42.786 998.57 77816 17 14 14 59 50 4 $GNGGA,153736.00,4333.69232,N,00128.73435,E,1,06,1.54,151.0,M,53.8,M,,*4C
76 15 37 37 4333.6924800128.73533150.9ó 00128.73533 150.9 1101100111 1011111101 1100011110 1111101010 10000101110 1100100011 1101010011 10000000101 1 1101101101 1011000010 1011110100 1111111101 10000101110 1111000001 1100011010 1100110010 1100010111 25.813 42.664 998.57 78818 16 16 14 59 52 3 $GNGGA,153737.00,4333.69248,N,00128.73533,E,1,06,1.54,150.9,M,53.8,M,,*4F
77 15 37 38 4333.6923400128.73525151.1ó 00128.73525 151.1 1101100111 1011111111 1100011111 1111110000 10000110001 1100100010 1101010110 10000001010 1 1101101101 1011000000 1011110010 10000000100 10000101101 1110111111 1100011101 1100101101 1100010111 25.813 42.580 998.57 79816 17 15 14 60 51 3 $GNGGA,153738.00,4333.69234,N,00128.73525,E,1,05,2.83,151.1,M,53.8,M,,*4F
78 15 37 39 4333.6919500128.73519151.6ó 00128.73519 151.6 1101100111 1100000001 1100100000 1111101111 10000101100 1100011100 1101010010 10000001010 1 1101101101 1011000001 1011110011 1111111001 10000101110 1111000001 1100011001 1100110010 1100010101 25.750 42.542 998.56 80815 16 16 14 59 51 4 $GNGGA,153739.00,4333.69195,N,00128.73519,E,1,05,2.83,151.6,M,53.8,M,,*4E
79 15 37 40 4333.6918200128.73540151.9ó 00128.73540 151.9 1101100111 1011111110 1100100000 1111110010 10000110001 1100011101 1101010100 10000000101 1 1101101101 1011000000 1011110101 1111111100 10000101110 1111000101 1100011110 1100101001 1100010110 25.813 42.534 998.56 81814 17 15 14 60 51 3 $GNGGA,153740.00,4333.69182,N,00128.73540,E,1,05,2.83,151.9,M,53.8,M,,*45
80 15 37 41 4333.6917300128.73546152.2ó 00128.73546 152.2 1101100111 1011111111 1100011111 1111101000 10000101101 1100011001 1101010011 10000001000 1 1101101101 1010111101 1011110001 1111111100 10000101110 1111000010 1100100101 1100101000 1100010111 25.813 42.542 998.57 82812 16 15 15 59 51 3 $GNGGA,153741.00,4333.69173,N,00128.73546,E,1,05,2.83,152.2,M,53.8,M,,*44
81 15 37 42 4333.6916600128.73532152.4ó 00128.73532 152.4 1101100111 1011111111 1100100001 1111110010 10000101111 1100010111 1101000110 10000000001 1 1101101101 1011000000 1011110011 1111111100 10000101110 1110111111 1100011011 1100101000 1100001110 25.813 42.595 998.56 83811 16 15 13 58 52 4 $GNGGA,153742.00,4333.69166,N,00128.73532,E,1,05,2.83,152.4,M,53.8,M,,*46
82 15 37 43 4333.6916300128.73510152.6ó 00128.73510 152.6 1101100111 1011111101 1100011101 1111110001 10000101111 1100100100 1101011110 1111111001 1 1101101101 1010111011 1011110010 1111111011 10000101100 1110111111 1100011001 1100101110 1100010010 25.813 42.687 998.57 84810 18 15 13 59 50 4 $GNGGA,153743.00,4333.69163,N,00128.73510,E,1,05,2.83,152.6,M,53.8,M,,*40
83 15 37 44 4333.6914900128.73436152.7ó 00128.73436 152.7 1101100111 1011111101 1100011101 1111110000 10000110001 1100100010 1101011001 1111111110 1 1101101101 1010111010 1011110000 1111111110 10000101110 1111000011 1100011110 1100110001 1100010010 25.750 42.763 998.57 85810 17 16 13 59 51 4 $GNGGA,153744.00,4333.69149,N,00128.73436,E,1,05,2.83,152.7,M,53.8,M,,*4B
84 15 37 45 4333.6915500128.73453152.8ó 00128.73453 152.8 1101100111 1011111111 1100100000 1111110100 10000110001 1100011101 1101010111 10000001110 1 1101101101 1010111100 1011110001 1111111110 10000101110 1111000001 1100011111 1100100100 1100001101 25.750 42.832 998.56 86808 18 15 13 60 50 4 $GNGGA,153745.00,4333.69155,N,00128.73453,E,1,05,2.83,152.8,M,53.8,M,,*4B
85 15 37 46 4333.6915100128.73482152.9ó 00128.73482 152.9 1101100111 1011111101 1100100000 1111100111 10000101100 1100011101 1101010101 10000000111 1 1101101101 1011000001 1011110100 10000000001 10000101110 1110111111 1100011000 1100100010 1100001101 25.813 42.824 998.55 87806 16 14 14 58 51 4 $GNGGA,153746.00,4333.69151,N,00128.73482,E,1,05,2.83,152.9,M,53.8,M,,*41
86 15 37 47 4333.6913600128.73485153.3ó 00128.73485 153.3 1101100111 1011111101 1100100000 1111101010 10000101101 1100011101 1101010011 1111111101 1 1101101101 1010111110 1011110010 1111111101 10000101111 1110111110 1100011111 1100100111 1100001011 25.750 42.832 998.57 88804 17 16 14 60 51 3 $GNGGA,153747.00,4333.69136,N,00128.73485,E,1,05,2.83,153.3,M,53.8,M,,*4D
87 15 37 48 4333.6914600128.73517153.4ó 00128.73517 153.4 1101100111 1011111010 1100011100 1111101110 10000101111 1100011111 1101010011 10000000000 1 1101101101 1011000000 1011110011 1111110100 10000101110 1111000001 1100011010 1100101010 1100010010 25.813 42.794 998.56 89806 16 15 15 59 51 3 $GNGGA,153748.00,4333.69146,N,00128.73517,E,1,05,2.83,153.4,M,53.8,M,,*48
88 15 37 49 4333.6913600128.73457153.5ó 00128.73457 153.5 1101100111 1011111101 1100100001 1111101010 10000101110 1100100001 1101010100 1111111110 1 1101101101 1010111010 1011101111 1111111010 10000110000 1111000001 1100100000 1100101011 1100010100 25.750 42.733 998.56 90805 16 15 13 59 51 4 $GNGGA,153749.00,4333.69136,N,00128.73457,E,1,05,2.83,153.5,M,53.8,M,,*4A
89 15 37 50 4333.6913900128.73457153.7ó 00128.73457 153.7 1101100111 1011111110 1100100001 1111101101 10000101101 1100100001 1101011000 1111111111 1 1101101101 1010111010 1011101111 1111111100 10000101101 1110111110 1100011110 1100101011 1100011011 25.813 42.763 998.55 91803 17 15 14 60 51 3 $GNGGA,153750.00,4333.69139,N,00128.73457,E,1,05,2.83,153.7,M,53.8,M,,*4F
90 15 37 51 4333.6910900128.73442154.2ó 00128.73442 154.2 1101100111 1011111101 1100011111 1111110100 10000110011 1100011111 1101010101 1111111101 1 1101101101 1011000010 1011110100 1111110011 10000101101 1110111110 1100011000 1100101111 1100011001 25.813 42.687 998.54 92802 16 16 15 59 51 3 $GNGGA,153751.00,4333.69109,N,00128.73442,E,1,05,2.83,154.2,M,53.8,M,,*4B
91 15 37 52 4333.6912700128.73423154.3ó 00128.73423 154.3 1101100111 1100000000 1100100001 1111110001 10000101111 1100011001 1101001100 1111111101 1 1101101101 1010111111 1011110010 1111110110 10000101101 1110110111 1100010010 1100101010 1100011000 25.750 42.588 998.54 93800 17 15 14 60 51 3 $GNGGA,153752.00,4333.69127,N,00128.73423,E,1,05,2.83,154.3,M,53.8,M,,*42
92 15 37 53 4333.6913300128.73499154.4ó 00128.73499 154.4 1101100111 1011111100 1100011101 1111101110 10000101111 1100100001 1101010100 10000001000 1 1101101101 1010111101 1011110000 1111110100 10000101101 1110111101 1100011100 1100101111 1100010111 25.750 42.565 998.54 94799 16 14 14 58 51 4 $GNGGA,153753.00,4333.69133,N,00128.73499,E,1,05,2.83,154.4,M,53.8,M,,*40
93 15 37 54 4333.6912900128.73474154.8ó 00128.73474 154.8 1101100111 1011111101 1100100000 1111110100 10000101110 1100100000 1101011001 10000001001 1 1101101101 1010111110 1011101111 1111101101 10000101111 1110111110 1100011010 1100100110 1100010111 25.813 42.717 998.55 95799 17 16 13 59 51 4 $GNGGA,153754.00,4333.69129,N,00128.73474,E,1,05,2.83,154.8,M,53.8,M,,*43
94 15 37 55 4333.6907800128.73410155.0ó 00128.73410 155.0 1101100111 1011111111 1100011111 1111110010 10000110010 1100011101 1101010010 10000000101 1 1101101101 1010111110 1011110010 1111111000 10000101111 1110111101 1100011101 1100100011 1100010000 25.750 42.862 998.56 96798 17 15 14 60 51 3 $GNGGA,153755.00,4333.69078,N,00128.73410,E,1,07,1.10,155.0,M,53.8,M,,*47
95 15 37 56 4333.6907300128.73464155.1ó 00128.73464 155.1 1101100111 1011111101 1100011111 1111110101 10000101110 1100100100 1101011101 10000001011 1 1101101101 1010111011 1011110001 1111111100 10000101111 1110111110 1100011110 1100101101 1100011000 25.750 42.855 998.56 97797 16 15 13 59 50 5 $GNGGA,153756.00,4333.69073,N,00128.73464,E,1,07,1.10,155.1,M,53.8,M,,*4D
96 15 37 57 4333.6907400128.73416155.5ó 00128.73416 155.5 1101100111 1011111111 1100011111 1111110011 10000101110 1100011110 1101010011 10000001110 1 1101101101 1011000010 1011110101 1111111011 10000101110 1110111101 1100010111 1100101010 1100010111 25.813 42.717 998.55 98796 17 15 14 60 51 3 $GNGGA,153757.00,4333.69074,N,00128.73416,E,1,06,1.54,155.5,M,53.8,M,,*4B
97 15 37 58 4333.6905200128.73425155.7ó 00128.73425 155.7 1101100111 1011111100 1100011101 1111101101 10000101110 1100011110 1101011000 10000000010 1 1101101101 1011000000 1011110010 1111111111 10000110010 1111000010 1100011111 1100101011 1100010011 25.750 42.573 998.55 99792 16 15 15 59 51 3 $GNGGA,153758.00,4333.69052,N,00128.73425,E,1,05,2.82,155.7,M,53.8,M,,*49
98 15 37 59 4333.6903500128.73425156.3ó 00128.73425 156.3 1101100111 1011111111 1100100000 1111110101 10000110001 1100100011 1101010011 10000000110 1 1101101101 1010111111 1011110001 1111111001 10000101110 1110111011 1100011110 1100100111 1100011000 25.813 42.634 998.56 100794 17 15 14 60 51 3 $GNGGA,153759.00,4333.69035,N,00128.73425,E,1,06,1.54,156.3,M,53.8,M,,*45
99 15 38 00 4333.6901800128.73382156.7ó 00128.73382 156.7 1101100111 1011111101 1100011011 1111101000 10000101010 1100011110 1101010010 10000000111 1 1101101101 1010111110 1011110011 10000000000 10000101110 1110110101 1100010010 1100100100 1100000101 25.750 42.779 998.56 101792 16 14 14 58 51 4 $GNGGA,153800.00,4333.69018,N,00128.73382,E,1,06,1.54,156.7,M,53.8,M,,*47
100 15 38 01 4333.6902400128.73414156.4ó 00128.73414 156.4 1101100111 1011111110 1100011111 1111110110 10000110000 1100100000 1101010010 10000000011 1 1101101101 1011000000 1011110010 1111111010 10000101101 1110111111 1100011100 1100100111 1100001101 25.750 42.832 998.57 102793 16 15 13 59 51 4 $GNGGA,153801.00,4333.69024,N,00128.73414,E,1,07,1.10,156.4,M,53.8,M,,*43
101 15 38 02 4333.6904700128.73428156.6ó 00128.73428 156.6 1101100111 1011111100 1100011110 1111110010 10000110000 1100100000 1101011001 1111111010 1 1101101101 1010111110 1011110010 1111111100 10000101110 1111000100 1100100010 1100101000 1100011001 25.750 42.832 998.56 103792 17 15 14 60 51 3 $GNGGA,153802.00,4333.69047,N,00128.73428,E,1,07,1.10,156.6,M,53.8,M,,*48
102 15 38 03 4333.6899700128.73341156.5ó 00128.73341 156.5 1101100111 1011111110 1100100010 1111101110 10000101111 1100011111 1101010010 1111111111 1 1101101101 1010111110 1011110011 1111111010 10000101111 1111000010 1100011111 1100011110 1100010100 25.750 42.862 998.56 104791 16 16 15 59 51 3 $GNGGA,153803.00,4333.68997,N,00128.73341,E,1,07,1.10,156.5,M,53.8,M,,*47
103 15 38 04 4333.6900600128.73306156.4ó 00128.73306 156.4 1101100111 1011111110 1100100000 1111101001 10000101001 1100100000 1101010100 10000000010 1 1101101101 1010111011 1011110000 1111111100 10000101101 1110111111 1100011101 1100100000 1100010000 25.750 42.885 998.56 105789 17 15 14 60 51 3 $GNGGA,153804.00,4333.69006,N,00128.73306,E,1,06,1.54,156.4,M,53.8,M,,*43
104 15 38 05 4333.6896800128.73256156.5ó 00128.73256 156.5 1101100111 1011111111 1100011111 1111101111 10000110000 1100011111 1101010010 10000000100 1 1101101101 1010111110 1011110000 10000000001 10000101111 1111000011 1100011101 1100100100 1100010100 25.813 42.878 998.56 106786 16 15 15 59 51 3 $GNGGA,153805.00,4333.68968,N,00128.73256,E,1,06,1.54,156.5,M,53.8,M,,*47
105 15 38 06 4333.6895300128.73191156.7ó 00128.73191 156.7 1101100111 1011111111 1100100001 1111101100 10000101110 1100100000 1101010011 10000000110 1 1101101101 1010111101 1011101111 10000000000 10000110000 1110111111 1100011000 1100100110 1100010010 25.750 42.748 998.56 107787 16 16 14 59 52 3 $GNGGA,153806.00,4333.68953,N,00128.73191,E,1,06,1.54,156.7,M,53.8,M,,*46
106 15 38 07 4333.6891400128.73129156.7ó 00128.73129 156.7 1101100111 1011111100 1100100000 1111101011 10000101100 1100100001 1101011000 10000001101 1 1101101101 1011000001 1011110011 1111111101 10000101111 1111000001 1100011100 1100100100 1100010100 25.813 42.664 998.55 108786 17 15 14 60 51 3 $GNGGA,153807.00,4333.68914,N,00128.73129,E,1,06,1.54,156.7,M,53.8,M,,*47
107 15 38 08 4333.6896900128.73142157.3ó 00128.73142 157.3 1101100111 1011111110 1100100001 1111110000 10000101011 1100011100 1101010101 10000000100 1 1101101101 1011000101 1011110100 1111111110 10000110000 1110111110 1100011101 1100101010 1100001010 25.750 42.649 998.54 109785 16 16 14 59 51 4 $GNGGA,153808.00,4333.68969,N,00128.73142,E,1,06,1.54,157.3,M,53.8,M,,*4A
108 15 38 09 4333.6902600128.73095157.3ó 00128.73095 157.3 1101100111 1011111111 1100011101 1111101100 10000101110 1100011111 1101010101 10000001000 1 1101101101 1011000000 1011110010 1111111000 10000101100 1111000010 1100011001 1100100110 1100001100 25.750 42.664 998.55 110783 17 14 13 60 50 4 $GNGGA,153809.00,4333.69026,N,00128.73095,E,1,07,1.48,157.3,M,53.8,M,,*4F
109 15 38 10 4333.6900200128.73066157.5ó 00128.73066 157.5 1101100111 1011111101 1100011111 1111101011 10000101110 1100100001 1101011000 10000001000 1 1101101101 1010111110 1011110000 1111111101 10000101110 1111000010 1100100100 1100100110 1100010110 25.750 42.710 998.55 111783 17 15 14 59 50 4 $GNGGA,153810.00,4333.69002,N,00128.73066,E,1,06,1.89,157.5,M,53.8,M,,*47
110 15 38 11 4333.6897700128.73063157.6ó 00128.73063 157.6 1101100111 1011111101 1100011111 1111101001 10000101100 1100100111 1101011001 10000000110 1 1101101101 1011000000 1011110010 1111111000 10000101110 1111000010 1100011100 1100101010 1100011110 25.750 42.748 998.56 112783 17 15 14 60 51 3 $GNGGA,153811.00,4333.68977,N,00128.73063,E,1,07,1.48,157.6,M,53.8,M,,*46
111 15 38 12 4333.6893900128.73040157.6ó 00128.73040 157.6 1101100111 1011111110 1100100010 1111101111 10000101111 1100100110 1101011100 10000000101 1 1101101101 1011000000 1011110011 10000000010 10000101110 1110111111 1100011001 1100011101 1100001111 25.750 42.809 998.56 113781 16 15 15 59 51 3 $GNGGA,153812.00,4333.68939,N,00128.73040,E,1,07,1.48,157.6,M,53.8,M,,*4E
112 15 38 13 4333.6894100128.73014157.5ó 00128.73014 157.5 1101100111 1011111100 1100011110 1111101111 10000110000 1100100001 1101010101 1111111100 1 1101101101 1010111110 1011110010 1111111010 10000101111 1110111111 1100011010 1100101001 1100011001 25.750 42.801 998.55 114782 16 16 14 59 52 3 $GNGGA,153813.00,4333.68941,N,00128.73014,E,1,07,1.10,157.5,M,53.8,M,,*4F
113 15 38 14 4333.6896800128.73037157.3ó 00128.73037 157.3 1101100111 1100000000 1100100000 1111110110 10000110011 1100011000 1101001100 10000000100 1 1101101101 1011000010 1011110011 1111110111 10000101110 1111000100 1100100000 1100100100 1100010101 25.750 42.740 998.54 115780 18 15 13 60 50 4 $GNGGA,153814.00,4333.68968,N,00128.73037,E,1,06,1.19,157.3,M,53.8,M,,*4C
114 15 38 15 4333.6894200128.73019157.0ó 00128.73019 157.0 1101100111 1011111101 1100011110 1111101111 10000101110 1100011101 1101010101 10000001101 1 1101101101 1010111111 1011110001 1111111111 10000110000 1110111010 1100011100 1100100111 1100011000 25.750 42.641 998.54 116779 17 15 14 59 50 4 $GNGGA,153815.00,4333.68942,N,00128.73019,E,1,07,1.10,157.0,M,53.8,M,,*42
115 15 38 16 4333.6894900128.73071156.5ó 00128.73071 156.5 1101100111 1011111101 1100011110 1111110001 10000101111 1100011110 1101010110 1111111100 1 1101101101 1011000001 1011110010 1111111100 10000110000 1111000111 1100011101 1100100100 1100010000 25.750 42.603 998.54 117776 17 14 13 60 50 4 $GNGGA,153816.00,4333.68949,N,00128.73071,E,1,08,1.06,156.5,M,53.8,M,,*48
116 15 38 17 4333.6896700128.73027156.6ó 00128.73027 156.6 1101100111 1011111110 1100100010 1111101110 10000101010 1100011110 1101010110 10000000111 1 1101101101 1011000001 1011110101 1111111010 10000110000 1110111000 1100011010 1100110010 1100011000 25.750 42.664 998.54 118776 16 14 14 59 50 4 $GNGGA,153817.00,4333.68967,N,00128.73027,E,1,08,1.06,156.6,M,53.8,M,,*45
117 15 38 18 4333.6903100128.73031156.5ó 00128.73031 156.5 1101100111 1011111101 1100011110 1111110110 10000101111 1100100011 1101011010 10000001000 1 1101101101 1010111110 1011110001 10000000000 10000101111 1110111111 1100011101 1100101001 1100011101 25.750 42.786 998.54 119776 16 15 13 58 52 4 $GNGGA,153818.00,4333.69031,N,00128.73031,E,1,07,1.10,156.5,M,53.8,M,,*4D
118 15 38 19 4333.6900400128.73032156.3ó 00128.73032 156.3 1101100111 1011111011 1100011101 1111110000 10000101110 1100011011 1101010101 10000000110 0 1101101101 1010111110 1011110001 1111111101 10000110000 1111000010 1100100001 1100101000 1100010111 25.750 42.870 998.54 120774 17 14 13 59 51 4 $GNGGA,153819.00,4333.69004,N,00128.73032,E,1,07,1.10,156.3,M,53.8,M,,*4F
119 15 38 20 4333.6898900128.73020156.0ó 00128.73020 156.0 1101100111 1011111111 1100011110 1111101010 10000101011 1100100001 1101010110 10000000100 1 1101101101 1010111001 1011101111 1111110100 10000101100 1111000000 1100011100 1100100100 1100010110 25.750 42.908 998.55 121774 16 16 14 59 51 4 $GNGGA,153820.00,4333.68989,N,00128.73020,E,1,08,1.06,156.0,M,53.8,M,,*40
120 15 38 21 4333.6895700128.72977155.7ó 00128.72977 155.7 1101100111 1011111100 1100011011 1111101100 10000101110 1100100001 1101010010 1111111100 1 1101101101 1010111101 1011110010 1111111101 10000101110 1111000010 1100011101 1100101010 1100010100 25.750 42.878 998.55 122773 17 15 14 60 50 4 $GNGGA,153821.00,4333.68957,N,00128.72977,E,1,08,1.06,155.7,M,53.8,M,,*4C
121 15 38 22 4333.6897300128.72998155.6ó 00128.72998 155.6 1101100111 1011111101 1100011101 1111101100 10000101110 1100011111 1101010101 10000000001 1 1101101101 1010111101 1011110001 1111110101 10000101101 1111000100 1100011011 1100101000 1100001110 25.750 42.840 998.54 123771 16 14 14 58 51 4 $GNGGA,153822.00,4333.68973,N,00128.72998,E,1,08,1.06,155.6,M,53.8,M,,*49
122 15 38 23 4333.6898200128.72978155.4ó 00128.72978 155.4 1101100111 1011111111 1100011110 1111101111 10000110001 1100011100 1101010100 10000000000 1 1101101101 1010111111 1011110011 1111110101 10000101110 1110111111 1100011011 1100100111 1100010110 25.750 42.832 998.54 124771 16 16 14 59 52 3 $GNGGA,153823.00,4333.68982,N,00128.72978,E,1,07,1.10,155.4,M,53.8,M,,*42
123 15 38 24 4333.6901000128.72982155.3ó 00128.72982 155.3 1101100111 1011111110 1100011111 1111101010 10000101101 1100011101 1101010111 10000001010 1 1101101101 1010111100 1011101101 1111111010 10000101110 1110111011 1100011011 1100101101 1100010111 25.750 42.855 998.55 125768 18 14 13 60 50 4 $GNGGA,153824.00,4333.69010,N,00128.72982,E,1,07,1.10,155.3,M,53.8,M,,*44
124 15 38 25 4333.6898200128.72933155.3ó 00128.72933 155.3 1101100111 1011111101 1100011111 1111110111 10000101111 1100011111 1101010001 10000000111 1 1101101101 1010111100 1011110001 1111110101 10000101110 1110111111 1100011011 1100100010 1100010101 25.750 42.817 998.54 126768 17 16 13 59 50 5 $GNGGA,153825.00,4333.68982,N,00128.72933,E,1,06,1.53,155.3,M,53.8,M,,*4A
125 15 38 26 4333.6900400128.72968154.9ó 00128.72968 154.9 1101100111 1011111111 1100011110 1111111001 10000110010 1100011011 1101010000 10000001100 1 1101101101 1011000000 1011101111 1111111101 10000101111 1110111010 1100011100 1100101011 1100010111 25.750 42.771 998.55 127766 17 14 13 60 50 4 $GNGGA,153826.00,4333.69004,N,00128.72968,E,1,07,1.10,154.9,M,53.8,M,,*4C
126 15 38 27 4333.6903100128.72988154.5ó 00128.72988 154.5 1101100111 1011111111 1100011110 1111111000 10000110000 1100011110 1101010100 10000000011 1 1101101101 1011000001 1011110001 1111111100 10000101111 1110111101 1100011101 1100110101 1100100001 25.750 42.817 998.55 128763 16 14 14 59 50 4 $GNGGA,153827.00,4333.69031,N,00128.72988,E,1,07,1.10,154.5,M,53.8,M,,*49
127 15 38 28 4333.6901900128.72986154.2ó 00128.72986 154.2 1101100111 1011111101 1100011111 1111101101 10000101011 1100100000 1101010010 1111111111 1 1101101101 1010111111 1011110010 1111111100 10000101111 1110111111 1100011101 1100101011 1100010001 25.750 42.878 998.56 129764 17 14 13 59 51 4 $GNGGA,153828.00,4333.69019,N,00128.72986,E,1,07,1.10,154.2,M,53.8,M,,*45
128 15 38 29 4333.6899100128.72925154.1ó 00128.72925 154.1 1101100111 1011111111 1100011111 1111110111 10000110010 1100100110 1101010011 10000001011 1 1101101101 1010111111 1011110010 1111111010 10000101111 1110111110 1100011011 1100110111 1100011001 25.750 42.923 998.56 130763 16 15 15 59 51 3 $GNGGA,153829.00,4333.68991,N,00128.72925,E,1,07,1.10,154.1,M,53.8,M,,*46
129 15 38 30 4333.6893000128.72879154.2ó 00128.72879 154.2 1101100111 1011111101 1100011100 1111101110 10000101111 1100011011 1101010100 10000000111 1 1101101101 1010111110 1011110001 1111111111 10000110001 1110111110 1100100001 1100101001 1100010101 25.750 42.962 998.56 131762 16 15 13 58 52 4 $GNGGA,153830.00,4333.68930,N,00128.72879,E,1,06,1.53,154.2,M,53.8,M,,*48
130 15 38 31 4333.6890200128.72849153.9ó 00128.72849 153.9 1101100111 1011111101 1100011101 1111110011 10000110010 1100011110 1101011001 10000000011 1 1101101101 1011000000 1011110000 1111111000 10000101101 1111000011 1100100001 1100100101 1100010100 25.688 42.954 998.55 132761 17 14 13 59 51 4 $GNGGA,153831.00,4333.68902,N,00128.72849,E,1,07,1.10,153.9,M,53.8,M,,*41
