id HH MM SS longitude latitude altitude adc_1_ch0 adc_1_ch1 adc_1_ch2 adc_1_ch3 adc_1_ch4 adc_1_ch5 adc_1_ch6 adc_1_ch7 adc_1_ch8 adc_2_ch0 adc_2_ch1 adc_2_ch2 adc_2_ch3 adc_2_ch4 adc_2_ch5 adc_2_ch6 adc_2_ch7 adc_2_ch8 temp hum pres t_prog t_gps t_split t_adc t_temp t_hum t_pres trame_gga
1 15 38 49 4333.6884400128.73085151.2ó 00128.73085 151.2 11101111111 0 1100011100 1111101100 10000101100 1100011011 1101010100 10000010001 1 1101101101 1011000001 1011110001 10000001000 10000101110 1110111110 1100011110 1100101000 1100010000 25.750 42.649 795.83 3796 16 14 14 58 51 4 $GNGGA,153849.00,4333.68844,N,00128.73085,E,1,06,1.53,151.2,M,53.8,M,,*4B
2 15 38 50 4333.6881400128.73016151.4ó 00128.73016 151.4 11101111111 0 1100011101 1111101111 10000101010 1100011010 1101010000 10000001010 1 1101101101 1011000001 1011110010 10000001010 10000110000 1110111010 1100011010 1100101001 1100010000 25.750 42.702 998.54 4796 17 15 14 60 51 3 $GNGGA,153850.00,4333.68814,N,00128.73016,E,1,06,1.53,151.4,M,53.8,M,,*4A
3 15 38 51 4333.6879700128.73032151.8ó 00128.73032 151.8 11101111111 0 1100100000 1111110101 10000101101 1100100000 1101011001 10000000101 1 1101101101 1011000001 1011110001 10000000111 10000101111 1110111000 1100011010 1100110010 1100010111 25.750 42.748 998.53 5794 17 14 14 58 51 4 $GNGGA,153851.00,4333.68797,N,00128.73032,E,1,06,1.53,151.8,M,53.8,M,,*45
4 15 38 52 4333.6875800128.72990152.5ó 00128.72990 152.5 11101111111 0 1100011101 1111110110 10000101111 1100100001 1101011001 10000001000 1 1101101101 1010111111 1011101111 10000000101 10000101111 1110111110 1100011011 1100101000 1100010110 25.750 42.786 998.54 6794 16 16 14 59 51 4 $GNGGA,153852.00,4333.68758,N,00128.72990,E,1,06,1.53,152.5,M,53.8,M,,*4B
5 15 38 53 4333.6874000128.72984152.9ó 00128.72984 152.9 11101111111 0 1100011111 1111110101 10000101101 1100011110 1101010100 10000000011 10 1101101101 1011000010 1011110011 10000000000 10000101101 1110111111 1100011101 1100100100 1100001110 25.750 42.794 998.53 7792 18 14 13 59 51 4 $GNGGA,153853.00,4333.68740,N,00128.72984,E,1,06,1.53,152.9,M,53.8,M,,*4A
6 15 38 54 4333.6871900128.72922153.3ó 00128.72922 153.3 11101111111 0 1100011110 1111111010 10000101111 1100011111 1101011101 10000000011 1 1101101101 1011000011 1011110100 1111111100 10000101011 1110111000 1100011101 1100100110 1100010000 25.750 42.779 998.53 8792 16 16 15 59 51 3 $GNGGA,153854.00,4333.68719,N,00128.72922,E,1,06,1.53,153.3,M,53.8,M,,*46
7 15 38 55 4333.6873000128.72952153.5ó 00128.72952 153.5 11101111111 0 1100011111 1111110110 10000110000 1100100011 1101011010 10000000010 1 1101101101 1011000000 1011110001 1111111011 10000101110 1110111110 1100100001 1100110000 1100011110 25.750 42.763 998.54 9790 18 14 13 59 51 4 $GNGGA,153855.00,4333.68730,N,00128.72952,E,1,06,1.53,153.5,M,53.8,M,,*4D
8 15 38 56 4333.6873500128.72926153.9ó 00128.72926 153.9 11101111111 0 1100011101 1111111000 10000110010 1100011010 1101010100 10000000010 1 1101101101 1011000011 1011110011 10000000010 10000101111 1110111100 1100011101 1100100101 1100010100 25.750 42.702 998.54 10787 16 15 15 59 51 3 $GNGGA,153856.00,4333.68735,N,00128.72926,E,1,06,1.53,153.9,M,53.8,M,,*44
9 15 38 57 4333.6877100128.72989154.1ó 00128.72989 154.1 11101111111 0 1100011111 1111110101 10000101111 1100011110 1101010100 10000001000 1 1101101101 1011000011 1011110010 10000000101 10000110001 1110111110 1100011101 1100100101 1100001111 25.750 42.656 998.55 11788 16 15 13 58 52 4 $GNGGA,153857.00,4333.68771,N,00128.72989,E,1,06,1.53,154.1,M,53.8,M,,*4F
10 15 38 58 4333.6876100128.72993154.3ó 00128.72993 154.3 11101111111 0 1100011110 1111110011 10000101111 1100011100 1101010111 10000000000 1 1101101101 1011000011 1011110001 1111111010 10000101110 1110111000 1100011011 1100100111 1100010010 25.750 42.687 998.54 12787 17 15 14 60 51 3 $GNGGA,153858.00,4333.68761,N,00128.72993,E,1,06,1.53,154.3,M,53.8,M,,*48
11 15 38 59 4333.6873600128.73013154.5ó 00128.73013 154.5 11101111111 0 1100100001 1111111110 10000110001 1100011110 1101010101 10000000101 1 1101101101 1011000100 1011110101 10000000001 10000101101 1110111110 1100011100 1100101000 1100010110 25.750 42.695 998.54 13787 16 16 14 59 51 4 $GNGGA,153859.00,4333.68736,N,00128.73013,E,1,06,1.53,154.5,M,53.8,M,,*4D
12 15 39 00 4333.6877100128.73073154.6ó 00128.73073 154.6 11101111111 0 1100011111 1111110101 10000101111 1100100000 1101010111 1111111110 1 1101101101 1011000001 1011110010 1111111110 10000101101 1110111101 1100011011 1100100011 1100001110 25.750 42.695 998.55 14785 18 14 13 60 50 4 $GNGGA,153900.00,4333.68771,N,00128.73073,E,1,06,1.53,154.6,M,53.8,M,,*46
13 15 39 01 4333.6876200128.73100154.9ó 00128.73100 154.9 11101111111 0 1100100100 1111111000 10000101111 1100100010 1101011000 10000001000 1 1101101101 1011000010 1011110011 10000000011 10000101111 1110111100 1100011010 1100101010 1100011001 25.688 42.672 998.55 15784 16 15 15 59 51 3 $GNGGA,153901.00,4333.68762,N,00128.73100,E,1,06,1.53,154.9,M,53.8,M,,*4F
14 15 39 02 4333.6876500128.73111155.1ó 00128.73111 155.1 11101111111 0 1100100000 1111111000 10000110001 1100100000 1101010110 10000000000 1 1101101101 1011000001 1011101111 1111111100 10000101101 1110111010 1100010111 1100100110 1100010100 25.750 42.656 998.55 16783 17 14 13 59 51 4 $GNGGA,153902.00,4333.68765,N,00128.73111,E,1,06,1.53,155.1,M,53.8,M,,*42
15 15 39 03 4333.6877800128.73161155.1ó 00128.73161 155.1 11101111111 0 1100100000 1111111000 10000101100 1100100001 1101011001 10000000001 1 1101101101 1010111111 1011110011 1111111100 10000110000 1111000010 1100100011 1100110000 1100011000 25.750 42.664 998.55 17782 16 15 15 59 51 3 $GNGGA,153903.00,4333.68778,N,00128.73161,E,1,06,1.53,155.1,M,53.8,M,,*48
16 15 39 04 4333.6877200128.73130155.4ó 00128.73130 155.4 11101111111 0 1100100000 1111110111 10000110100 1100100000 1101010110 10000000111 1 1101101101 1010111111 1011101110 1111111110 10000101111 1110111011 1100011001 1100100110 1100001011 25.750 42.679 998.54 18782 17 16 13 59 51 4 $GNGGA,153904.00,4333.68772,N,00128.73130,E,1,06,1.53,155.4,M,53.8,M,,*44
17 15 39 05 4333.6874200128.73076155.7ó 00128.73076 155.7 11101111111 0 1100100000 1111110110 10000110010 1100011101 1101010010 10000001001 1 1101101101 1011000010 1011110011 1111111001 10000110000 1110111011 1100011001 1100100110 1100001110 25.750 42.710 998.55 19780 17 15 14 60 51 3 $GNGGA,153905.00,4333.68742,N,00128.73076,E,1,06,1.53,155.7,M,53.8,M,,*46
18 15 39 06 4333.6872200128.73021156.0ó 00128.73021 156.0 11101111111 0 1100011110 1111110100 10000110000 1100100110 1101010110 10000001010 1 1101101101 1011000010 1011110010 1111111111 10000101110 1110111001 1100011011 1100100100 1100001101 25.750 42.840 998.55 20779 16 15 14 58 51 4 $GNGGA,153906.00,4333.68722,N,00128.73021,E,1,06,1.53,156.0,M,53.8,M,,*45
19 15 39 07 4333.6870500128.73010156.3ó 00128.73010 156.3 11101111111 0 1100100000 1111110011 10000101111 1100100001 1101010110 10000000001 1 1101101101 1011000000 1011110100 1111110110 10000101100 1110111111 1100011110 1100100110 1100010000 25.750 42.969 998.56 21777 17 15 14 60 51 3 $GNGGA,153907.00,4333.68705,N,00128.73010,E,1,06,1.53,156.3,M,53.8,M,,*40
20 15 39 08 4333.6866900128.72973156.6ó 00128.72973 156.6 11101111111 0 1100100000 1111110011 10000110010 1100011110 1101010111 10000000101 1 1101101101 1010111111 1011110000 1111111100 10000101110 1110111101 1100011110 1100101100 1100011100 25.750 43.030 998.54 22776 17 14 14 59 50 4 $GNGGA,153908.00,4333.68669,N,00128.72973,E,1,06,1.53,156.6,M,53.8,M,,*4C
21 15 39 09 4333.6862600128.72940156.9ó 00128.72940 156.9 11101111111 0 1100100100 1111110100 10000110000 1100100101 1101011010 10000000101 1 1101101101 1010111110 1011110000 1111111111 10000110000 1110111011 1100011001 1100101001 1100010010 25.750 43.084 998.54 23777 17 16 13 59 51 4 $GNGGA,153909.00,4333.68626,N,00128.72940,E,1,05,2.78,156.9,M,53.8,M,,*40
22 15 39 10 4333.6860400128.72837157.1ó 00128.72837 157.1 11101111111 0 1100011101 1111110111 10000110001 1100011101 1101010011 10000001011 1 1101101101 1010111110 1011110001 10000000011 10000101111 1110111010 1100011001 1100101000 1100010011 25.750 43.122 998.53 24775 17 15 14 60 51 3 $GNGGA,153910.00,4333.68604,N,00128.72837,E,1,06,1.53,157.1,M,53.8,M,,*49
23 15 39 11 4333.6863700128.72840157.3ó 00128.72840 157.3 11101111111 0 1100011110 1111110011 10000101110 1100011101 1101010111 10000010000 1 1101101101 1010111110 1011110001 10000000010 10000110000 1110111001 1100011110 1100110001 1100011001 25.750 43.114 998.55 25774 17 15 13 59 50 5 $GNGGA,153911.00,4333.68637,N,00128.72840,E,1,06,1.53,157.3,M,53.8,M,,*4A
24 15 39 12 4333.6859200128.72824158.1ó 00128.72824 158.1 11101111111 0 1100100010 1111111110 10000110000 1100100101 1101011011 1111111101 1 1101101101 1010111101 1011110010 1111111100 10000101110 1110111101 1100011101 1100100111 1100001101 25.750 43.129 998.56 26773 18 14 13 59 51 4 $GNGGA,153912.00,4333.68592,N,00128.72824,E,1,06,1.53,158.1,M,53.8,M,,*4A
25 15 39 13 4333.6859500128.72864158.2ó 00128.72864 158.2 11101111111 0 1100100000 1111101101 10000101011 1100100001 1101011010 10000000100 1 1101101101 1010111111 1011110100 1111111011 10000101111 1110111110 1100011100 1100101001 1100010001 25.750 43.137 998.55 27772 16 15 15 59 51 3 $GNGGA,153913.00,4333.68595,N,00128.72864,E,1,06,1.53,158.2,M,53.8,M,,*4B
26 15 39 14 4333.6857700128.72888158.7ó 00128.72888 158.7 11101111111 0 1100100100 1111110010 10000110001 1100011111 1101011000 10000000101 1 1101101101 1010111111 1011110011 1111110110 10000101101 1110111000 1100010101 1100101010 1100011001 25.750 43.129 998.54 28769 16 16 14 59 52 3 $GNGGA,153914.00,4333.68577,N,00128.72888,E,1,05,2.78,158.7,M,53.8,M,,*4E
27 15 39 15 4333.6857800128.72880158.8ó 00128.72880 158.8 11101111111 0 1100100001 1111110110 10000110000 1100011101 1101010101 10000001000 1 1101101101 1010111100 1011110000 1111111111 10000101110 1110111101 1100011111 1100100100 1100000110 25.750 43.099 998.53 29770 16 15 15 59 51 3 $GNGGA,153915.00,4333.68578,N,00128.72880,E,1,06,1.53,158.8,M,53.8,M,,*4E
28 15 39 16 4333.6855000128.72861159.3ó 00128.72861 159.3 11101111111 0 1100011111 1111111011 10000110010 1100100010 1101011000 1111111110 1 1101101101 1011000000 1011110100 1111111100 10000101100 1110111011 1100011001 1100101101 1100010100 25.750 43.091 998.53 30771 16 16 14 59 52 3 $GNGGA,153916.00,4333.68550,N,00128.72861,E,1,06,1.53,159.3,M,53.8,M,,*42
29 15 39 17 4333.6853900128.72860159.9ó 00128.72860 159.9 11101111111 0 1100011111 1111110101 10000110001 1100011111 1101010001 10000000100 1 1101101101 1011000000 1011110001 1111111101 10000101110 1110111010 1100010100 1100101101 1100010100 25.750 43.091 998.53 31770 17 15 14 60 51 3 $GNGGA,153917.00,4333.68539,N,00128.72860,E,1,06,1.53,159.9,M,53.8,M,,*47
30 15 39 18 4333.6858400128.72922160.0ó 00128.72922 160.0 11101111111 0 1100100010 1111101111 10000101110 1100100000 1101011011 10000000110 1 1101101101 1011000000 1011110010 1111111111 10000101101 1110111000 1100010101 1100101001 1100010011 25.750 43.030 998.53 32768 16 16 15 59 51 3 $GNGGA,153918.00,4333.68584,N,00128.72922,E,1,06,1.53,160.0,M,53.8,M,,*4A
31 15 39 19 4333.6858000128.72872160.3ó 00128.72872 160.3 11101111111 0 1100011111 1111110011 10000101110 1100100110 1101011001 10000000111 1 1101101101 1010111100 1011101110 10000000000 10000110000 1110111001 1100011110 1100100100 1100010101 25.750 42.855 998.52 33767 17 15 14 60 50 4 $GNGGA,153919.00,4333.68580,N,00128.72872,E,1,06,1.53,160.3,M,53.8,M,,*48
32 15 39 20 4333.6866500128.72905158.8ó 00128.72905 158.8 11101111111 0 1100100001 1111101111 10000101110 1100100000 1101010110 10000001001 1 1101101101 1010111101 1011110000 1111111011 10000101110 1110111100 1100011111 1100101100 1100010100 25.750 42.687 998.53 34766 16 14 15 59 51 3 $GNGGA,153920.00,4333.68665,N,00128.72905,E,1,07,1.10,158.8,M,53.8,M,,*4D
33 15 39 21 4333.6868900128.72972157.7ó 00128.72972 157.7 11101111111 0 1100100010 1111110011 10000110000 1100010101 1101010001 10000001100 1 1101101101 1010111111 1011110000 1111111111 10000110000 1110110111 1100011011 1100101011 1100010111 25.750 42.534 998.52 35766 16 16 14 59 52 3 $GNGGA,153921.00,4333.68689,N,00128.72972,E,1,07,1.10,157.7,M,53.8,M,,*4E
34 15 39 22 4333.6873700128.72974157.1ó 00128.72974 157.1 11101111111 0 1100011111 1111110100 10000110101 1100100000 1101011000 10000001010 1 1101101101 1010111101 1011110011 1111111111 10000101110 1110111100 1100100000 1100101100 1100001110 25.750 42.374 998.52 36764 17 15 14 60 51 3 $GNGGA,153922.00,4333.68737,N,00128.72974,E,1,07,1.10,157.1,M,53.8,M,,*49
35 15 39 23 4333.6874300128.72994156.0ó 00128.72994 156.0 11101111111 0 1100100001 1111110001 10000101111 1100011100 1101010100 10000000110 1 1101101101 1010111111 1011110010 10000000011 10000110000 1110111110 1100100000 1100100111 1100001010 25.750 42.244 998.52 37763 16 16 14 59 51 4 $GNGGA,153923.00,4333.68743,N,00128.72994,E,1,06,1.19,156.0,M,53.8,M,,*4D
36 15 39 24 4333.6881700128.73047155.0ó 00128.73047 155.0 11101111111 0 1100100011 1111110001 10000101101 1100011101 1101011000 10000000110 1 1101101101 1011000001 1011110010 10000000001 10000101111 1110111111 1100100010 1100101111 1100010110 25.750 42.145 998.53 38762 18 14 13 59 51 4 $GNGGA,153924.00,4333.68817,N,00128.73047,E,1,07,1.10,155.0,M,53.8,M,,*49
37 15 39 25 4333.6880100128.73088154.1ó 00128.73088 154.1 11101111111 0 1100011101 1111101101 10000101110 1100011101 1101010110 10000000011 1 1101101101 1010111110 1011110000 1111111011 10000101101 1111000000 1100100010 1100101010 1100010101 25.750 42.069 998.54 39759 17 14 14 58 51 4 $GNGGA,153925.00,4333.68801,N,00128.73088,E,1,06,1.19,154.1,M,53.8,M,,*44
38 15 39 26 4333.6882800128.73139153.2ó 00128.73139 153.2 11101111111 0 1100100000 1111110000 10000110010 1100100000 1101010101 10000001011 1 1101101101 1010111111 1011110000 1111111110 10000101100 1110111010 1100011110 1100101011 1100010010 25.750 42.023 998.55 40760 16 16 14 59 52 3 $GNGGA,153926.00,4333.68828,N,00128.73139,E,1,06,1.19,153.2,M,53.8,M,,*43
39 15 39 27 4333.6885200128.73167152.3ó 00128.73167 152.3 11101111111 0 1100100001 1111110001 10000110000 1100100000 1101010011 10000001000 1 1101101101 1011000100 1011110001 1111111010 10000101100 1110111111 1100011101 1100100101 1100010001 25.750 41.985 998.55 41758 18 14 13 59 50 4 $GNGGA,153927.00,4333.68852,N,00128.73167,E,1,06,1.19,152.3,M,53.8,M,,*44
40 15 39 28 4333.6888300128.73204151.5ó 00128.73204 151.5 11101111111 0 1100100000 1111110010 10000101111 1100100100 1101010101 10000000100 1 1101101101 1010111110 1011110010 10000000011 10000110000 1111000001 1100100001 1100100111 1100010001 25.750 41.955 998.55 42757 16 16 14 59 51 4 $GNGGA,153928.00,4333.68883,N,00128.73204,E,1,06,1.19,151.5,M,53.8,M,,*44
41 15 39 29 4333.6891300128.73268150.7ó 00128.73268 150.7 11101111111 0 1100100000 1111110111 10000110001 1100011101 1101010110 10000000001 1 1101101101 1011000000 1011110000 1111111011 10000110000 1110111100 1100100000 1100100111 1100001011 25.750 41.909 998.54 43756 17 15 14 60 51 3 $GNGGA,153929.00,4333.68913,N,00128.73268,E,1,06,1.19,150.7,M,53.8,M,,*44
42 15 39 30 4333.6891300128.73339150.2ó 00128.73339 150.2 11101111111 0 1100011111 1111110011 10000110011 1100011110 1101010010 10000001001 1 1101101101 1011000000 1011110011 10000000101 10000110001 1110110111 1100011101 1100101111 1100010001 25.750 41.871 998.54 44755 16 15 15 59 51 3 $GNGGA,153930.00,4333.68913,N,00128.73339,E,1,06,1.19,150.2,M,53.8,M,,*4C
43 15 39 31 4333.6892200128.73399149.4ó 00128.73399 149.4 11101111111 0 1100011111 1111101101 10000101110 1100011011 1101010010 10000000000 1 1101101101 1011000001 1011110100 1111110110 10000101101 1110111100 1100011011 1100100110 1100010101 25.750 41.848 998.55 45754 18 14 13 60 50 4 $GNGGA,153931.00,4333.68922,N,00128.73399,E,1,06,1.19,149.4,M,53.8,M,,*4B
44 15 39 32 4333.6896300128.73462148.8ó 00128.73462 148.8 11101111111 0 1100100001 1111111100 10000110011 1100011110 1101010011 10000001010 1 1101101101 1010111111 1011110010 1111111110 10000101110 1110111001 1100011000 1100100101 1100010110 25.750 41.878 998.55 46753 17 15 14 59 50 4 $GNGGA,153932.00,4333.68963,N,00128.73462,E,1,06,1.19,148.8,M,53.8,M,,*43
45 15 39 33 4333.6904800128.73528148.2ó 00128.73528 148.2 11101111111 0 1100100100 1111110010 10000110011 1100100100 1101011010 10000000101 1 1101101101 1010111111 1011110011 10000000100 10000110000 1110111100 1100100000 1100101011 1100011000 25.750 41.947 998.55 47753 16 16 14 59 52 3 $GNGGA,153933.00,4333.69048,N,00128.73528,E,1,06,1.19,148.2,M,53.8,M,,*46
46 15 39 34 4333.6910000128.73578147.7ó 00128.73578 147.7 11101111111 0 1100100011 1111110100 10000110000 1100100001 1101011001 10000001111 1 1101101101 1011000001 1011110011 1111111100 10000101101 1110111010 1100011101 1100110001 1100011100 25.750 42.016 998.54 48751 17 15 14 60 51 3 $GNGGA,153934.00,4333.69100,N,00128.73578,E,1,06,1.19,147.7,M,53.8,M,,*43
47 15 39 35 4333.6910000128.73641147.4ó 00128.73641 147.4 11101111111 0 1100100000 1111110011 10000110010 1100100000 1101010101 10000001101 1 1101101101 1010111111 1011101110 10000000000 10000101101 1110110010 1100011000 1100100011 1100010000 25.750 42.077 998.53 49751 16 16 15 59 51 3 $GNGGA,153935.00,4333.69100,N,00128.73641,E,1,06,1.19,147.4,M,53.8,M,,*48
48 15 39 36 4333.6912600128.73661146.7ó 00128.73661 146.7 11101111111 0 1100011111 1111101101 10000101110 1100100001 1101011000 10000000110 1 1101101101 1011000010 1011110010 10000000000 10000101110 1110111011 1100011001 1100101000 1100001100 25.750 42.115 998.53 50747 18 15 13 60 50 4 $GNGGA,153936.00,4333.69126,N,00128.73661,E,1,06,1.19,146.7,M,53.8,M,,*4F
49 15 39 37 4333.6911600128.73667146.3ó 00128.73667 146.3 11101111111 0 1100011111 1111110010 10000110010 1100011101 1101010011 10000000110 1 1101101101 1011000101 1011110100 1111111101 10000101110 1110111000 1100010101 1100100101 1100000111 25.750 42.138 998.53 51748 16 15 15 59 51 3 $GNGGA,153937.00,4333.69116,N,00128.73667,E,1,06,1.19,146.3,M,53.8,M,,*4F
50 15 39 38 4333.6911500128.73674146.2ó 00128.73674 146.2 11101111111 0 1100100010 1111101111 10000101111 1100100000 1101010110 10000001000 1 1101101101 1010111111 1011110001 1111111111 10000110000 1110111110 1100100010 1100100110 1100001010 25.750 42.145 998.52 52747 16 16 14 59 52 3 $GNGGA,153938.00,4333.69115,N,00128.73674,E,1,06,1.19,146.2,M,53.8,M,,*40
51 15 39 39 4333.6916800128.73683145.5ó 00128.73683 145.5 11101111111 0 1100100001 1111101111 10000110000 1100011101 1101010100 10000001011 1 1101101101 1011000100 1011110100 1111111000 10000101110 1110111001 1100011101 1100101101 1100010011 25.750 42.161 998.52 53745 18 14 13 60 50 4 $GNGGA,153939.00,4333.69168,N,00128.73683,E,1,06,1.19,145.5,M,53.8,M,,*47
52 15 39 40 4333.6918900128.73688145.1ó 00128.73688 145.1 11101111111 0 1100100011 1111101011 10000101110 1100100011 1101011001 10000001101 1 1101101101 1010111111 1011110001 1111111111 10000101101 1110111000 1100011011 1100101011 1100010011 25.750 42.161 998.52 54746 16 16 14 59 51 4 $GNGGA,153940.00,4333.69189,N,00128.73688,E,1,06,1.19,145.1,M,53.8,M,,*49
53 15 39 41 4333.6923500128.73686144.6ó 00128.73686 144.6 11101111111 0 1100011111 1111110000 10000101100 1100011101 1101010101 10000001111 1 1101101101 1011000000 1011110011 1111111000 10000101100 1111000010 1100100001 1100101100 1100010100 25.750 42.168 998.53 55743 18 14 13 59 51 4 $GNGGA,153941.00,4333.69235,N,00128.73686,E,1,06,1.19,144.6,M,53.8,M,,*44
54 15 39 42 4333.6925600128.73679144.0ó 00128.73679 144.0 11101111111 0 1100100000 1111101011 10000101011 1100011110 1101010101 10000001101 1 1101101101 1011000101 1011110100 10000000010 10000101110 1110111100 1100011110 1100101010 1100001010 25.750 42.168 998.53 56743 16 15 15 59 51 3 $GNGGA,153942.00,4333.69256,N,00128.73679,E,1,06,1.19,144.0,M,53.8,M,,*44
55 15 39 43 4333.6928400128.73641143.4ó 00128.73641 143.4 11101111111 0 1100100000 1111110011 10000101101 1100011111 1101010110 10000001110 1 1101101101 1011000011 1011110100 10000001010 10000101111 1110111100 1100011010 1100101011 1100010011 25.750 42.176 998.53 57742 16 14 14 59 52 3 $GNGGA,153943.00,4333.69284,N,00128.73641,E,1,06,1.19,143.4,M,53.8,M,,*42
56 15 39 44 4333.6931200128.73663143.1ó 00128.73663 143.1 11101111111 0 1100100000 1111101011 10000101111 1100011011 1101001100 10000001001 1 1101101101 1011000011 1011110011 10000001000 10000101111 1110111010 1100011011 1100100110 1100001101 25.750 42.176 998.53 58740 17 14 14 59 50 4 $GNGGA,153944.00,4333.69312,N,00128.73663,E,1,06,1.19,143.1,M,53.8,M,,*4E
57 15 39 45 4333.6933600128.73638142.7ó 00128.73638 142.7 11101111111 0 1100100000 1111110011 10000110000 1100011100 1101010110 10000001100 1 1101101101 1011000000 1011110010 10000000100 10000110001 1110111010 1100100000 1100100001 1100001011 25.750 42.183 998.54 59740 17 15 13 59 51 4 $GNGGA,153945.00,4333.69336,N,00128.73638,E,1,07,1.10,142.7,M,53.8,M,,*48
58 15 39 46 4333.6936700128.73660142.3ó 00128.73660 142.3 11101111111 0 1100100001 1111110010 10000101111 1100011011 1101010000 10000001001 1 1101101101 1011000100 1011110101 10000001000 10000110000 1110111100 1100100001 1100101001 1100000100 25.750 42.183 998.54 60739 17 15 14 60 51 3 $GNGGA,153946.00,4333.69367,N,00128.73660,E,1,06,1.19,142.3,M,53.8,M,,*4E
59 15 39 47 4333.6937400128.73694141.6ó 00128.73694 141.6 11101111111 0 1100011111 1111110110 10000110010 1100100100 1101011000 1111111011 1 1101101101 1010111110 1011110000 10000000010 10000110000 1110110101 1100011011 1100101001 1100010001 25.750 42.183 998.54 61736 16 14 14 58 51 4 $GNGGA,153947.00,4333.69374,N,00128.73694,E,1,06,1.19,141.6,M,53.8,M,,*40
60 15 39 48 4333.6936800128.73715141.5ó 00128.73715 141.5 11101111111 0 1100011111 1111111001 10000110010 1100100101 1101011000 10000000001 1 1101101101 1011000100 1011110101 10000000010 10000101110 1110111100 1100011100 1100101110 1100011001 25.750 42.183 998.54 62737 17 15 14 60 51 3 $GNGGA,153948.00,4333.69368,N,00128.73715,E,1,06,1.19,141.5,M,53.8,M,,*49
61 15 39 49 4333.6935100128.73705141.4ó 00128.73705 141.4 11101111111 0 1100100010 1111101010 10000101100 1100100000 1101010111 10000000001 1 1101101101 1010111111 1011110000 10000000001 10000101111 1110111000 1100011100 1100101000 1100010010 25.750 42.183 998.54 63736 16 15 15 59 50 4 $GNGGA,153949.00,4333.69351,N,00128.73705,E,1,06,1.19,141.4,M,53.8,M,,*42
62 15 39 50 4333.6935700128.73729140.9ó 00128.73729 140.9 11101111111 0 1100011110 1111110101 10000110000 1100100001 1101011000 10000000111 1 1101101101 1011000011 1011110101 10000000110 10000110000 1110111100 1100011000 1100101010 1100010101 25.750 42.183 998.55 64735 16 16 14 59 52 3 $GNGGA,153950.00,4333.69357,N,00128.73729,E,1,06,1.19,140.9,M,53.8,M,,*4E
63 15 39 51 4333.6932800128.73676140.5ó 00128.73676 140.5 11101111111 0 1100100001 1111110010 10000110010 1100011011 1101010111 10000001101 1 1101101101 1011000011 1011110011 10000000001 10000101101 1110111000 1100011111 1100101011 1100010110 25.750 42.176 998.54 65734 17 15 14 60 51 3 $GNGGA,153951.00,4333.69328,N,00128.73676,E,1,07,1.10,140.5,M,53.8,M,,*48
64 15 39 52 4333.6934500128.73646140.0ó 00128.73646 140.0 11101111111 0 1100100001 1111110100 10000110001 1100100000 1101011000 10000001100 1 1101101101 1011000011 1011110110 1111111010 10000101110 1110110100 1100011011 1100100110 1100010110 25.750 42.176 998.54 66733 17 15 13 58 51 5 $GNGGA,153952.00,4333.69345,N,00128.73646,E,1,07,1.10,140.0,M,53.8,M,,*46
65 15 39 53 4333.6934700128.73657139.6ó 00128.73657 139.6 11101111111 0 1100100010 1111101110 10000101110 1100100000 1101011000 10000000101 1 1101101101 1010111100 1011101111 10000000111 10000110001 1110111000 1100011100 1100101001 1100011000 25.750 42.168 998.54 67732 17 15 14 60 51 3 $GNGGA,153953.00,4333.69347,N,00128.73657,E,1,07,1.10,139.6,M,53.8,M,,*4D
66 15 39 54 4333.6929300128.73618139.3ó 00128.73618 139.3 11101111111 0 1100100011 1111110110 10000101110 1100100001 1101011010 10000000111 1 1101101101 1011000010 1011110010 10000000011 10000101111 1110111001 1100011011 1100110000 1100011011 25.750 42.168 998.55 68728 17 14 14 59 50 4 $GNGGA,153954.00,4333.69293,N,00128.73618,E,1,06,1.20,139.3,M,53.8,M,,*4E
67 15 39 55 4333.6928400128.73592139.1ó 00128.73592 139.1 11101111111 0 1100100001 1111110101 10000110001 1100100101 1101011010 10000010000 1 1101101101 1010111110 1011110010 1111111110 10000101110 1110111100 1100011001 1100101010 1100010100 25.750 42.176 998.55 69730 16 16 14 59 52 3 $GNGGA,153955.00,4333.69284,N,00128.73592,E,1,06,1.20,139.1,M,53.8,M,,*4A
68 15 39 56 4333.6931400128.73604138.7ó 00128.73604 138.7 11101111111 0 1100100001 1111110011 10000110000 1100100000 1101010100 10000001010 1 1101101101 1010111110 1011110010 1111111011 10000101101 1110110101 1100011000 1100100110 1100001101 25.813 42.199 998.54 70728 18 14 13 60 50 4 $GNGGA,153956.00,4333.69314,N,00128.73604,E,1,06,1.20,138.7,M,53.8,M,,*4A
69 15 39 57 4333.6932400128.73675138.3ó 00128.73675 138.3 11101111111 0 1100100000 1111110110 10000110011 1100011101 1101010011 10000001011 1 1101101101 1010111111 1011110001 1111111011 10000101111 1110111100 1100100000 1100101101 1100010110 25.813 42.206 998.54 71728 16 16 14 59 51 4 $GNGGA,153957.00,4333.69324,N,00128.73675,E,1,06,1.20,138.3,M,53.8,M,,*4A
70 15 39 58 4333.6932400128.73668137.7ó 00128.73668 137.7 11101111111 0 1100100010 1111101100 10000101010 1100011111 1101011100 10000000101 1 1101101101 1010111110 1011110001 1111111101 10000101101 1110111101 1100100010 1100101101 1100010011 25.750 42.191 998.53 72726 17 15 14 60 51 3 $GNGGA,153958.00,4333.69324,N,00128.73668,E,1,06,1.20,137.7,M,53.8,M,,*42
71 15 39 59 4333.6934900128.73745137.2ó 00128.73745 137.2 11101111111 0 1100100000 1111101111 10000101101 1100011111 1101011010 10000001101 1 1101101101 1011000011 1011110100 1111111001 10000101110 1110111100 1100011001 1100101011 1100001101 25.813 42.176 998.54 73724 16 14 15 59 51 3 $GNGGA,153959.00,4333.69349,N,00128.73745,E,1,06,1.20,137.2,M,53.8,M,,*43
72 15 40 00 4333.6934800128.73769136.9ó 00128.73769 136.9 11101111111 0 1100011101 1111101101 10000101101 1100100010 1101011011 1111111111 1 1101101101 1011000010 1011110101 1111111010 10000101110 1111000010 1100100011 1100101000 1100010110 25.750 42.183 998.53 74724 18 14 13 60 50 4 $GNGGA,154000.00,4333.69348,N,00128.73769,E,1,05,2.76,136.9,M,53.8,M,,*47
73 15 40 01 4333.6930700128.73699136.3ó 00128.73699 136.3 11101111111 0 1100100000 1111111000 10000110011 1100100000 1101010111 10000001010 1 1101101101 1010111111 1011110000 1111111100 10000101111 1110111101 1100011111 1100100110 1100001111 25.813 42.260 998.53 75723 16 15 15 59 50 4 $GNGGA,154001.00,4333.69307,N,00128.73699,E,1,05,2.76,136.3,M,53.8,M,,*49
74 15 40 02 4333.6930600128.73720136.2ó 00128.73720 136.2 11101111111 0 1100100000 1111111101 10000110011 1100010111 1101010011 10000000100 1 1101101101 1011000010 1011110100 1111111101 10000110001 1110110101 1100011001 1100101000 1100010111 25.750 42.420 998.54 76722 16 15 14 58 52 3 $GNGGA,154002.00,4333.69306,N,00128.73720,E,1,05,2.76,136.2,M,53.8,M,,*49
75 15 40 03 4333.6929500128.73718135.8ó 00128.73718 135.8 11101111111 0 1100100000 1111110110 10000110000 1100100001 1101011000 10000001111 1 1101101101 1011000001 1011110111 1111111011 10000101110 1110111111 1100011001 1100101011 1100010011 25.750 42.496 998.54 77721 17 15 14 60 51 3 $GNGGA,154003.00,4333.69295,N,00128.73718,E,1,05,2.75,135.8,M,53.8,M,,*42
76 15 40 04 4333.6928600128.73736135.6ó 00128.73736 135.6 11101111111 0 1100100001 1111110010 10000110001 1100100100 1101011011 10000001100 1 1101101101 1011000010 1011110101 1111111011 10000101101 1110111001 1100010111 1100100010 1100001001 25.813 42.473 998.54 78720 16 16 15 59 51 3 $GNGGA,154004.00,4333.69286,N,00128.73736,E,1,05,2.75,135.6,M,53.8,M,,*45
77 15 40 05 4333.6927100128.73764135.3ó 00128.73764 135.3 11101111111 0 1100100010 1111110000 10000101111 1100100000 1101010111 10000001000 1 1101101101 1010111110 1011110100 1111111101 10000101111 1110110110 1100011000 1100110000 1100011101 25.813 42.473 998.54 79717 18 15 13 60 50 4 $GNGGA,154005.00,4333.69271,N,00128.73764,E,1,05,2.75,135.3,M,53.8,M,,*4E
78 15 40 06 4333.6925600128.73712135.1ó 00128.73712 135.1 11101111111 0 1100100000 1111110000 10000101101 1100100001 1101010101 10000000000 1 1101101101 1011000011 1011110010 10000000011 10000110000 1110111010 1100100000 1100101010 1100010001 25.750 42.473 998.54 80717 16 15 15 59 51 3 $GNGGA,154006.00,4333.69256,N,00128.73712,E,1,05,2.75,135.1,M,53.8,M,,*4B
79 15 40 07 4333.6925600128.73747134.9ó 00128.73747 134.9 11101111111 0 1100100001 1111110011 10000101111 1100100101 1101011101 10000000111 1 1101101101 1010111111 1011110011 10000000000 10000101111 1110110110 1100011101 1100101110 1100010010 25.750 42.466 998.53 81717 16 16 14 59 51 4 $GNGGA,154007.00,4333.69256,N,00128.73747,E,1,05,2.75,134.9,M,53.8,M,,*43
80 15 40 08 4333.6925300128.73732134.8ó 00128.73732 134.8 11101111111 0 1100011111 1111110100 10000101110 1100011101 1101010101 10000001001 1 1101101101 1011000101 1011110110 1111110110 10000101110 1110110101 1100011011 1100100100 1100010000 25.750 42.458 998.55 82715 18 14 13 60 50 4 $GNGGA,154008.00,4333.69253,N,00128.73732,E,1,05,2.75,134.8,M,53.8,M,,*4A
81 15 40 09 4333.6923700128.73715134.6ó 00128.73715 134.6 11101111111 0 1100011111 1111111010 10000110000 1100011111 1101010100 10000000111 1 1101101101 1010111111 1011110000 1111111010 10000101110 1110110100 1100011010 1100100101 1100010100 25.750 42.450 998.54 83715 16 15 13 58 51 5 $GNGGA,154009.00,4333.69237,N,00128.73715,E,1,05,2.75,134.6,M,53.8,M,,*42
82 15 40 10 4333.6921000128.73755134.5ó 00128.73755 134.5 11101111111 0 1100011111 1111111000 10000101110 1100100010 1101011010 10000001100 1 1101101101 1011000000 1011110010 10000000011 10000101111 1110111111 1100011101 1100101010 1100010000 25.813 42.443 998.53 84714 17 14 14 60 51 3 $GNGGA,154010.00,4333.69210,N,00128.73755,E,1,05,2.75,134.5,M,53.8,M,,*48
83 15 40 11 4333.6916800128.73667134.4ó 00128.73667 134.4 11101111111 0 1100011111 1111110101 10000101111 1100011011 1101010101 10000001010 1 1101101101 1011000001 1011110010 1111111000 10000101111 1110111110 1100100000 1100101100 1100011011 25.750 42.450 998.53 85712 16 15 15 59 51 3 $GNGGA,154011.00,4333.69168,N,00128.73667,E,1,05,2.75,134.4,M,53.8,M,,*44
84 15 40 12 4333.6915800128.73693134.3ó 00128.73693 134.3 11101111111 0 1100011110 1111110001 10000110000 1100011010 1101010000 10000000100 1 1101101101 1010111111 1011110011 1111111101 10000101101 1111000010 1100100101 1100110001 1100010101 25.813 42.458 998.54 86712 16 16 14 59 52 3 $GNGGA,154012.00,4333.69158,N,00128.73693,E,1,05,2.75,134.3,M,53.8,M,,*48
85 15 40 13 4333.6916900128.73681134.2ó 00128.73681 134.2 11101111111 0 1100011111 1111110111 10000110001 1100011110 1101010100 10000000110 1 1101101101 1010111111 1011110011 1111111100 10000101110 1110110110 1100011100 1100101000 1100010100 25.813 42.458 998.55 87709 18 14 13 60 50 4 $GNGGA,154013.00,4333.69169,N,00128.73681,E,1,05,2.75,134.2,M,53.8,M,,*49
86 15 40 14 4333.6915800128.73712134.2ó 00128.73712 134.2 11101111111 0 1100100001 1111110010 10000101111 1100100101 1101011110 10000000101 1 1101101101 1011000010 1011110010 10000000100 10000110000 1110111010 1100011111 1100101001 1100010011 25.813 42.443 998.55 88710 17 16 13 59 50 5 $GNGGA,154014.00,4333.69158,N,00128.73712,E,1,05,2.75,134.2,M,53.8,M,,*47
87 15 40 15 4333.6916600128.73756134.2ó 00128.73756 134.2 11101111111 0 1100100000 1111110110 10000110010 1100011010 1101010011 10000000110 1 1101101101 1011000000 1011110001 10000000100 10000110001 1110111000 1100011010 1100100101 1100001100 25.750 42.443 998.54 89708 17 14 14 60 51 3 $GNGGA,154015.00,4333.69166,N,00128.73756,E,1,05,2.75,134.2,M,53.8,M,,*4B
88 15 40 16 4333.6913800128.73695134.3ó 00128.73695 134.3 11101111111 0 1100011110 1111110111 10000110010 1100100101 1101011001 10000000111 1 1101101101 1010111100 1011110001 10000000000 10000101110 1110111001 1100011011 1100101011 1100011001 25.813 42.435 998.54 90705 16 15 15 59 51 3 $GNGGA,154016.00,4333.69138,N,00128.73695,E,1,05,2.75,134.3,M,53.8,M,,*4C
89 15 40 17 4333.6913100128.73708134.4ó 00128.73708 134.4 11101111111 0 1100011111 1111110111 10000110000 1100011100 1101010001 10000001000 1 1101101101 1011000010 1011110100 1111111110 10000110000 1110111011 1100011110 1100101011 1100010111 25.813 42.428 998.55 91706 17 14 13 59 51 4 $GNGGA,154017.00,4333.69131,N,00128.73708,E,1,05,2.75,134.4,M,53.8,M,,*46
90 15 40 18 4333.6911400128.73706134.5ó 00128.73706 134.5 11101111111 0 1100011111 1111110100 10000101110 1100100010 1101010110 10000001011 1 1101101101 1010111110 1011110000 1111110111 10000101011 1110111100 1100011100 1100101110 1100011001 25.813 42.420 998.56 92706 17 15 14 59 50 4 $GNGGA,154018.00,4333.69114,N,00128.73706,E,1,05,2.75,134.5,M,53.8,M,,*41
91 15 40 19 4333.6911700128.73751134.6ó 00128.73751 134.6 11101111111 0 1100100000 1111110010 10000110001 1100100000 1101010111 10000001101 1 1101101101 1010111110 1011110001 1111111100 10000110000 1110111010 1100011011 1100101101 1100010101 25.813 42.412 998.55 93704 16 15 14 59 52 3 $GNGGA,154019.00,4333.69117,N,00128.73751,E,1,05,2.75,134.6,M,53.8,M,,*42
92 15 40 20 4333.6911100128.73759134.7ó 00128.73759 134.7 11101111111 0 1100100010 1111110100 10000110010 1100011010 1101010001 10000000101 1 1101101101 1011000010 1011110101 1111111101 10000101111 1110110111 1100011011 1100101100 1100010100 25.750 42.412 998.54 94703 17 15 14 60 51 3 $GNGGA,154020.00,4333.69111,N,00128.73759,E,1,05,2.75,134.7,M,53.8,M,,*47
93 15 40 21 4333.6916300128.73854134.8ó 00128.73854 134.8 11101111111 0 1100100000 1111110001 10000110000 1100100100 1101011000 10000001111 1 1101101101 1010111111 1011110001 1111111001 10000101101 1110110100 1100011000 1100101001 1100010011 25.813 42.420 998.55 95703 17 16 14 59 50 4 $GNGGA,154021.00,4333.69163,N,00128.73854,E,1,05,2.75,134.8,M,53.8,M,,*4E
94 15 40 22 4333.6912400128.73796134.9ó 00128.73796 134.9 11101111111 0 1100011111 1111101011 10000101100 1100100010 1101010100 10000001001 1 1101101101 1010111111 1011110011 1111110111 10000101110 1110110101 1100011100 1100101010 1100011000 25.813 42.443 998.54 96700 17 15 14 60 51 3 $GNGGA,154022.00,4333.69124,N,00128.73796,E,1,05,2.75,134.9,M,53.8,M,,*4E
95 15 40 23 4333.6915200128.73890135.0ó 00128.73890 135.0 11101111111 0 1100100010 1111110001 10000110000 1100100001 1101010111 10000001001 1 1101101101 1011000010 1011110011 1111111011 10000101110 1110111010 1100011001 1100101000 1100001111 25.813 42.450 998.54 97698 16 15 15 59 51 3 $GNGGA,154023.00,4333.69152,N,00128.73890,E,1,05,2.74,135.0,M,53.8,M,,*4E
96 15 40 24 4333.6915200128.73972135.1ó 00128.73972 135.1 11101111111 0 1100011101 1111101101 10000101101 1100011101 1101010001 10000000010 1 1101101101 1011000001 1011110100 1111111011 10000101110 1110110111 1100011011 1100110000 1100011001 25.813 42.428 998.54 98700 17 16 13 59 51 4 $GNGGA,154024.00,4333.69152,N,00128.73972,E,1,05,2.74,135.1,M,53.8,M,,*45
97 15 40 25 4333.6915400128.73968135.3ó 00128.73968 135.3 100000000000 0 1100100000 1111110011 10000101111 1100100010 1101011001 10000000101 1 1101101101 1011000000 1011110010 1111111010 10000101110 1110111100 1100011110 1100100100 1100001011 25.813 42.389 998.55 99698 17 15 14 60 51 3 $GNGGA,154025.00,4333.69154,N,00128.73968,E,1,05,2.74,135.3,M,53.8,M,,*4B
98 15 40 26 4333.6914700128.73998135.5ó 00128.73998 135.5 11101111111 0 1100100010 1111110100 10000110100 1100100100 1101011001 10000010000 1 1101101101 1011000011 1011110100 1111111101 10000110000 1110111010 1100011011 1100100110 1100010001 25.813 42.359 998.55 100698 16 15 13 58 51 5 $GNGGA,154026.00,4333.69147,N,00128.73998,E,1,05,2.74,135.5,M,53.8,M,,*43
99 15 40 27 4333.6914400128.74000135.7ó 00128.74000 135.7 11101111111 0 1100011110 1111110110 10000110001 1100011000 1101010001 10000010011 1 1101101101 1011000000 1011110010 1111111101 10000110001 1110111001 1100100000 1100101011 1100011001 25.750 42.328 998.55 101695 18 14 13 59 51 4 $GNGGA,154027.00,4333.69144,N,00128.74000,E,1,05,2.74,135.7,M,53.8,M,,*4C
100 15 40 28 4333.6917400128.74105135.7ó 00128.74105 135.7 11101111111 0 1100100001 1111101100 10000110000 1100100000 1101010101 10000001111 1 1101101101 1011000001 1011110010 10000000001 10000110000 1110111001 1100011100 1100101101 1100011001 25.813 42.313 998.55 102695 17 15 14 59 50 4 $GNGGA,154028.00,4333.69174,N,00128.74105,E,1,05,2.74,135.7,M,53.8,M,,*44
101 15 40 29 4333.6918900128.74161135.9ó 00128.74161 135.9 11101111111 0 1100100000 1111110001 10000101110 1100011100 1101010101 10000001111 1 1101101101 1010111101 1011110000 10000000110 10000110000 1110111001 1100011011 1100110100 1100010101 25.750 42.298 998.55 103694 18 14 13 60 50 4 $GNGGA,154029.00,4333.69189,N,00128.74161,E,1,05,2.74,135.9,M,53.8,M,,*4B
102 15 40 30 4333.6913000128.73868137.5ó 00128.73868 137.5 11101111111 0 1100011111 1111110101 10000110010 1100011111 1101010110 10000010010 1 1101101101 1011000000 1011110000 10000000100 10000101110 1110111111 1100100011 1100101100 1100010011 25.813 42.290 998.55 104694 16 15 15 59 51 3 $GNGGA,154030.00,4333.69130,N,00128.73868,E,1,07,1.47,137.5,M,53.8,M,,*49
103 15 40 31 4333.6899700128.73335139.0ó 00128.73335 139.0 11101111111 0 1100100000 1111110111 10000110001 1100011110 1101010100 10000010011 1 1101101101 1011000001 1011110010 10000000100 10000110000 1110111001 1100011011 1100101100 1100010101 25.750 42.283 998.55 105694 16 15 13 59 52 4 $GNGGA,154031.00,4333.68997,N,00128.73335,E,1,07,1.47,139.0,M,53.8,M,,*44
104 15 40 32 4333.6898000128.73264139.3ó 00128.73264 139.3 11101111111 0 1100100001 1111110100 10000110010 1100100000 1101011001 10000010001 1 1101101101 1011000101 1011110100 10000000100 10000101111 1110111011 1100011100 1100100101 1100010110 25.813 42.290 998.55 106692 17 15 14 60 51 3 $GNGGA,154032.00,4333.68980,N,00128.73264,E,1,06,1.86,139.3,M,53.8,M,,*4B
105 15 40 33 4333.6900900128.73366139.6ó 00128.73366 139.6 11101111111 0 1100100000 1111101101 10000110001 1100011111 1101011100 10000001001 1 1101101101 1011000101 1011110101 1111111100 10000110001 1110111000 1100011000 1100101001 1100010100 25.813 42.275 998.55 107691 17 15 14 59 50 4 $GNGGA,154033.00,4333.69009,N,00128.73366,E,1,06,1.86,139.6,M,53.8,M,,*45
106 15 40 34 4333.6902200128.73375139.9ó 00128.73375 139.9 11101111111 0 1100100001 1111101011 10000101111 1100100000 1101011100 10000001100 1 1101101101 1011000011 1011110011 10000000011 10000110000 1110110111 1100011100 1100100101 1100011001 25.750 42.267 998.56 108687 18 14 13 60 50 4 $GNGGA,154034.00,4333.69022,N,00128.73375,E,1,06,1.86,139.9,M,53.8,M,,*46
107 15 40 35 4333.6903500128.73351140.5ó 00128.73351 140.5 11101111111 0 1100011110 1111110100 10000110001 1100011100 1101010011 10000000111 0 1101101101 1011000011 1011110100 1111111110 10000101101 1110110100 1100011010 1100101100 1100010101 25.750 42.244 998.55 109688 16 14 14 58 51 4 $GNGGA,154035.00,4333.69035,N,00128.73351,E,1,06,1.86,140.5,M,53.8,M,,*45
108 15 40 36 4333.6902300128.73256140.8ó 00128.73256 140.8 11101111111 0 1100100010 1111110010 10000101110 1100011011 1101010110 1111111100 1 1101101101 1011000001 1011110010 10000000100 10000110001 1110111000 1100011011 1100100100 1100001110 25.813 42.229 998.54 110687 16 15 14 59 52 3 $GNGGA,154036.00,4333.69023,N,00128.73256,E,1,06,1.86,140.8,M,53.8,M,,*4A
109 15 40 37 4333.6902800128.73269141.2ó 00128.73269 141.2 11101111111 0 1100100000 1111110001 10000101101 1100100011 1101011000 10000001110 1 1101101101 1010111111 1011110010 1111111010 10000101100 1110111010 1100011100 1100100111 1100010100 25.813 42.214 998.55 111686 18 14 13 60 50 4 $GNGGA,154037.00,4333.69028,N,00128.73269,E,1,06,1.86,141.2,M,53.8,M,,*47
110 15 40 38 4333.6900800128.73198141.5ó 00128.73198 141.5 11101111111 0 1100011101 1111101011 10000110000 1100011000 1101010001 10000001110 1 1101101101 1010111100 1011110010 1111111011 10000101110 1110111011 1100011100 1100101001 1100011000 25.813 42.214 998.55 112685 17 15 13 59 50 5 $GNGGA,154038.00,4333.69008,N,00128.73198,E,1,06,1.86,141.5,M,53.8,M,,*40
111 15 40 39 4333.6899400128.73175142.0ó 00128.73175 142.0 11101111111 0 1100100001 1111110010 10000101111 1100100000 1101010110 10000001010 1 1101101101 1011000100 1011110100 1111111110 10000101111 1110110111 1100011011 1100100011 1100010100 25.750 42.214 998.54 113684 17 14 13 59 51 4 $GNGGA,154039.00,4333.68994,N,00128.73175,E,1,06,1.86,142.0,M,53.8,M,,*49
112 15 40 40 4333.6896900128.73040142.5ó 00128.73040 142.5 11101111111 0 1100011111 1111110000 10000101111 1100011100 1101010101 10000000111 1 1101101101 1011000100 1011110101 1111110111 10000101101 1110111011 1100100000 1100101001 1100011000 25.813 42.222 998.56 114683 17 14 14 58 51 4 $GNGGA,154040.00,4333.68969,N,00128.73040,E,1,06,1.86,142.5,M,53.8,M,,*47
113 15 40 41 4333.6896500128.72965142.8ó 00128.72965 142.8 11101111111 0 1100011111 1111110000 10000110011 1100100010 1101010101 10000001011 1 1101101101 1010111111 1011110010 1111111101 10000101110 1110111010 1100011100 1100100111 1100010110 25.813 42.229 998.56 115682 16 15 13 58 52 4 $GNGGA,154041.00,4333.68965,N,00128.72965,E,1,06,1.86,142.8,M,53.8,M,,*48
114 15 40 42 4333.6897100128.72971143.1ó 00128.72971 143.1 11101111111 0 1100100001 1111111010 10000110110 1100100101 1101011111 10000001111 1 1101101101 1011000001 1011110011 1111111010 10000101110 1111000001 1100100000 1100101001 1100010110 25.750 42.237 998.57 116681 17 15 14 60 51 3 $GNGGA,154042.00,4333.68971,N,00128.72971,E,1,06,1.86,143.1,M,53.8,M,,*43
115 15 40 43 4333.6898300128.72994143.5ó 00128.72994 143.5 11101111111 0 1100100000 1111110110 10000110100 1100011101 1101010010 10000001000 1 1101101101 1011000001 1011110011 10000000010 10000110000 1110110110 1100011001 1100101010 1100010111 25.750 42.222 998.56 117681 16 15 13 58 52 4 $GNGGA,154043.00,4333.68983,N,00128.72994,E,1,06,1.86,143.5,M,53.8,M,,*40
116 15 40 44 4333.6898100128.72984144.0ó 00128.72984 144.0 11101111111 0 1100011110 1111110101 10000110000 1100011110 1101011000 10000010010 1 1101101101 1010111111 1011110010 10000000001 10000101110 1110110010 1100011000 1100101000 1100010101 25.813 42.214 998.56 118680 17 14 14 60 51 3 $GNGGA,154044.00,4333.68981,N,00128.72984,E,1,06,1.86,144.0,M,53.8,M,,*46
117 15 40 45 4333.6899300128.73003144.4ó 00128.73003 144.4 11101111111 0 1100100001 1111101011 10000101110 1100011011 1101010011 10000001001 1 1101101101 1011000010 1011110111 1111111100 10000101100 1110110111 1100010111 1100110000 1100010111 25.750 42.199 998.57 119677 16 15 15 59 51 3 $GNGGA,154045.00,4333.68993,N,00128.73003,E,1,06,1.86,144.4,M,53.8,M,,*47
118 15 40 46 4333.6899300128.72962145.0ó 00128.72962 145.0 11101111111 0 1100100001 1111110010 10000101111 1100011100 1101010001 10000001000 1 1101101101 1011000001 1011110000 1111111111 10000101111 1110110100 1100011010 1100101101 1100001101 25.813 42.191 998.56 120678 17 15 14 60 51 3 $GNGGA,154046.00,4333.68993,N,00128.72962,E,1,06,1.86,145.0,M,53.8,M,,*4E
119 15 40 47 4333.6900200128.72965145.6ó 00128.72965 145.6 11101111111 0 1100100000 1111110010 10000101111 1100011011 1101010010 10000001001 1 1101101101 1011000000 1011110011 1111111111 10000110001 1110111011 1100011111 1100101010 1100010110 25.813 42.191 998.55 121676 17 15 14 59 50 4 $GNGGA,154047.00,4333.69002,N,00128.72965,E,1,06,1.86,145.6,M,53.8,M,,*4E
120 15 40 48 4333.6899800128.72938146.1ó 00128.72938 146.1 11101111111 0 1100100000 1111101111 10000110000 1100100110 1101011111 10000001110 1 1101101101 1010111111 1011110010 1111111100 10000101100 1110111100 1100011101 1100100100 1100001101 25.813 42.183 998.54 122675 16 15 13 58 52 4 $GNGGA,154048.00,4333.68998,N,00128.72938,E,1,06,1.86,146.1,M,53.8,M,,*46
121 15 40 49 4333.6900700128.72981146.8ó 00128.72981 146.8 11101111111 0 1100100000 1111110101 10000110000 1100011000 1101001011 10000001010 1 1101101101 1010111100 1011101111 10000000001 10000110000 1110111011 1100011010 1100100011 1100001110 25.813 42.183 998.55 123673 18 14 13 60 50 4 $GNGGA,154049.00,4333.69007,N,00128.72981,E,1,06,1.86,146.8,M,53.8,M,,*42
122 15 40 50 4333.6899700128.72905147.0ó 00128.72905 147.0 11101111111 0 1100100000 1111110010 10000101111 1100011100 1101001111 10000010111 1 1101101101 1011000000 1011110100 1111111111 10000101110 1110111100 1100011101 1100100001 1100010010 25.813 42.183 998.56 124673 16 16 15 59 51 3 $GNGGA,154050.00,4333.68997,N,00128.72905,E,1,06,1.86,147.0,M,53.8,M,,*4E
123 15 40 51 4333.6899300128.72898147.3ó 00128.72898 147.3 11101111111 0 1100011101 1111110011 10000110001 1100100111 1101010111 10000001100 1 1101101101 1010111110 1011110010 1111111100 10000101111 1110110101 1100011001 1100100100 1100010110 25.750 42.168 998.56 125670 17 15 14 60 51 3 $GNGGA,154051.00,4333.68993,N,00128.72898,E,1,04,3.96,147.3,M,53.8,M,,*4C
124 15 40 52 4333.6899300128.72913147.7ó 00128.72913 147.7 11101111111 0 1100100000 1111110010 10000110001 1100100100 1101011010 10000010100 1 1101101101 1011000010 1011110011 1111111010 10000110000 1110110010 1100010101 1100101100 1100010011 25.813 42.176 998.55 126670 16 14 14 58 51 4 $GNGGA,154052.00,4333.68993,N,00128.72913,E,1,05,2.73,147.7,M,53.8,M,,*42
125 15 40 53 4333.6898200128.72899147.9ó 00128.72899 147.9 11101111111 0 1100100010 1111110000 10000101101 1100011100 1101010100 10000010010 1 1101101101 1010111110 1011110010 1111111101 10000101110 1110110101 1100010011 1100100011 1100001100 25.750 42.176 998.55 127669 16 15 13 58 52 4 $GNGGA,154053.00,4333.68982,N,00128.72899,E,1,05,2.73,147.9,M,53.8,M,,*4E
126 15 40 54 4333.6897700128.72916148.2ó 00128.72916 148.2 11101111111 0 1100100010 1111110010 10000110001 1100100011 1101010111 10000010000 1 1101101101 1011000001 1011110101 1111111101 10000101110 1110110111 1100011010 1100100110 1100001011 25.813 42.183 998.55 128668 17 14 13 59 51 4 $GNGGA,154054.00,4333.68977,N,00128.72916,E,1,05,2.73,148.2,M,53.8,M,,*41
127 15 40 55 4333.6898800128.72985148.4ó 00128.72985 148.4 11101111111 0 1100100001 1111110000 10000101101 1100100000 1101011000 10000001100 1 1101101101 1011000000 1011110011 1111111000 10000101100 1110111100 1100100010 1100101110 1100011000 25.813 42.191 998.55 129668 16 16 14 59 50 5 $GNGGA,154055.00,4333.68988,N,00128.72985,E,1,05,2.73,148.4,M,53.8,M,,*4C
128 15 40 56 4333.6898000128.72980148.7ó 00128.72980 148.7 11101111111 0 1100100011 1111110110 10000110000 1100011110 1101011000 10000001011 1 1101101101 1011000101 1011110100 10000000011 10000110000 1110111011 1100011110 1100101001 1100011000 25.813 42.199 998.54 130665 17 15 14 60 50 4 $GNGGA,154056.00,4333.68980,N,00128.72980,E,1,06,1.86,148.7,M,53.8,M,,*4B
129 15 40 57 4333.6897800128.72997149.2ó 00128.72997 149.2 11101111111 0 1100100000 1111101110 10000101111 1100100010 1101011000 10000000111 1 1101101101 1010111101 1011101111 1111111001 10000101100 1110111101 1100100000 1100101001 1100010000 25.750 42.199 998.55 131665 16 14 14 59 51 4 $GNGGA,154057.00,4333.68978,N,00128.72997,E,1,06,1.86,149.2,M,53.8,M,,*4F
130 15 40 58 4333.6898300128.72995149.3ó 00128.72995 149.3 11101111111 0 1100100011 1111101111 10000101110 1100011100 1101010110 10000001100 1 1101101101 1010111111 1011110001 1111111101 10000101111 1110111010 1100100001 1100101011 1100011000 25.813 42.183 998.54 132665 16 16 14 60 51 3 $GNGGA,154058.00,4333.68983,N,00128.72995,E,1,06,1.85,149.3,M,53.8,M,,*44
131 15 40 59 4333.6898000128.73003149.4ó 00128.73003 149.4 11101111111 0 1100011101 1111110000 10000110010 1100011100 1101010100 10000001100 1 1101101101 1011000100 1011110100 1111111100 10000101111 1110111010 1100011100 1100101101 1100011001 25.813 42.168 998.55 133663 17 14 14 59 50 4 $GNGGA,154059.00,4333.68980,N,00128.73003,E,1,05,2.73,149.4,M,53.8,M,,*4F
132 15 41 00 4333.6898100128.73034149.5ó 00128.73034 149.5 11101111111 0 1100100010 1111110001 10000110000 1100011100 1101011000 10000000111 1 1101101101 1010111110 1011110000 1111111010 10000101111 1110111100 1100100000 1100101001 1100010100 25.813 42.168 998.55 134663 16 16 14 59 52 3 $GNGGA,154100.00,4333.68981,N,00128.73034,E,1,05,2.73,149.5,M,53.8,M,,*46
133 15 41 01 4333.6899100128.73134149.8ó 00128.73134 149.8 11101111111 0 1100011110 1111110000 10000110000 1100011011 1101010101 10000000110 1 1101101101 1011000100 1011110110 10000000100 10000110000 1110111101 1100100000 1100101011 1100010001 25.813 42.168 998.56 135660 17 15 14 60 51 3 $GNGGA,154101.00,4333.68991,N,00128.73134,E,1,05,2.73,149.8,M,53.8,M,,*4A
134 15 41 02 4333.6901200128.73245150.1ó 00128.73245 150.1 11101111111 0 1100100001 1111110001 10000110101 1100100101 1101010110 10000001100 1 1101101101 1011000000 1011110010 1111111101 10000101101 1110111100 1100100000 1100100111 1100010010 25.750 42.176 998.56 136659 17 14 14 59 50 4 $GNGGA,154102.00,4333.69012,N,00128.73245,E,1,05,2.72,150.1,M,53.8,M,,*4F
135 15 41 03 4333.6902000128.73290150.5ó 00128.73290 150.5 11101111111 0 1100100000 1111110011 10000110001 1100100000 1101010111 10000001110 1 1101101101 1011000011 1011110101 1111111100 10000101101 1110110101 1100011000 1100100111 1100010010 25.813 42.176 998.57 137658 18 14 13 60 50 4 $GNGGA,154103.00,4333.69020,N,00128.73290,E,1,05,2.72,150.5,M,53.8,M,,*43
136 15 41 04 4333.6904000128.73445151.0ó 00128.73445 151.0 11101111111 0 1100100010 1111110010 10000110100 1100100000 1101010100 10000001101 1 1101101101 1011000001 1011110011 1111111111 10000110000 1110111011 1100011100 1100100010 1100010010 25.813 42.176 998.57 138658 16 14 15 59 51 3 $GNGGA,154104.00,4333.69040,N,00128.73445,E,1,05,2.72,151.0,M,53.8,M,,*48
137 15 41 05 4333.6904300128.73441151.3ó 00128.73441 151.3 11101111111 0 1100100010 1111110101 10000101111 1100011100 1101010001 10000001011 1 1101101101 1011000000 1011110011 1111111100 10000110001 1110110011 1100011000 1100101111 1100010001 25.813 42.183 998.57 139658 17 15 13 58 52 4 $GNGGA,154105.00,4333.69043,N,00128.73441,E,1,05,2.72,151.3,M,53.8,M,,*4D
138 15 41 06 4333.6905100128.73468151.6ó 00128.73468 151.6 11101111111 0 1100011111 1111110000 10000101101 1100011010 1101010101 10000001100 1 1101101101 1011000001 1011110100 1111111110 10000101111 1110110101 1100011100 1100100111 1100010101 25.813 42.183 998.55 140656 17 15 14 60 51 3 $GNGGA,154106.00,4333.69051,N,00128.73468,E,1,05,2.72,151.6,M,53.8,M,,*43
139 15 41 07 4333.6907500128.73577151.6ó 00128.73577 151.6 11101111111 0 1100100001 1111110001 10000101111 1100100001 1101011000 10000001111 1 1101101101 1011000011 1011110101 1111111001 10000101101 1110110111 1100011001 1100100010 1100001110 25.750 42.176 998.56 141656 16 16 15 59 51 3 $GNGGA,154107.00,4333.69075,N,00128.73577,E,1,05,2.72,151.6,M,53.8,M,,*4B
140 15 41 08 4333.6908000128.73607151.8ó 00128.73607 151.8 11101111111 0 1100011011 1111110010 10000101110 1100011101 1101010101 10000001010 1 1101101101 1010111101 1011110010 1111111101 10000110000 1110110000 1100011010 1100100101 1100010000 25.750 42.183 998.56 142655 17 15 14 60 51 3 $GNGGA,154108.00,4333.69080,N,00128.73607,E,1,05,2.72,151.8,M,53.8,M,,*44
141 15 41 09 4333.6907700128.73575152.0ó 00128.73575 152.0 11101111111 0 1100100000 1111101111 10000110011 1100011110 1101010011 10000001011 1 1101101101 1011000011 1011110010 1111111110 10000101110 1110110111 1100011001 1100101001 1100011000 25.813 42.168 998.56 143654 16 15 15 59 51 3 $GNGGA,154109.00,4333.69077,N,00128.73575,E,1,05,2.72,152.0,M,53.8,M,,*40
142 15 41 10 4333.6908400128.73599152.1ó 00128.73599 152.1 11101111111 0 1100100000 1111110001 10000101110 1100011100 1101010010 10000001011 1 1101101101 1010111111 1011110010 10000000000 10000101111 1110111000 1100011100 1100100111 1100001100 25.813 42.168 998.57 144653 16 15 13 58 52 4 $GNGGA,154110.00,4333.69084,N,00128.73599,E,1,05,2.72,152.1,M,53.8,M,,*47
143 15 41 11 4333.6909700128.73645152.1ó 00128.73645 152.1 11101111111 0 1100100001 1111110011 10000110010 1100011010 1101000101 10000001000 1 1101101101 1011000001 1011110010 1111111110 10000101110 1110111010 1100100010 1100100110 1100001110 25.813 42.168 998.57 145652 16 15 15 59 50 4 $GNGGA,154111.00,4333.69097,N,00128.73645,E,1,05,2.72,152.1,M,53.8,M,,*46
144 15 41 12 4333.6911500128.73716152.1ó 00128.73716 152.1 11101111111 0 1100100000 1111110001 10000101111 1100011010 1101010000 10000001110 1 1101101101 1010111100 1011110001 1111111111 10000110000 1110111100 1100011011 1100101000 1100011010 25.813 42.168 998.57 146651 16 16 14 59 51 4 $GNGGA,154112.00,4333.69115,N,00128.73716,E,1,05,2.72,152.1,M,53.8,M,,*49
145 15 41 13 4333.6912900128.73742152.2ó 00128.73742 152.2 11101111111 0 1100100010 1111110101 10000110010 1100011111 1101011000 10000010110 1 1101101101 1011000010 1011110011 1111111100 10000101101 1110110101 1100011001 1100100101 1100010000 25.750 42.161 998.56 147650 17 15 14 60 51 3 $GNGGA,154113.00,4333.69129,N,00128.73742,E,1,05,2.72,152.2,M,53.8,M,,*45
146 15 41 14 4333.6913500128.73762152.2ó 00128.73762 152.2 11101111111 0 1100100010 1111111000 10000110000 1100100010 1101011001 10000010010 1 1101101101 1010111111 1011110010 1111111010 10000101101 1110111010 1100011110 1100100111 1100010001 25.813 42.176 998.56 148647 16 15 15 59 51 3 $GNGGA,154114.00,4333.69135,N,00128.73762,E,1,05,2.72,152.2,M,53.8,M,,*4D
147 15 41 15 4333.6914900128.73829152.2ó 00128.73829 152.2 11101111111 0 1100100000 1111101010 10000101111 1100011110 1101010001 10000011000 1 1101101101 1010111101 1011110001 10000000101 10000101111 1110110110 1100011001 1100101010 1100010010 25.813 42.191 998.56 149647 18 14 13 59 51 4 $GNGGA,154115.00,4333.69149,N,00128.73829,E,1,05,2.72,152.2,M,53.8,M,,*47
148 15 41 16 4333.6918600128.73997152.4ó 00128.73997 152.4 11101111111 0 1100011111 1111111000 10000110001 1100100010 1101010111 10000011100 1 1101101101 1011000001 1011110100 10000000011 10000110000 1110111011 1100100010 1100101100 1100011010 25.750 42.206 998.56 150647 17 15 14 59 50 4 $GNGGA,154116.00,4333.69186,N,00128.73997,E,1,05,2.72,152.4,M,53.8,M,,*45
149 15 41 17 4333.6918800128.73975152.1ó 00128.73975 152.1 11101111111 0 1100100010 1111110011 10000110010 1100100110 1101011010 10000010101 1 1101101101 1011000011 1011110111 1111111110 10000110010 1110110111 1100011100 1100101100 1100010111 25.813 42.222 998.55 151646 16 16 14 59 52 3 $GNGGA,154117.00,4333.69188,N,00128.73975,E,1,05,2.72,152.1,M,53.8,M,,*43
150 15 41 18 4333.6918700128.73991152.1ó 00128.73991 152.1 100000000000 0 1100011110 1111110010 10000110000 1100100000 1101010101 10000011010 1 1101101101 1011000010 1011110011 10000000100 10000110000 1110111001 1100011110 1100101111 1100011000 25.750 42.244 998.55 152645 17 15 14 60 51 3 $GNGGA,154118.00,4333.69187,N,00128.73991,E,1,05,2.72,152.1,M,53.8,M,,*49
151 15 41 19 4333.6921000128.74139152.0ó 00128.74139 152.0 11101111111 0 1100100011 1111110001 10000110000 1100011011 1101010001 10000010011 1 1101101101 1010111101 1011110001 1111111001 10000101110 1110111000 1100011010 1100110000 1100011111 25.813 42.252 998.56 153644 17 15 14 59 50 4 $GNGGA,154119.00,4333.69210,N,00128.74139,E,1,06,1.85,152.0,M,53.8,M,,*41
152 15 41 20 4333.6920600128.74141151.9ó 00128.74141 151.9 11101111111 0 1100100010 1111111011 10000110001 1100100010 1101010100 10000001010 1 1101101101 1010111110 1011101111 1111111100 10000101111 1110101111 1100010111 1100101101 1100010100 25.750 42.267 998.55 154642 18 14 13 59 51 4 $GNGGA,154120.00,4333.69206,N,00128.74141,E,1,05,2.72,151.9,M,53.8,M,,*41
153 15 41 21 4333.6920100128.74078151.7ó 00128.74078 151.7 11101111111 0 1100100011 1111101110 10000110000 1100100011 1101011001 10000000110 1 1101101101 1011000011 1011110011 10000000111 10000110010 1110110011 1100011010 1100101011 1100011001 25.750 42.290 998.55 155640 17 14 14 58 51 4 $GNGGA,154121.00,4333.69201,N,00128.74078,E,1,04,3.96,151.7,M,53.8,M,,*48
154 15 41 22 4333.6920600128.74078151.6ó 00128.74078 151.6 11101111111 0 1100011110 1111110000 10000101111 1100100000 1101010011 10000001100 1 1101101101 1010111111 1011110011 10000000001 10000101111 1110110011 1100011000 1100101011 1100001111 25.813 42.298 998.55 156639 16 16 14 59 51 4 $GNGGA,154122.00,4333.69206,N,00128.74078,E,1,04,3.96,151.6,M,53.8,M,,*4D
155 15 41 23 4333.6921300128.74123151.5ó 00128.74123 151.5 11101111111 0 1100100000 1111110110 10000110011 1100010111 1101001101 10000001111 1 1101101101 1011000010 1011110100 10000000000 10000101111 1110110011 1100011001 1100101100 1100010011 25.813 42.313 998.54 157639 18 15 13 60 50 4 $GNGGA,154123.00,4333.69213,N,00128.74123,E,1,05,2.71,151.5,M,53.8,M,,*4D
156 15 41 24 4333.6923100128.74207151.6ó 00128.74207 151.6 11101111111 0 1100011110 1111110001 10000101110 1100100010 1101010111 10000010010 1 1101101101 1011000001 1011110100 10000000110 10000101111 1110111001 1100011100 1100100011 1100001010 25.813 42.306 998.55 158638 17 15 13 58 51 5 $GNGGA,154124.00,4333.69231,N,00128.74207,E,1,05,2.71,151.6,M,53.8,M,,*4C
157 15 41 25 4333.6923000128.74151151.6ó 00128.74151 151.6 11101111111 0 1100100001 1111110000 10000110001 1100100000 1101010110 10000010011 1 1101101101 1011000101 1011110011 10000000011 10000110000 1110111100 1100011100 1100101100 1100011111 25.750 42.306 998.56 159636 17 15 14 60 51 3 $GNGGA,154125.00,4333.69230,N,00128.74151,E,1,05,2.71,151.6,M,53.8,M,,*4C
158 15 41 26 4333.6922300128.74116151.4ó 00128.74116 151.4 11101111111 0 1100100000 1111101101 10000101110 1100011100 1101010001 10000001000 1 1101101101 1011000001 1011110000 10000000000 10000101110 1110111001 1100011101 1100101011 1100010010 25.813 42.306 998.56 160636 16 15 15 59 50 4 $GNGGA,154126.00,4333.69223,N,00128.74116,E,1,05,2.71,151.4,M,53.8,M,,*4C
159 15 41 27 4333.6924800128.74173151.6ó 00128.74173 151.6 11101111111 0 1100100011 1111110001 10000110000 1100011010 1101010001 10000001111 1 1101101101 1011000001 1011110110 10000000101 10000110001 1110111011 1100011011 1100101010 1100011010 25.750 42.321 998.56 161635 16 15 14 58 52 3 $GNGGA,154127.00,4333.69248,N,00128.74173,E,1,05,2.71,151.6,M,53.8,M,,*41
160 15 41 28 4333.6926400128.74206151.5ó 00128.74206 151.5 11101111111 0 1100011110 1111110101 10000110000 1100011101 1101010011 10000010000 1 1101101101 1011000010 1011110011 1111111101 10000101110 1110111001 1100011100 1100100110 1100010101 25.750 42.321 998.57 162634 18 15 13 59 50 4 $GNGGA,154128.00,4333.69264,N,00128.74206,E,1,04,3.96,151.5,M,53.8,M,,*4B
161 15 41 29 4333.6927400128.74210151.5ó 00128.74210 151.5 11101111111 0 1100100001 1111110110 10000101110 1100011101 1101011101 10000001110 1 1101101101 1011000000 1011110011 1111111111 10000101111 1110110110 1100011010 1100101101 1100011001 25.813 42.306 998.56 163633 16 16 14 59 52 3 $GNGGA,154129.00,4333.69274,N,00128.74210,E,1,04,3.96,151.5,M,53.8,M,,*4C
162 15 41 30 4333.6926900128.74192151.2ó 00128.74192 151.2 11101111111 0 1100011111 1111110001 10000110001 1100100001 1101010111 10000001110 1 1101101101 1011000000 1011110011 1111111110 10000101111 1110110011 1100010111 1100101000 1100010111 25.813 42.283 998.57 164631 18 14 13 60 50 4 $GNGGA,154130.00,4333.69269,N,00128.74192,E,1,04,3.96,151.2,M,53.8,M,,*46
163 15 41 31 4333.6924400128.74155151.0ó 00128.74155 151.0 11101111111 0 1100100010 1111101111 10000110000 1100011111 1101010011 10000001011 1 1101101101 1010111110 1011110001 10000000011 10000110011 1110111001 1100011100 1100100101 1100010001 25.813 42.283 998.56 165630 16 14 15 59 51 3 $GNGGA,154131.00,4333.69244,N,00128.74155,E,1,04,3.96,151.0,M,53.8,M,,*41
