id HH MM SS longitude latitude altitude adc_1_ch0 adc_1_ch1 adc_1_ch2 adc_1_ch3 adc_1_ch4 adc_1_ch5 adc_1_ch6 adc_1_ch7 adc_1_ch8 adc_2_ch0 adc_2_ch1 adc_2_ch2 adc_2_ch3 adc_2_ch4 adc_2_ch5 adc_2_ch6 adc_2_ch7 adc_2_ch8 temp hum pres t_prog t_gps t_split t_adc t_temp t_hum t_pres trame_gga
1 15 43 48 4333.6873900128.73356138.6ó 00128.73356 138.6 11101111111 0 1100011011 1111101000 10000100011 1100101010 1101100100 10000001010 1 1101101101 1010111111 1011110000 10000000000 10000101101 1110110100 1100011010 1100101000 1100011001 25.688 41.848 795.83 3221 17 14 14 60 51 3 $GNGGA,154348.00,4333.68739,N,00128.73356,E,1,05,4.31,138.6,M,53.8,M,,*47
2 15 43 49 4333.6872500128.73333138.5ó 00128.73333 138.5 11101111111 0 1100011111 1111101001 10000101101 1100011111 1101010101 10000001111 1 1101101100 1011000011 1011110100 10000000001 10000101111 1110111001 1100011110 1100101111 1100010101 25.750 41.848 998.55 4219 16 15 15 59 51 3 $GNGGA,154349.00,4333.68725,N,00128.73333,E,1,06,1.55,138.5,M,53.8,M,,*4F
3 15 43 50 4333.6871400128.73301138.5ó 00128.73301 138.5 11101111111 0 1100100000 1111101000 10000101100 1100011111 1101010001 10000000101 1 1101101101 1010111111 1011110010 1111111001 10000101110 1110110101 1100011011 1100100110 1100010110 25.750 41.832 998.56 5217 16 15 14 59 52 3 $GNGGA,154350.00,4333.68714,N,00128.73301,E,1,05,4.31,138.5,M,53.8,M,,*40
4 15 43 51 4333.6870100128.73259138.4ó 00128.73259 138.4 11101111111 0 1100011111 1111101011 10000110010 1100011100 1101010010 10000000100 1 1101101101 1011000000 1011110011 10000000011 10000110000 1110110111 1100011011 1100101100 1100010100 25.750 41.840 998.55 6217 17 14 13 58 51 4 $GNGGA,154351.00,4333.68701,N,00128.73259,E,1,05,4.32,138.4,M,53.8,M,,*4B
5 15 43 52 4333.6866000128.73214137.6ó 00128.73214 137.6 11101111111 0 1100100010 1111110011 10000110001 1100100101 1101010100 10000000001 1 1101101100 1011000001 1011110001 1111111100 10000101111 1110110010 1100011010 1100101010 1100010011 25.750 41.863 998.56 7216 16 15 13 58 51 5 $GNGGA,154352.00,4333.68660,N,00128.73214,E,1,06,1.55,137.6,M,53.8,M,,*4D
6 15 43 53 4333.6864300128.73159137.5ó 00128.73159 137.5 11101111111 0 1100100010 1111101011 10000110001 1100100000 1101010101 1111111100 1 1101101101 1010111110 1011110010 10000000001 10000101111 1110110110 1100011110 1100101010 1100010110 25.750 41.855 998.55 8216 17 15 14 60 51 3 $GNGGA,154353.00,4333.68643,N,00128.73159,E,1,06,1.55,137.5,M,53.8,M,,*44
7 15 43 54 4333.6862700128.73204136.7ó 00128.73204 136.7 11101111111 0 1100100010 1111101110 10000110010 1100100011 1101011000 10000000010 1 1101101101 1011000001 1011110100 10000000010 10000110000 1110110111 1100011100 1100100110 1100010100 25.750 41.871 998.55 9213 16 14 14 58 51 4 $GNGGA,154354.00,4333.68627,N,00128.73204,E,1,06,1.55,136.7,M,53.8,M,,*49
8 15 43 55 4333.6862900128.73239136.3ó 00128.73239 136.3 11101111111 0 1100100000 1111110000 10000101111 1100011110 1101001111 10000000101 1 1101101101 1011000001 1011110001 1111111100 10000110000 1110110101 1100011101 1100101001 1100010011 25.750 41.894 998.55 10214 17 14 13 60 50 4 $GNGGA,154355.00,4333.68629,N,00128.73239,E,1,06,1.55,136.3,M,53.8,M,,*4C
9 15 43 56 4333.6863400128.73296135.8ó 00128.73296 135.8 11101111111 0 1100100000 1111101100 10000101110 1100011100 1101010101 1111111101 1 1101101101 1011000000 1011110001 10000000000 10000110010 1110111010 1100011111 1100100111 1100010101 25.750 41.901 998.56 11213 16 15 15 59 51 3 $GNGGA,154356.00,4333.68634,N,00128.73296,E,1,06,1.55,135.8,M,53.8,M,,*4E
10 15 43 57 4333.6861600128.73286134.9ó 00128.73286 134.9 11101111111 0 1100100001 1111110001 10000101110 1100011110 1101010111 10000000100 1 1101101101 1011000010 1011110011 1111111110 10000101111 1110110101 1100011011 1100100110 1100010110 25.750 41.924 998.56 12212 16 15 13 59 51 4 $GNGGA,154357.00,4333.68616,N,00128.73286,E,1,06,1.55,134.9,M,53.8,M,,*4E
11 15 43 58 4333.6859700128.73238134.2ó 00128.73238 134.2 11101111111 0 1100100011 1111110010 10000110000 1100100010 1101011100 10000000111 1 1101101101 1011000010 1011110011 1111111011 10000101101 1110110011 1100011011 1100110100 1100010111 25.750 41.947 998.57 13210 17 14 13 59 51 4 $GNGGA,154358.00,4333.68597,N,00128.73238,E,1,06,1.55,134.2,M,53.8,M,,*45
12 15 43 59 4333.6859400128.73250133.8ó 00128.73250 133.8 11101111111 0 1100100001 1111110100 10000110001 1100100100 1101010110 10000001101 1 1101101101 1011000101 1011110100 1111111100 10000101101 1110110010 1100011100 1100101101 1100010010 25.750 41.970 998.57 14210 16 15 13 59 50 5 $GNGGA,154359.00,4333.68594,N,00128.73250,E,1,06,1.55,133.8,M,53.8,M,,*44
13 15 44 00 4333.6859500128.73253133.4ó 00128.73253 133.4 11101111111 0 1100100010 1111110001 10000101111 1100100000 1101010101 10000000100 1 1101101100 1011000000 1011110010 10000000011 10000110000 1110111000 1100011100 1100100101 1100001111 25.750 41.985 998.58 15209 17 15 14 60 51 3 $GNGGA,154400.00,4333.68595,N,00128.73253,E,1,06,1.55,133.4,M,53.8,M,,*41
14 15 44 01 4333.6856400128.73206132.4ó 00128.73206 132.4 11101111111 0 1100100000 1111111010 10000110011 1100011101 1101010111 10000001010 1 1101101101 1011000010 1011110011 10000000100 10000110000 1110101111 1100011100 1100101010 1100010010 25.750 42.008 998.57 16206 17 15 14 59 50 4 $GNGGA,154401.00,4333.68564,N,00128.73206,E,1,07,1.46,132.4,M,53.8,M,,*4C
15 15 44 02 4333.6853300128.73188131.4ó 00128.73188 131.4 11101111111 0 1100100011 1111101110 10000110000 1100011111 1101010110 10000000111 1 1101101100 1011000011 1011110110 10000000000 10000110001 1110110100 1100011001 1100101011 1100010100 25.750 42.031 998.58 17207 16 16 14 59 52 3 $GNGGA,154402.00,4333.68533,N,00128.73188,E,1,07,1.46,131.4,M,53.8,M,,*4B
16 15 44 03 4333.6850800128.73164130.4ó 00128.73164 130.4 11101111111 0 1100100001 1111110110 10000110011 1100011111 1101010101 10000001111 1 1101101101 1010111110 1011110001 10000000101 10000110000 1110101111 1100010011 1100101100 1100010111 25.750 42.016 998.58 18206 17 15 14 60 51 3 $GNGGA,154403.00,4333.68508,N,00128.73164,E,1,07,1.46,130.4,M,53.8,M,,*41
17 15 44 04 4333.6848100128.73138129.6ó 00128.73138 129.6 11101111111 0 1100100010 1111101110 10000101011 1100011110 1101010111 10000001010 1 1101101100 1011000010 1011110010 10000000110 10000110001 1110110010 1100011011 1100101111 1100011011 25.750 42.008 998.56 19204 16 15 13 59 50 5 $GNGGA,154404.00,4333.68481,N,00128.73138,E,1,06,1.88,129.6,M,53.8,M,,*46
18 15 44 05 4333.6846000128.73141128.8ó 00128.73141 128.8 11101111111 0 1100011111 1111110011 10000110001 1100100001 1101010111 10000001001 1 1101101101 1011000101 1011110101 1111111101 10000101111 1110110101 1100011110 1100101100 1100010001 25.750 42.000 998.57 20203 17 14 13 59 51 4 $GNGGA,154405.00,4333.68460,N,00128.73141,E,1,07,1.46,128.8,M,53.8,M,,*4A
19 15 44 06 4333.6845100128.73133128.4ó 00128.73133 128.4 11101111111 0 1100100110 1111110000 10000110001 1100100010 1101010110 10000000101 1 1101101101 1011000001 1011110011 10000000000 10000101110 1110111000 1100011010 1100101011 1100010110 25.750 42.008 998.57 21203 17 15 14 59 50 4 $GNGGA,154406.00,4333.68451,N,00128.73133,E,1,06,1.88,128.4,M,53.8,M,,*41
20 15 44 07 4333.6843500128.73098127.9ó 00128.73098 127.9 11101111111 0 1100011111 1111110011 10000110000 1100011100 1101010011 10000000011 1 1101101101 1011000010 1011110101 10000000110 10000110001 1110110100 1100011010 1100100111 1100010110 25.750 42.016 998.57 22202 17 15 14 60 51 3 $GNGGA,154407.00,4333.68435,N,00128.73098,E,1,06,1.88,127.9,M,53.8,M,,*40
21 15 44 08 4333.6840800128.73057127.2ó 00128.73057 127.2 11101111111 0 1100011110 1111101111 10000101110 1100100000 1101010100 10000001011 1 1101101101 1011000100 1011110011 10000000100 10000110010 1110110110 1100011110 1100100001 1100001101 25.750 42.023 998.58 23200 16 14 14 59 50 4 $GNGGA,154408.00,4333.68408,N,00128.73057,E,1,07,1.46,127.2,M,53.8,M,,*4A
22 15 44 09 4333.6837000128.73026126.3ó 00128.73026 126.3 11101111111 0 1100100010 1111110100 10000101111 1100100001 1101011010 10000000110 1 1101101101 1011000011 1011110011 1111111110 10000110010 1110110001 1100011010 1100100011 1100010111 25.750 42.016 998.58 24200 16 15 13 59 51 4 $GNGGA,154409.00,4333.68370,N,00128.73026,E,1,07,1.46,126.3,M,53.8,M,,*45
23 15 44 10 4333.6831100128.72966124.7ó 00128.72966 124.7 11101111111 0 1100011111 1111111010 10000110011 1100100010 1101011011 10000001000 1 1101101101 1010111111 1011110011 10000000000 10000101100 1110101110 1100010111 1100101000 1100010000 25.750 42.016 998.57 25199 17 15 14 60 51 3 $GNGGA,154410.00,4333.68311,N,00128.72966,E,1,07,1.46,124.7,M,53.8,M,,*40
24 15 44 11 4333.6828900128.72957123.8ó 00128.72957 123.8 11101111111 0 1100100000 1111110111 10000110010 1100011101 1101011000 10000001011 1 1101101100 1011000010 1011110011 1111111110 10000101011 1110111000 1100011110 1100101010 1100010000 25.750 42.008 998.58 26198 16 15 14 58 51 4 $GNGGA,154411.00,4333.68289,N,00128.72957,E,1,07,1.46,123.8,M,53.8,M,,*4B
25 15 44 12 4333.6828000128.72938123.1ó 00128.72938 123.1 11101111111 0 1100100001 1111101111 10000110000 1100011011 1101011000 10000001100 1 1101101101 1011000010 1011110101 10000001000 10000110000 1110110001 1100011100 1100100101 1100010110 25.750 42.008 998.57 27195 17 14 13 59 51 4 $GNGGA,154412.00,4333.68280,N,00128.72938,E,1,07,1.46,123.1,M,53.8,M,,*41
26 15 44 13 4333.6827600128.72943122.7ó 00128.72943 122.7 11101111111 0 1100100011 1111111000 10000101101 1100100010 1101010111 10000000111 1 1101101101 1011000001 1011110001 10000000011 10000110010 1110110110 1100011110 1100100101 1100010011 25.750 42.008 998.57 28196 16 14 14 59 50 4 $GNGGA,154413.00,4333.68276,N,00128.72943,E,1,06,1.88,122.7,M,53.8,M,,*41
27 15 44 14 4333.6826600128.72932122.3ó 00128.72932 122.3 11101111111 0 1100100011 1111110011 10000110011 1100100000 1101010000 10000001100 1 1101101101 1011000100 1011110101 10000000101 10000110011 1110110000 1100011100 1100100110 1100001010 25.750 42.023 998.57 29194 16 16 14 59 52 3 $GNGGA,154414.00,4333.68266,N,00128.72932,E,1,06,1.88,122.3,M,53.8,M,,*45
28 15 44 15 4333.6825800128.72898122.1ó 00128.72898 122.1 11101111111 0 1100100001 1111101110 10000101111 1100100010 1101010110 10000010000 1 1101101101 1011000111 1011110110 1111111100 10000101101 1110110011 1100011000 1100101110 1100010011 25.750 42.031 998.57 30194 17 15 14 60 51 3 $GNGGA,154415.00,4333.68258,N,00128.72898,E,1,06,1.88,122.1,M,53.8,M,,*4A
29 15 44 16 4333.6825900128.72878121.9ó 00128.72878 121.9 11101111111 0 1100100010 1111111000 10000110101 1100011010 1101001111 10000001100 1 1101101101 1011000101 1011110100 1111110110 10000101011 1110110101 1100011100 1100100111 1100010101 25.750 42.031 998.58 31193 16 16 14 59 51 4 $GNGGA,154416.00,4333.68259,N,00128.72878,E,1,06,1.88,121.9,M,53.8,M,,*4D
30 15 44 17 4333.6825200128.72884121.5ó 00128.72884 121.5 11101111111 0 1100100010 1111110010 10000101111 1100100001 1101011101 10000001101 1 1101101101 1011000100 1011110101 10000000101 10000110001 1110110110 1100011110 1100100111 1100010001 25.750 42.038 998.57 32192 17 15 14 60 51 3 $GNGGA,154417.00,4333.68252,N,00128.72884,E,1,06,1.88,121.5,M,53.8,M,,*48
31 15 44 18 4333.6825100128.72866121.3ó 00128.72866 121.3 11101111111 0 1100100011 1111110100 10000110010 1100100000 1101010110 10000001000 1 1101101101 1011000000 1011110010 10000000001 10000110001 1110111001 1100011110 1100100111 1100001111 25.750 42.046 998.57 33190 16 14 14 58 51 4 $GNGGA,154418.00,4333.68251,N,00128.72866,E,1,06,1.88,121.3,M,53.8,M,,*4E
32 15 44 19 4333.6825600128.72858120.9ó 00128.72858 120.9 11101111111 0 1100100011 1111111001 10000110011 1100011110 1101010101 10000001000 1 1101101101 1011000100 1011110101 1111111110 10000110001 1110111010 1100100010 1100100111 1100010000 25.750 42.054 998.56 34189 16 15 13 59 51 4 $GNGGA,154419.00,4333.68256,N,00128.72858,E,1,06,1.88,120.9,M,53.8,M,,*4E
33 15 44 20 4333.6825800128.72853120.4ó 00128.72853 120.4 11101111111 0 1100100011 1111110010 10000110000 1100100101 1101001111 10000001100 1 1101101100 1011000100 1011110100 10000000011 10000110000 1110110011 1100011010 1100101110 1100010010 25.750 42.038 998.57 35188 16 14 15 59 51 3 $GNGGA,154420.00,4333.68258,N,00128.72853,E,1,06,1.88,120.4,M,53.8,M,,*4C
34 15 44 21 4333.6828900128.72849120.9ó 00128.72849 120.9 11101111111 0 1100011111 1111110010 10000110010 1100011111 1101010011 10000000110 1 1101101101 1011000000 1011110011 10000000111 10000101111 1110101101 1100010111 1100100111 1100001111 25.750 42.016 998.58 36188 16 16 14 59 52 3 $GNGGA,154421.00,4333.68289,N,00128.72849,E,1,07,1.46,120.9,M,53.8,M,,*44
35 15 44 22 4333.6830600128.72884121.0ó 00128.72884 121.0 11101111111 0 1100100001 1111101101 10000101100 1100011101 1101010000 10000000110 1 1101101101 1011000010 1011110010 10000000110 10000101111 1110101101 1100011000 1100101111 1100010000 25.750 41.993 998.57 37187 17 15 14 60 51 3 $GNGGA,154422.00,4333.68306,N,00128.72884,E,1,07,1.46,121.0,M,53.8,M,,*48
36 15 44 23 4333.6831800128.72939120.9ó 00128.72939 120.9 11101111111 0 1100100010 1111110101 10000110000 1100011111 1101010010 10000000110 1 1101101101 1011000001 1011110011 10000000110 10000110000 1110101110 1100011100 1100101100 1100011001 25.750 41.970 998.57 38183 16 14 14 58 51 4 $GNGGA,154423.00,4333.68318,N,00128.72939,E,1,07,1.46,120.9,M,53.8,M,,*49
37 15 44 24 4333.6831900128.72960120.3ó 00128.72960 120.3 11101111111 0 1100100010 1111110000 10000101110 1100011000 1101001111 10000000001 1 1101101101 1011000000 1011110100 10000000010 10000110000 1110110000 1100011001 1100101010 1100010110 25.750 41.962 998.57 39185 17 14 13 59 51 4 $GNGGA,154424.00,4333.68319,N,00128.72960,E,1,06,1.88,120.3,M,53.8,M,,*4A
38 15 44 25 4333.6832100128.72930119.9ó 00128.72930 119.9 11101111111 0 1100100111 1111101101 10000101111 1100100010 1101001111 10000000110 1 1101101101 1011000101 1011110110 10000000001 10000101110 1110110100 1100011001 1100101001 1100010011 25.750 41.977 998.57 40184 16 15 15 59 51 3 $GNGGA,154425.00,4333.68321,N,00128.72930,E,1,06,1.88,119.9,M,53.8,M,,*45
39 15 44 26 4333.6831900128.72914119.4ó 00128.72914 119.4 11101111111 0 1100100001 1111101101 10000101101 1100011101 1101010110 10000001010 1 1101101101 1011000100 1011110010 10000001000 10000110010 1110110011 1100011011 1100101111 1100010101 25.750 42.008 998.57 41183 17 16 13 59 51 4 $GNGGA,154426.00,4333.68319,N,00128.72914,E,1,06,1.88,119.4,M,53.8,M,,*46
40 15 44 27 4333.6831200128.72895119.0ó 00128.72895 119.0 11101111111 0 1100100100 1111110100 10000110001 1100011110 1101011000 10000000111 1 1101101101 1011000000 1011110011 10000000100 10000110010 1110110001 1100011100 1100101110 1100011100 25.750 42.038 998.57 42181 18 15 13 60 50 4 $GNGGA,154427.00,4333.68312,N,00128.72895,E,1,06,1.88,119.0,M,53.8,M,,*40
41 15 44 28 4333.6829000128.72846118.3ó 00128.72846 118.3 11101111111 0 1100100010 1111110001 10000101111 1100011100 1101010100 10000001000 1 1101101101 1011000010 1011110100 10000000110 10000101111 1110110000 1100011010 1100100110 1100010110 25.750 42.069 998.59 43180 16 16 15 59 51 3 $GNGGA,154428.00,4333.68290,N,00128.72846,E,1,06,1.88,118.3,M,53.8,M,,*48
42 15 44 29 4333.6826900128.72827117.4ó 00128.72827 117.4 11101111111 0 1100100010 1111110110 10000110001 1100100010 1101010111 10000000100 1 1101101101 1010111110 1011110000 1111111111 10000110000 1110110011 1100011101 1100101100 1100010100 25.750 42.092 998.57 44178 17 14 13 59 51 4 $GNGGA,154429.00,4333.68269,N,00128.72827,E,1,06,1.88,117.4,M,53.8,M,,*40
43 15 44 30 4333.6827500128.72772116.7ó 00128.72772 116.7 11101111111 0 1100100010 1111110011 10000101110 1100100010 1101010110 10000000111 1 1101101101 1011000000 1011110010 10000000110 10000110001 1110110010 1100011011 1100110000 1100011111 25.750 42.092 998.58 45176 16 15 15 59 51 3 $GNGGA,154430.00,4333.68275,N,00128.72772,E,1,06,1.88,116.7,M,53.8,M,,*48
44 15 44 31 4333.6826400128.72700116.3ó 00128.72700 116.3 11101111111 0 1100100000 1111110101 10000110000 1100011110 1101010110 10000001000 1 1101101101 1011000010 1011110011 10000000011 10000110000 1110110011 1100011011 1100100100 1100001110 25.750 42.100 998.57 46178 16 16 14 59 52 3 $GNGGA,154431.00,4333.68264,N,00128.72700,E,1,07,1.46,116.3,M,53.8,M,,*4B
45 15 44 32 4333.6825400128.72728115.8ó 00128.72728 115.8 11101111111 0 1100100001 1111111000 10000110001 1100011010 1101010010 10000000100 0 1101101101 1011000000 1011110010 1111111001 10000101101 1110101010 1100010110 1100101011 1100001110 25.750 42.084 998.57 47176 17 15 14 60 51 3 $GNGGA,154432.00,4333.68254,N,00128.72728,E,1,06,1.88,115.8,M,53.8,M,,*4A
46 15 44 33 4333.6822100128.72704115.3ó 00128.72704 115.3 11101111111 0 1100100001 1111110110 10000110000 1100011101 1101010011 1111111110 1 1101101101 1011000010 1011110011 10000000110 10000110001 1110110000 1100100000 1100101100 1100010010 25.750 42.077 998.58 48175 16 16 14 59 51 4 $GNGGA,154433.00,4333.68221,N,00128.72704,E,1,06,1.88,115.3,M,53.8,M,,*4C
47 15 44 34 4333.6823300128.72708115.0ó 00128.72708 115.0 11101111111 0 1100011111 1111110110 10000110000 1100011000 1101010010 1111111111 1 1101101101 1011000010 1011110001 10000000001 10000110000 1110101110 1100011110 1100100100 1100001001 25.813 42.038 998.59 49174 17 15 14 60 51 3 $GNGGA,154434.00,4333.68233,N,00128.72708,E,1,06,1.88,115.0,M,53.8,M,,*47
48 15 44 35 4333.6822000128.72695114.4ó 00128.72695 114.4 11101111111 0 1100011111 1111110111 10000110010 1100011100 1101010101 10000001011 1 1101101101 1010111111 1011110011 10000000100 10000110010 1110101100 1100010011 1100101000 1100001001 25.750 41.977 998.59 50172 16 14 14 59 50 4 $GNGGA,154435.00,4333.68220,N,00128.72695,E,1,06,1.88,114.4,M,53.8,M,,*44
49 15 44 36 4333.6821200128.72738113.8ó 00128.72738 113.8 11101111111 0 1100100000 1111111001 10000110000 1100011010 1101010011 10000001011 1 1101101101 1011000001 1011110001 10000000110 10000101110 1110110001 1100011001 1100100000 1100001000 25.750 41.886 998.58 51172 17 14 13 59 51 4 $GNGGA,154436.00,4333.68212,N,00128.72738,E,1,06,1.88,113.8,M,53.8,M,,*4B
50 15 44 37 4333.6819600128.72716113.2ó 00128.72716 113.2 11101111111 0 1100011110 1111111011 10000110001 1100100000 1101010100 10000001010 1 1101101101 1011000110 1011110101 10000000000 10000101110 1110110101 1100011000 1100101101 1100010010 25.750 41.794 998.59 52171 16 15 15 59 51 3 $GNGGA,154437.00,4333.68196,N,00128.72716,E,1,06,1.88,113.2,M,53.8,M,,*43
51 15 44 38 4333.6819600128.72735112.8ó 00128.72735 112.8 11101111111 0 1100100000 1111101011 10000101101 1100011110 1101010010 10000000001 1 1101101101 1011000010 1011110001 10000000010 10000110000 1110110111 1100011100 1100100111 1100011000 25.750 41.726 998.58 53170 17 16 13 59 51 4 $GNGGA,154438.00,4333.68196,N,00128.72735,E,1,05,4.38,112.8,M,53.8,M,,*4B
52 15 44 39 4333.6819100128.72770112.4ó 00128.72770 112.4 11101111111 0 1100100011 1111110001 10000110001 1100011110 1101010111 1111111111 1 1101101101 1011000001 1011110001 10000000011 10000101111 1110110011 1100100101 1100101000 1100010100 25.750 41.657 998.57 54168 17 15 14 60 51 3 $GNGGA,154439.00,4333.68191,N,00128.72770,E,1,05,4.38,112.4,M,53.8,M,,*40
53 15 44 40 4333.6819800128.72808112.0ó 00128.72808 112.0 11101111111 0 1100100000 1111110010 10000110000 1100011110 1101010001 10000000001 1 1101101100 1011000011 1011110100 10000001001 10000110000 1110110010 1100011000 1100101011 1100010001 25.750 41.604 998.58 55168 16 16 15 59 51 3 $GNGGA,154440.00,4333.68198,N,00128.72808,E,1,05,4.38,112.0,M,53.8,M,,*43
54 15 44 41 4333.6820300128.72825111.6ó 00128.72825 111.6 11101111111 0 1100100010 1111110100 10000110010 1100011101 1101010101 1111111111 1 1101101100 1011000111 1011110101 10000000011 10000101111 1110100111 1100010011 1100101010 1100010111 25.750 41.558 998.57 56164 17 14 13 60 50 4 $GNGGA,154441.00,4333.68203,N,00128.72825,E,1,05,4.38,111.6,M,53.8,M,,*49
55 15 44 42 4333.6821200128.72798111.0ó 00128.72798 111.0 11101111111 0 1100100000 1111110010 10000110001 1100011100 1101010011 1111111111 1 1101101101 1011000011 1011110101 10000000011 10000101111 1110110011 1100011011 1100100100 1100001000 25.750 41.543 998.57 57165 16 14 14 58 51 4 $GNGGA,154442.00,4333.68212,N,00128.72798,E,1,05,4.38,111.0,M,53.8,M,,*45
56 15 44 43 4333.6819800128.72744110.6ó 00128.72744 110.6 11101111111 0 1100011110 1111101111 10000110000 1100100100 1101010100 10000010011 1 1101101101 1011000011 1011110011 10000000110 10000101111 1110110101 1100011101 1100101010 1100010011 25.750 41.581 998.57 58164 16 15 14 58 52 3 $GNGGA,154443.00,4333.68198,N,00128.72744,E,1,05,4.38,110.6,M,53.8,M,,*43
57 15 44 44 4333.6821200128.72740110.2ó 00128.72740 110.2 11101111111 0 1100100001 1111101001 10000101100 1100100001 1101010100 10000001101 1 1101101101 1010111110 1011110001 10000000001 10000101111 1110110000 1100011010 1100100011 1100010100 25.750 41.619 998.57 59163 17 15 14 60 50 4 $GNGGA,154444.00,4333.68212,N,00128.72740,E,1,05,4.38,110.2,M,53.8,M,,*45
58 15 44 45 4333.6820600128.72720109.7ó 00128.72720 109.7 11101111111 0 1100100000 1111110101 10000110100 1100100011 1101011001 10000001010 1 1101101101 1011000101 1011110011 1111111110 10000101111 1110101010 1100011010 1100101100 1100010001 25.750 41.657 998.58 60163 17 16 13 59 50 5 $GNGGA,154445.00,4333.68206,N,00128.72720,E,1,05,4.38,109.7,M,53.8,M,,*4A
59 15 44 46 4333.6819700128.72674109.3ó 00128.72674 109.3 100000000000 0 1100100010 1111110100 10000110000 1100100011 1101010110 10000001001 1 1101101100 1011000100 1011110011 1111111100 10000101111 1110111000 1100011101 1100101110 1100010111 25.750 41.688 998.57 61162 17 15 14 60 50 4 $GNGGA,154446.00,4333.68197,N,00128.72674,E,1,05,4.38,109.3,M,53.8,M,,*46
60 15 44 47 4333.6819200128.72670108.9ó 00128.72670 108.9 11101111111 0 1100100011 1111110101 10000110001 1100011110 1101010100 10000001111 1 1101101101 1010111110 1011110010 10000000000 10000101111 1110101101 1100010111 1100100101 1100001001 25.688 41.703 998.57 62160 16 14 14 58 51 4 $GNGGA,154447.00,4333.68192,N,00128.72670,E,1,05,4.39,108.9,M,53.8,M,,*4C
61 15 44 48 4333.6819400128.72653108.6ó 00128.72653 108.6 11101111111 0 1100100011 1111110010 10000110001 1100100010 1101011010 10000010011 1 1101101101 1011000010 1011110010 10000000110 10000101111 1110101110 1100011110 1100100110 1100010100 25.750 41.703 998.57 63160 16 16 14 59 52 3 $GNGGA,154448.00,4333.68194,N,00128.72653,E,1,05,4.39,108.6,M,53.8,M,,*4B
62 15 44 49 4333.6819700128.72668108.3ó 00128.72668 108.3 11101111111 0 1100011110 1111110001 10000110000 1100011101 1101010110 10000001111 1 1101101101 1011000011 1011110011 10000000101 10000110011 1110101101 1100010110 1100101110 1100011010 25.688 41.703 998.58 64158 17 15 14 60 51 3 $GNGGA,154449.00,4333.68197,N,00128.72668,E,1,05,4.39,108.3,M,53.8,M,,*44
63 15 44 50 4333.6819400128.72693108.0ó 00128.72693 108.0 11101111111 0 1100100000 1111110001 10000110010 1100011101 1101010000 10000010110 1 1101101101 1011000001 1011110011 10000000111 10000110011 1110110001 1100011001 1100100100 1100010010 25.750 41.710 998.57 65158 16 16 14 59 52 3 $GNGGA,154450.00,4333.68194,N,00128.72693,E,1,05,4.39,108.0,M,53.8,M,,*48
64 15 44 51 4333.6811900128.72626106.6ó 00128.72626 106.6 11101111111 0 1100100100 1111101101 10000101110 1100011001 1101010001 10000001100 1 1101101101 1010111111 1011110010 10000000001 10000101111 1110110001 1100011010 1100101011 1100010100 25.750 41.718 998.57 66157 18 15 13 60 50 4 $GNGGA,154451.00,4333.68119,N,00128.72626,E,1,06,1.88,106.6,M,53.8,M,,*46
65 15 44 52 4333.6814900128.72643106.0ó 00128.72643 106.0 11101111111 0 1100100101 1111110100 10000110011 1100011110 1101011001 10000001101 1 1101101101 1011000010 1011110010 10000000110 10000101111 1110101110 1100011001 1100101001 1100010010 25.750 41.733 998.57 67153 16 14 14 59 50 4 $GNGGA,154452.00,4333.68149,N,00128.72643,E,1,06,1.88,106.0,M,53.8,M,,*45
66 15 44 53 4333.6819300128.72720105.7ó 00128.72720 105.7 11101111111 0 1100100011 1111110010 10000110000 1100100001 1101010010 10000010101 1 1101101101 1011000100 1011110101 1111111110 10000101111 1110110111 1100011110 1100110000 1100011110 25.750 41.749 998.59 68155 17 14 13 59 51 4 $GNGGA,154453.00,4333.68193,N,00128.72720,E,1,06,1.88,105.7,M,53.8,M,,*43
67 15 44 54 4333.6816200128.72672105.7ó 00128.72672 105.7 11101111111 0 1100100010 1111110011 10000110000 1100011110 1101010101 10000001011 1 1101101101 1011000000 1011110001 1111111111 10000110000 1110101110 1100011010 1100101000 1100010011 25.750 41.756 998.58 69153 16 15 15 59 51 3 $GNGGA,154454.00,4333.68162,N,00128.72672,E,1,05,4.39,105.7,M,53.8,M,,*40
68 15 44 55 4333.6814600128.72651105.4ó 00128.72651 105.4 11101111111 0 1100100100 1111110011 10000101111 1100011101 1101010100 10000010000 1 1101101100 1011000010 1011110100 10000000111 10000101111 1110101101 1100011010 1100101000 1100001111 25.750 41.764 998.57 70152 16 15 13 58 52 4 $GNGGA,154455.00,4333.68146,N,00128.72651,E,1,05,4.39,105.4,M,53.8,M,,*45
69 15 44 56 4333.6814200128.72679105.1ó 00128.72679 105.1 11101111111 0 1100100011 1111110110 10000110001 1100100100 1101011011 10000000011 1 1101101101 1011000011 1011110100 10000000011 10000110000 1110110001 1100011100 1100110011 1100011010 25.750 41.779 998.57 71152 17 15 14 60 51 3 $GNGGA,154456.00,4333.68142,N,00128.72679,E,1,05,4.40,105.1,M,53.8,M,,*43
70 15 44 57 4333.6813800128.72698104.6ó 00128.72698 104.6 11101111111 0 1100100100 1111110101 10000110000 1100100010 1101010010 10000000110 1 1101101100 1010111111 1011110000 10000000100 10000101111 1110110011 1100011100 1100101001 1100010010 25.750 41.794 998.57 72151 16 15 14 58 51 4 $GNGGA,154457.00,4333.68138,N,00128.72698,E,1,05,4.40,104.6,M,53.8,M,,*46
71 15 44 58 4333.6812400128.72667104.3ó 00128.72667 104.3 11101111111 0 1100100000 1111111001 10000110100 1100100010 1101011000 10000001110 1 1101101100 1011000001 1011110010 1111111111 10000101101 1110110010 1100011011 1100101001 1100010100 25.750 41.825 998.57 73150 17 15 14 60 50 4 $GNGGA,154458.00,4333.68124,N,00128.72667,E,1,05,4.40,104.3,M,53.8,M,,*41
72 15 44 59 4333.6813700128.72738103.8ó 00128.72738 103.8 11101111111 0 1100100010 1111110110 10000110001 1100011101 1101010010 10000010000 1 1101101101 1010111111 1011110001 10000001000 10000110001 1110110001 1100011011 1100101001 1100010111 25.750 41.863 998.57 74146 16 14 14 58 51 4 $GNGGA,154459.00,4333.68137,N,00128.72738,E,1,05,4.40,103.8,M,53.8,M,,*45
73 15 45 00 4333.6812800128.72743103.4ó 00128.72743 103.4 11101111111 0 1100100100 1111110101 10000110010 1100011110 1101010001 10000010000 1 1101101101 1011000011 1011110100 1111111101 10000101110 1110110011 1100011010 1100101000 1100010101 25.750 41.916 998.57 75147 16 16 14 59 52 3 $GNGGA,154500.00,4333.68128,N,00128.72743,E,1,05,4.40,103.4,M,53.8,M,,*46
74 15 45 01 4333.6812200128.72763102.8ó 00128.72763 102.8 11101111111 0 1100100010 1111110111 10000110011 1100011111 1101010001 10000010000 1 1101101100 1011000110 1011110111 10000000001 10000110000 1110101111 1100011110 1100101100 1100001110 25.750 41.962 998.58 76147 18 15 13 60 50 4 $GNGGA,154501.00,4333.68122,N,00128.72763,E,1,05,4.40,102.8,M,53.8,M,,*42
75 15 45 02 4333.6812100128.72749102.4ó 00128.72749 102.4 11101111111 0 1100100000 1111110101 10000101111 1100100100 1101011000 10000010000 1 1101101101 1011000011 1011110100 1111111100 10000101111 1110110001 1100011010 1100101101 1100010010 25.750 42.031 998.57 77145 16 16 14 59 51 4 $GNGGA,154502.00,4333.68121,N,00128.72749,E,1,05,4.40,102.4,M,53.8,M,,*46
76 15 45 03 4333.6812300128.72752102.0ó 00128.72752 102.0 11101111111 0 1100100001 1111110101 10000101110 1100100010 1101010111 10000010101 1 1101101101 1010111111 1011110010 10000000101 10000101101 1110110100 1100011011 1100101111 1100011000 25.750 42.092 998.57 78143 17 14 14 60 51 3 $GNGGA,154503.00,4333.68123,N,00128.72752,E,1,05,4.40,102.0,M,53.8,M,,*4B
77 15 45 04 4333.6811100128.72698101.9ó 00128.72698 101.9 11101111111 0 1100100100 1111111010 10000110001 1100011001 1101010011 10000001011 1 1101101101 1011000011 1011110011 1111111110 10000110000 1110110001 1100011110 1100101100 1100010100 25.750 42.130 998.57 79142 16 14 14 59 50 4 $GNGGA,154504.00,4333.68111,N,00128.72698,E,1,05,4.40,101.9,M,53.8,M,,*40
78 15 45 05 4333.6810300128.72687101.7ó 00128.72687 101.7 11101111111 0 1100100100 1111111001 10000101110 1100011111 1101010011 10000010000 1 1101101101 1011000100 1011110001 1111111100 10000101101 1110101001 1100010111 1100110011 1100011000 25.750 42.161 998.56 80142 16 14 13 60 50 4 $GNGGA,154505.00,4333.68103,N,00128.72687,E,1,05,4.41,101.7,M,53.8,M,,*43
79 15 45 06 4333.6808300128.72663101.6ó 00128.72663 101.6 11101111111 0 1100100011 1111110110 10000110000 1100100001 1101010111 10000001100 1 1101101101 1011000010 1011110010 10000000010 10000110000 1110101111 1100011001 1100100001 1100001011 25.750 42.183 998.56 81141 16 15 15 59 51 3 $GNGGA,154506.00,4333.68083,N,00128.72663,E,1,06,3.06,101.6,M,53.8,M,,*45
80 15 45 07 4333.6805500128.72584101.8ó 00128.72584 101.8 11101111111 0 1100100001 1111110001 10000101101 1100011100 1101010001 10000001101 1 1101101101 1011000011 1011110001 1111111111 10000110000 1110110111 1100011100 1100101011 1100010000 25.750 42.199 998.57 82141 16 16 14 59 52 3 $GNGGA,154507.00,4333.68055,N,00128.72584,E,1,06,3.05,101.8,M,53.8,M,,*48
81 15 45 08 4333.6805300128.72617101.8ó 00128.72617 101.8 11101111111 0 1100100001 1111110100 10000110000 1100011101 1101010010 10000001000 1 1101101101 1011000011 1011110100 1111111111 10000101110 1110110101 1100011111 1100110000 1100010110 25.750 42.206 998.56 83139 17 14 14 60 51 3 $GNGGA,154508.00,4333.68053,N,00128.72617,E,1,05,4.41,101.8,M,53.8,M,,*4C
82 15 45 09 4333.6805600128.72618101.8ó 00128.72618 101.8 11101111111 0 1100100011 1111110100 10000110001 1100011110 1101011010 10000000010 1 1101101101 1011000011 1011110100 1111111011 10000101101 1110110000 1100011110 1100101010 1100001100 25.750 42.206 998.57 84139 16 15 14 58 51 4 $GNGGA,154509.00,4333.68056,N,00128.72618,E,1,05,4.41,101.8,M,53.8,M,,*47
83 15 45 10 4333.6818400128.72728104.8ó 00128.72728 104.8 11101111111 0 1100100000 1111110111 10000101111 1100100010 1101010101 10000001001 1 1101101101 1011000010 1011110100 1111111111 10000110001 1110101101 1100011010 1100101011 1100010000 25.750 42.214 998.56 85136 17 15 14 60 51 3 $GNGGA,154510.00,4333.68184,N,00128.72728,E,1,06,1.56,104.8,M,53.8,M,,*46
84 15 45 11 4333.6829500128.72798107.6ó 00128.72798 107.6 11101111111 0 1100100010 1111111001 10000110001 1100100001 1101010101 10000000100 1 1101101101 1011000011 1011110101 10000000001 10000101111 1110110010 1100011011 1100101101 1100001101 25.750 42.214 998.57 86135 16 14 14 59 50 4 $GNGGA,154511.00,4333.68295,N,00128.72798,E,1,06,1.56,107.6,M,53.8,M,,*42
85 15 45 12 4333.6831000128.72866107.8ó 00128.72866 107.8 11101111111 0 1100011111 1111111000 10000101111 1100100100 1101011100 10000000101 1 1101101101 1010111111 1011110100 10000000000 10000101111 1110110010 1100011101 1100101010 1100010011 25.750 42.214 998.58 87135 16 15 13 59 51 4 $GNGGA,154512.00,4333.68310,N,00128.72866,E,1,06,3.05,107.8,M,53.8,M,,*49
86 15 45 13 4333.6832000128.72949108.0ó 00128.72949 108.0 11101111111 0 1100100010 1111110110 10000110011 1100011111 1101010110 10000010010 1 1101101101 1011000011 1011110011 10000000010 10000110001 1110110001 1100011011 1100101001 1100001011 25.750 42.214 998.57 88133 17 14 13 60 50 4 $GNGGA,154513.00,4333.68320,N,00128.72949,E,1,06,3.04,108.0,M,53.8,M,,*41
87 15 45 14 4333.6831900128.72952108.1ó 00128.72952 108.1 11101111111 0 1100100000 1111110111 10000110000 1100011110 1101010111 10000010001 1 1101101101 1010111111 1011110011 10000000010 10000101111 1110110010 1100011110 1100101101 1100010101 25.750 42.222 998.56 89133 16 16 15 59 51 3 $GNGGA,154514.00,4333.68319,N,00128.72952,E,1,05,4.41,108.1,M,53.8,M,,*42
88 15 45 15 4333.6832600128.72935108.1ó 00128.72935 108.1 11101111111 0 1100100011 1111110110 10000101110 1100011101 1101010101 10000001100 1 1101101100 1011000100 1011110011 10000000010 10000110001 1110101101 1100011001 1100100111 1100010000 25.750 42.222 998.56 90131 17 14 13 60 50 4 $GNGGA,154515.00,4333.68326,N,00128.72935,E,1,05,4.42,108.1,M,53.8,M,,*4D
89 15 45 16 Nan Nan Nan 11101111111 0 1100100000 1111110111 10000110001 1100011110 1101010000 10000001001 1 1101101101 1011000000 1011110010 10000000011 10000110000 1110101001 1100010110 1100110000 1100011101 25.750 42.229 998.57 91119 17 7 11 60 50 4 $GNGGA,154516.00,,,,,0,00,99.9,,,,,,*43
90 15 45 17 4333.6863200128.73202120.8ó 00128.73202 120.8 11101111111 0 1100100010 1111110110 10000110010 1100011111 1101010100 10000000111 1 1101101101 1011000100 1011110011 10000000010 10000110000 1110110010 1100011100 1100101100 1100010110 25.750 42.244 998.58 92129 16 15 13 59 52 4 $GNGGA,154517.00,4333.68632,N,00128.73202,E,1,05,1.92,120.8,M,53.8,M,,*4A
91 15 45 18 Nan Nan Nan 11101111111 0 1100100010 1111110100 10000110000 1100100110 1101011110 1111111110 1 1101101101 1011000101 1011110100 10000000001 10000101111 1110110000 1100011011 1100101110 1100010010 25.750 42.252 998.57 93118 17 7 11 60 51 3 $GNGGA,154518.00,,,,,0,00,99.9,,,,,,*4D
92 15 45 19 4333.6873200128.73277122.2ó 00128.73277 122.2 11101111111 0 1100100100 1111110100 10000110001 1100011101 1101010100 10000000101 1 1101101101 1011000010 1011110100 10000000011 10000110001 1110110100 1100011110 1100101011 1100011111 25.750 42.267 998.57 94128 16 15 13 59 50 5 $GNGGA,154519.00,4333.68732,N,00128.73277,E,1,06,1.56,122.2,M,53.8,M,,*44
93 15 45 20 4333.6883600128.73328124.0ó 00128.73328 124.0 11101111111 0 1100011111 1111110011 10000110000 1100011110 1101010001 10000001000 1 1101101101 1011001001 1011110111 10000000100 10000110001 1110110000 1100011101 1100110000 1100011110 25.750 42.283 998.58 95127 17 14 13 60 50 4 $GNGGA,154520.00,4333.68836,N,00128.73328,E,1,07,1.46,124.0,M,53.8,M,,*4A
94 15 45 21 4333.6891800128.73338125.7ó 00128.73338 125.7 11101111111 0 1100100001 1111101111 10000110000 1100011111 1101010100 10000000110 1 1101101101 1011000101 1011111000 1111111100 10000101101 1110101111 1100011001 1100100100 1100010100 25.750 42.260 998.57 96124 16 15 15 59 51 3 $GNGGA,154521.00,4333.68918,N,00128.73338,E,1,07,1.46,125.7,M,53.8,M,,*41
95 15 45 22 4333.6899000128.73347126.9ó 00128.73347 126.9 11101111111 0 1100100000 1111110010 10000110001 1100100001 1101010111 10000001101 1 1101101101 1010111111 1011101111 1111111111 10000101111 1110101111 1100011011 1100101101 1100011010 25.750 42.252 998.57 97125 17 14 13 59 51 4 $GNGGA,154522.00,4333.68990,N,00128.73347,E,1,07,1.46,126.9,M,53.8,M,,*47
96 15 45 23 4333.6905500128.73376128.1ó 00128.73376 128.1 11101111111 0 1100100001 1111110010 10000110011 1100011000 1101010010 10000001101 1 1101101100 1011000100 1011110100 1111111111 10000101111 1110110001 1100011000 1100101000 1100010100 25.750 42.252 998.58 98123 16 14 14 59 50 4 $GNGGA,154523.00,4333.69055,N,00128.73376,E,1,07,1.46,128.1,M,53.8,M,,*43
97 15 45 24 4333.6910300128.73355129.4ó 00128.73355 129.4 11101111111 0 1100100001 1111111001 10000110001 1100011111 1101010100 10000001010 1 1101101101 1011000001 1011110010 1111111111 10000101111 1110101101 1100011110 1100101110 1100011010 25.750 42.252 998.57 99123 16 16 14 59 52 3 $GNGGA,154524.00,4333.69103,N,00128.73355,E,1,07,1.46,129.4,M,53.8,M,,*43
98 15 45 25 4333.6912600128.73377130.0ó 00128.73377 130.0 11101111111 0 1100100001 1111111100 10000110100 1100011010 1101010001 10000000111 1 1101101101 1011000010 1011110011 1111111111 10000110001 1110110100 1100100010 1100101111 1100011001 25.750 42.252 998.57 100121 17 14 13 59 51 4 $GNGGA,154525.00,4333.69126,N,00128.73377,E,1,06,1.87,130.0,M,53.8,M,,*45
99 15 45 26 4333.6915700128.73423130.8ó 00128.73423 130.8 11101111111 0 1100100011 1111111001 10000110001 1100011011 1101011011 10000000011 1 1101101101 1011000001 1011110000 1111111110 10000110000 1110111010 1100011110 1100100110 1100011000 25.750 42.252 998.57 101121 16 16 15 59 51 3 $GNGGA,154526.00,4333.69157,N,00128.73423,E,1,06,1.87,130.8,M,53.8,M,,*4E
100 15 45 27 4333.6919300128.73485131.6ó 00128.73485 131.6 11101111111 0 1100100011 1111110010 10000101111 1100100001 1101010111 10000001111 1 1101101100 1011000110 1011110010 1111111110 10000110000 1110110011 1100011100 1100101011 1100001111 25.813 42.237 998.56 102120 17 15 14 60 51 3 $GNGGA,154527.00,4333.69193,N,00128.73485,E,1,06,1.87,131.6,M,53.8,M,,*44
101 15 45 28 4333.6921200128.73493132.3ó 00128.73493 132.3 11101111111 0 1100011111 1111111001 10000101110 1100100000 1101011000 10000000100 1 1101101101 1011000010 1011110011 10000000000 10000101111 1110101011 1100010111 1100101001 1100010000 25.750 42.229 998.57 103117 16 14 14 59 50 4 $GNGGA,154528.00,4333.69212,N,00128.73493,E,1,06,1.87,132.3,M,53.8,M,,*40
102 15 45 29 4333.6925300128.73594133.1ó 00128.73594 133.1 11101111111 0 1100100000 1111110111 10000110001 1100011110 1101010100 10000000101 1 1101101101 1011000011 1011110011 10000000000 10000110000 1110101011 1100010111 1100101000 1100001110 25.750 42.229 998.56 104118 16 15 14 59 52 3 $GNGGA,154529.00,4333.69253,N,00128.73594,E,1,06,1.87,133.1,M,53.8,M,,*41
103 15 45 30 4333.6929700128.73637134.2ó 00128.73637 134.2 11101111111 0 1100100011 1111110111 10000110010 1100011110 1101011001 10000000001 1 1101101100 1011000101 1011110011 10000000000 10000110000 1110101100 1100011001 1100101001 1100010011 25.750 42.237 998.56 105117 17 15 14 60 51 3 $GNGGA,154530.00,4333.69297,N,00128.73637,E,1,07,1.46,134.2,M,53.8,M,,*43
104 15 45 31 4333.6936800128.73724135.3ó 00128.73724 135.3 11101111111 0 1100100010 1111101101 10000101110 1100100000 1101010111 10000001100 1 1101101101 1011000010 1011110110 1111111111 10000101110 1110110000 1100011101 1100011110 1100001010 25.750 42.222 998.56 106117 16 16 14 59 50 5 $GNGGA,154531.00,4333.69368,N,00128.73724,E,1,07,1.46,135.3,M,53.8,M,,*40
105 15 45 32 4333.6937900128.73763136.1ó 00128.73763 136.1 11101111111 0 1100011110 1111101110 10000101100 1100100001 1101011001 10000001001 1 1101101100 1010111111 1011110010 10000000010 10000110010 1110101111 1100011010 1100101100 1100001110 25.750 42.130 998.56 107112 17 14 13 60 50 4 $GNGGA,154532.00,4333.69379,N,00128.73763,E,1,06,1.87,136.1,M,53.8,M,,*4D
106 15 45 33 4333.6940300128.73809136.9ó 00128.73809 136.9 11101111111 0 1100100001 1111110011 10000110000 1100011101 1101010111 10000001001 1 1101101100 1011000000 1011110010 10000000011 10000101111 1110101111 1100011010 1100101010 1100001111 25.750 42.077 998.56 108113 16 15 15 59 51 3 $GNGGA,154533.00,4333.69403,N,00128.73809,E,1,06,1.87,136.9,M,53.8,M,,*4D
107 15 45 34 4333.6944700128.73895137.7ó 00128.73895 137.7 11101111111 0 1100100000 1111110111 10000110001 1100011011 1101010100 10000000101 1 1101101101 1010111111 1011110010 1111111110 10000101111 1110110100 1100011110 1100101100 1100010100 25.750 42.031 998.56 109113 16 16 14 60 51 3 $GNGGA,154534.00,4333.69447,N,00128.73895,E,1,07,1.46,137.7,M,53.8,M,,*4C
108 15 45 35 4333.6947600128.73924138.6ó 00128.73924 138.6 11101111111 0 1100100000 1111110111 10000101111 1100011100 1101010110 10000001011 1 1101101100 1011000011 1011110011 10000000111 10000101111 1110110001 1100011010 1100100110 1100010111 25.750 41.993 998.57 110112 17 15 14 59 50 4 $GNGGA,154535.00,4333.69476,N,00128.73924,E,1,07,1.46,138.6,M,53.8,M,,*4A
109 15 45 36 4333.6950300128.73932139.3ó 00128.73932 139.3 11101111111 0 1100100010 1111110001 10000101111 1100011011 1101010011 10000000111 1 1101101101 1011000011 1011110011 1111111011 10000101111 1110101111 1100011010 1100101111 1100010101 25.750 41.977 998.57 111111 16 15 13 59 51 4 $GNGGA,154536.00,4333.69503,N,00128.73932,E,1,07,1.46,139.3,M,53.8,M,,*49
110 15 45 37 4333.6952100128.73961140.1ó 00128.73961 140.1 11101111111 0 1100100000 1111110001 10000101111 1100011110 1101010011 10000010010 1 1101101100 1011000010 1011110011 10000000001 10000101101 1110110111 1100011111 1100101101 1100011001 25.750 41.977 998.57 112110 17 15 14 60 51 3 $GNGGA,154537.00,4333.69521,N,00128.73961,E,1,07,1.46,140.1,M,53.8,M,,*42
111 15 45 38 4333.6953400128.73943140.8ó 00128.73943 140.8 11101111111 0 1100100010 1111110110 10000110011 1100100010 1101010011 10000010010 1 1101101101 1011000011 1011110100 10000000010 10000101110 1110110000 1100011110 1100101100 1100010101 25.750 41.970 998.56 113108 16 14 14 59 50 4 $GNGGA,154538.00,4333.69534,N,00128.73943,E,1,07,1.46,140.8,M,53.8,M,,*40
112 15 45 39 4333.6954400128.73969141.5ó 00128.73969 141.5 11101111111 0 1100100010 1111110001 10000101110 1100011100 1101010110 10000001011 1 1101101101 1011000101 1011110100 10000000001 10000110001 1110110000 1100100000 1100100101 1100001101 25.750 41.955 998.56 114106 17 15 14 60 51 3 $GNGGA,154539.00,4333.69544,N,00128.73969,E,1,07,1.46,141.5,M,53.8,M,,*42
113 15 45 40 4333.6954700128.73959142.0ó 00128.73959 142.0 11101111111 0 1100100010 1111110101 10000101110 1100011111 1101010110 10000001101 1 1101101100 1011000001 1011110101 1111111100 10000101110 1110110001 1100011100 1100100101 1100001010 25.750 41.947 998.57 115107 16 14 14 58 51 4 $GNGGA,154540.00,4333.69547,N,00128.73959,E,1,07,1.46,142.0,M,53.8,M,,*4A
114 15 45 41 4333.6953400128.73941142.4ó 00128.73941 142.4 11101111111 0 1100100010 1111110100 10000101110 1100100001 1101010011 10000001100 1 1101101101 1011000011 1011110010 10000000010 10000110000 1110110110 1100100001 1100101001 1100010100 25.750 41.955 998.57 116106 16 15 13 59 52 4 $GNGGA,154541.00,4333.69534,N,00128.73941,E,1,07,1.46,142.4,M,53.8,M,,*42
115 15 45 42 4333.6952900128.73956142.7ó 00128.73956 142.7 11101111111 0 1100100010 1111110100 10000101111 1100100010 1101011100 10000001100 1 1101101100 1011000110 1011110101 10000000011 10000101111 1110110010 1100011110 1100101000 1100001111 25.750 41.993 998.56 117105 17 15 14 60 51 3 $GNGGA,154542.00,4333.69529,N,00128.73956,E,1,07,1.46,142.7,M,53.8,M,,*48
116 15 45 43 4333.6953700128.73934143.1ó 00128.73934 143.1 11101111111 0 1100100000 1111110011 10000110001 1100011011 1101010011 10000010000 1 1101101101 1011000010 1011110001 10000000111 10000110010 1110110110 1100011111 1100101101 1100010101 25.750 42.008 998.56 118104 17 16 14 59 50 4 $GNGGA,154543.00,4333.69537,N,00128.73934,E,1,06,1.51,143.1,M,53.8,M,,*42
117 15 45 44 4333.6954200128.73923143.4ó 00128.73923 143.4 11101111111 0 1100100001 1111101111 10000101110 1100011111 1101010111 10000010010 1 1101101101 1011000011 1011110011 10000001000 10000110001 1110110011 1100010110 1100100011 1100001001 25.750 42.000 998.58 119103 17 15 14 60 50 4 $GNGGA,154544.00,4333.69542,N,00128.73923,E,1,06,1.51,143.4,M,53.8,M,,*44
118 15 45 45 4333.6957100128.73957143.7ó 00128.73957 143.7 11101111111 0 1100100011 1111110001 10000110010 1100100011 1101010111 10000000100 1 1101101101 1011000010 1011110011 10000000100 10000110001 1110110101 1100011110 1100011101 1100001001 25.750 41.970 998.58 120101 16 15 15 59 51 3 $GNGGA,154545.00,4333.69571,N,00128.73957,E,1,06,1.51,143.7,M,53.8,M,,*45
119 15 45 46 4333.6956700128.73946144.0ó 00128.73946 144.0 11101111111 0 1100100001 1111101110 10000101110 1100100011 1101011000 10000001011 1 1101101101 1010111111 1011110000 10000000011 10000110001 1110101111 1100011100 1100100110 1100010110 25.750 41.939 998.58 121100 16 16 14 59 52 3 $GNGGA,154546.00,4333.69567,N,00128.73946,E,1,06,1.51,144.0,M,53.8,M,,*41
120 15 45 47 4333.6955100128.73891144.2ó 00128.73891 144.2 11101111111 0 1100100001 1111101110 10000101101 1100011100 1101010010 10000001110 1 1101101101 1010111111 1011110011 10000000010 10000110001 1110110011 1100011110 1100100011 1100001000 25.750 41.924 998.59 122099 17 15 14 60 51 3 $GNGGA,154547.00,4333.69551,N,00128.73891,E,1,05,1.91,144.2,M,53.8,M,,*43
121 15 45 48 4333.6952900128.73828144.5ó 00128.73828 144.5 11101111111 0 1100100001 1111110001 10000110000 1100011100 1101011001 10000001111 1 1101101101 1011000111 1011110110 10000000100 10000110000 1110110001 1100011111 1100101010 1100011000 25.750 41.901 998.58 123098 16 15 13 59 50 5 $GNGGA,154548.00,4333.69529,N,00128.73828,E,1,06,1.51,144.5,M,53.8,M,,*49
122 15 45 49 4333.6949400128.73769144.6ó 00128.73769 144.6 11101111111 0 1100100010 1111110000 10000110010 1100011001 1101010010 10000001011 1 1101101101 1011000010 1011110010 10000000110 10000110000 1110110001 1100011001 1100110011 1100100000 25.750 41.894 998.57 124097 17 14 13 60 50 4 $GNGGA,154549.00,4333.69494,N,00128.73769,E,1,06,1.51,144.6,M,53.8,M,,*46
123 15 45 50 4333.6947800128.73776144.6ó 00128.73776 144.6 11101111111 0 1100100001 1111110110 10000110000 1100100010 1101010101 10000010010 1 1101101101 1011000000 1011110011 10000000000 10000101110 1110101101 1100011000 1100101010 1100011011 25.750 41.901 998.56 125094 16 15 15 59 51 3 $GNGGA,154550.00,4333.69478,N,00128.73776,E,1,05,2.59,144.6,M,53.8,M,,*4A
124 15 45 51 4333.6944100128.73715144.5ó 00128.73715 144.5 11101111111 0 1100100011 1111110100 10000110001 1100011010 1101010001 10000001001 1 1101101101 1011000101 1011110111 10000000001 10000110000 1110110101 1100100011 1100101011 1100011001 25.750 41.916 998.56 126095 17 14 13 59 51 4 $GNGGA,154551.00,4333.69441,N,00128.73715,E,1,05,2.59,144.5,M,53.8,M,,*47
125 15 45 52 4333.6940600128.73770144.5ó 00128.73770 144.5 11101111111 0 1100100010 1111110111 10000110001 1100011011 1101010001 10000001100 1 1101101101 1011000010 1011110011 10000000011 10000110010 1110101111 1100011100 1100100110 1100010011 25.750 41.932 998.56 127095 16 14 14 58 51 4 $GNGGA,154552.00,4333.69406,N,00128.73770,E,1,06,1.51,144.5,M,53.8,M,,*4C
126 15 45 53 4333.6938800128.73797144.3ó 00128.73797 144.3 11101111111 0 1100100000 1111110111 10000101111 1100011110 1101010111 10000000110 1 1101101101 1011000101 1011110100 10000000010 10000110011 1110110001 1100011100 1100100101 1100001110 25.750 41.947 998.55 128094 16 16 14 59 52 3 $GNGGA,154553.00,4333.69388,N,00128.73797,E,1,05,2.59,144.3,M,53.8,M,,*4B
127 15 45 54 4333.6937100128.73849144.3ó 00128.73849 144.3 11101111111 0 1100100011 1111111100 10000110011 1100100011 1101011010 10000000001 0 1101101100 1011000010 1011110101 1111111111 10000101111 1110110001 1100011000 1100100111 1100001011 25.750 41.962 998.56 129093 17 14 13 59 51 4 $GNGGA,154554.00,4333.69371,N,00128.73849,E,1,07,1.12,144.3,M,53.8,M,,*48
128 15 45 55 4333.6934600128.73801144.3ó 00128.73801 144.3 11101111111 0 1100100100 1111110011 10000110000 1100100010 1101010101 10000001101 1 1101101100 1011000011 1011110011 10000000100 10000110001 1110110100 1100011010 1100101010 1100010100 25.750 41.962 998.55 130092 16 15 14 58 51 4 $GNGGA,154555.00,4333.69346,N,00128.73801,E,1,07,1.12,144.3,M,53.8,M,,*41
129 15 45 56 4333.6930700128.73646144.2ó 00128.73646 144.2 11101111111 0 1100100100 1111101110 10000110001 1100100011 1101011010 10000010011 1 1101101101 1011000001 1011110011 10000000010 10000110001 1110110001 1100011000 1100100110 1100010001 25.750 41.932 998.55 131090 17 15 14 60 51 3 $GNGGA,154556.00,4333.69307,N,00128.73646,E,1,07,1.12,144.2,M,53.8,M,,*4B
130 15 45 57 4333.6926600128.73590144.2ó 00128.73590 144.2 11101111111 0 1100100000 1111110000 10000110011 1100011001 1101001110 10000001101 1 1101101101 1011000100 1011110100 1111110101 10000101100 1110101101 1100011001 1100100101 1100010101 25.750 41.932 998.55 132089 16 15 15 59 51 3 $GNGGA,154557.00,4333.69266,N,00128.73590,E,1,07,1.12,144.2,M,53.8,M,,*44
131 15 45 58 4333.6926500128.73573144.2ó 00128.73573 144.2 11101111111 0 1100100010 1111110011 10000101110 1100011111 1101011000 10000001110 1 1101101101 1011000011 1011110011 1111111010 10000101110 1110110100 1100011100 1100101111 1100011011 25.750 41.947 998.56 133089 16 15 13 59 51 4 $GNGGA,154558.00,4333.69265,N,00128.73573,E,1,08,1.07,144.2,M,53.8,M,,*4E
132 15 45 59 4333.6926500128.73535144.3ó 00128.73535 144.3 11101111111 0 1100100101 1111111010 10000110001 1100011110 1101011000 10000000011 1 1101101100 1011000101 1011110110 1111111101 10000101110 1110101111 1100011010 1100011111 1100010011 25.750 41.962 998.57 134087 17 14 13 59 51 4 $GNGGA,154559.00,4333.69265,N,00128.73535,E,1,07,1.12,144.3,M,53.8,M,,*47
133 15 46 00 4333.6926000128.73533144.5ó 00128.73533 144.5 11101111111 0 1100011100 1111111000 10000110100 1100100010 1101010101 10000001011 1 1101101100 1011000101 1011110101 10000000100 10000110000 1110101010 1100011011 1100110000 1100011010 25.750 41.977 998.57 135087 16 15 13 59 50 5 $GNGGA,154600.00,4333.69260,N,00128.73533,E,1,07,1.12,144.5,M,53.8,M,,*4D
134 15 46 01 4333.6923900128.73523144.7ó 00128.73523 144.7 11101111111 0 1100100011 1111110111 10000110011 1100011110 1101010100 10000000000 1 1101101100 1011000100 1011110011 10000000111 10000110001 1110110010 1100011010 1100101001 1100010010 25.750 41.977 998.57 136084 17 14 13 59 51 4 $GNGGA,154601.00,4333.69239,N,00128.73523,E,1,07,1.12,144.7,M,53.8,M,,*43
135 15 46 02 4333.6923600128.73505145.1ó 00128.73505 145.1 11101111111 0 1100100010 1111111000 10000110010 1100100000 1101011000 10000001001 1 1101101100 1011000101 1011110101 1111111100 10000101110 1110110101 1100100010 1100100100 1100001010 25.750 42.000 998.56 137084 16 14 14 58 51 4 $GNGGA,154602.00,4333.69236,N,00128.73505,E,1,08,1.07,145.1,M,53.8,M,,*47
136 15 46 03 4333.6921000128.73474145.3ó 00128.73474 145.3 11101111111 0 1100100001 1111110100 10000110000 1100011101 1101010000 10000001000 1 1101101100 1011000010 1011110010 1111111101 10000101111 1110101011 1100010111 1100011110 1100000110 25.750 42.031 998.57 138084 17 14 13 59 51 4 $GNGGA,154603.00,4333.69210,N,00128.73474,E,1,06,1.62,145.3,M,53.8,M,,*4A
137 15 46 04 4333.6920000128.73489145.6ó 00128.73489 145.6 11101111111 0 1100100100 1111110011 10000110000 1100100000 1101011000 10000001100 1 1101101101 1011000000 1011110011 1111111111 10000101111 1110101011 1100010101 1100100110 1100010010 25.750 42.046 998.55 139082 16 15 15 59 51 3 $GNGGA,154604.00,4333.69200,N,00128.73489,E,1,07,1.12,145.6,M,53.8,M,,*4D
138 15 46 05 4333.6919200128.73426146.0ó 00128.73426 146.0 11101111111 0 1100100011 1111110011 10000110001 1100011100 1101010111 10000000110 1 1101101101 1011000011 1011110100 10000000110 10000110000 1110101011 1100011100 1100101101 1100010100 25.750 42.023 998.56 140083 16 16 14 59 51 4 $GNGGA,154605.00,4333.69192,N,00128.73426,E,1,07,1.12,146.0,M,53.8,M,,*44
139 15 46 06 4333.6918100128.73404146.2ó 00128.73404 146.2 11101111111 0 1100100000 1111110110 10000110000 1100100001 1101011000 10000001100 1 1101101101 1010111101 1011110011 10000000110 10000110000 1110100111 1100010110 1100101010 1100010110 25.750 42.016 998.57 141079 17 14 13 59 51 4 $GNGGA,154606.00,4333.69181,N,00128.73404,E,1,05,1.76,146.2,M,53.8,M,,*47
140 15 46 07 4333.6919100128.73397146.4ó 00128.73397 146.4 11101111111 0 1100100010 1111110100 10000110001 1100011111 1101011010 10000001010 1 1101101100 1011000010 1011110011 10000001000 10000101110 1110101100 1100010111 1100100101 1100010101 25.750 42.000 998.57 142078 16 15 15 59 51 3 $GNGGA,154607.00,4333.69191,N,00128.73397,E,1,04,3.20,146.4,M,53.8,M,,*4C
141 15 46 08 4333.6918700128.73413146.5ó 00128.73413 146.5 11101111111 0 1100100011 1111110101 10000101111 1100011100 1101010101 10000010000 1 1101101100 1011000011 1011110010 10000000001 10000110000 1110110011 1100011100 1100101100 1100010000 25.750 42.000 998.57 143075 16 15 13 60 50 4 $GNGGA,154608.00,4333.69187,N,00128.73413,E,1,04,3.20,146.5,M,53.8,M,,*4E
142 15 46 09 4333.6918200128.73427146.6ó 00128.73427 146.6 11101111111 0 1100100010 10000000001 10000110100 1100100010 1101011001 10000001111 1 1101101100 1011000100 1011110011 10000000100 10000110000 1110110000 1100011101 1100100100 1100001110 25.750 42.000 998.57 144077 16 15 15 59 51 3 $GNGGA,154609.00,4333.69182,N,00128.73427,E,1,04,3.20,146.6,M,53.8,M,,*4E
143 15 46 10 4333.6917200128.73467146.6ó 00128.73467 146.6 11101111111 0 1100100100 1111110001 10000110000 1100010101 1101001111 10000001000 1 1101101100 1011000010 1011110100 10000000000 10000101111 1110110011 1100011111 1100100101 1100001011 25.750 42.000 998.56 145076 16 15 13 58 52 4 $GNGGA,154610.00,4333.69172,N,00128.73467,E,1,06,1.87,146.6,M,53.8,M,,*40
144 15 46 11 4333.6912800128.73542146.4ó 00128.73542 146.4 11101111111 0 1100100001 1111110101 10000110001 1100011111 1101010111 10000001100 1 1101101101 1011000010 1011110011 1111111111 10000110000 1110110001 1100011110 1100101010 1100010011 25.750 42.008 998.57 146075 17 14 13 59 51 4 $GNGGA,154611.00,4333.69128,N,00128.73542,E,1,07,1.46,146.4,M,53.8,M,,*46
145 15 46 12 4333.6911400128.73549146.5ó 00128.73549 146.5 11101111111 0 1100100010 1111110110 10000110000 1100011001 1101001111 10000010000 1 1101101100 1011000011 1011110100 1111111111 10000110011 1110110001 1100010110 1100100111 1100010011 25.750 42.038 998.57 147074 17 16 14 59 50 4 $GNGGA,154612.00,4333.69114,N,00128.73549,E,1,06,1.87,146.5,M,53.8,M,,*4C
146 15 46 13 4333.6911200128.73480146.8ó 00128.73480 146.8 11101111111 0 1100100001 1111110100 10000101110 1100011110 1101010110 10000001110 1 1101101100 1011000100 1011110101 10000000110 10000110010 1110101111 1100011110 1100101011 1100010000 25.750 42.054 998.57 148074 17 14 13 59 51 4 $GNGGA,154613.00,4333.69112,N,00128.73480,E,1,06,1.87,146.8,M,53.8,M,,*42
147 15 46 14 4333.6911500128.73326147.3ó 00128.73326 147.3 11101111111 0 1100011100 1111101111 10000101110 1100100011 1101011010 10000001001 1 1101101100 1011000110 1011110100 10000000101 10000101111 1110110010 1100011010 1100101001 1100010000 25.750 42.077 998.56 149071 16 14 14 58 51 4 $GNGGA,154614.00,4333.69115,N,00128.73326,E,1,06,1.87,147.3,M,53.8,M,,*43
148 15 46 15 4333.6911700128.73226147.8ó 00128.73226 147.8 11101111111 0 1100100100 1111110011 10000110001 1100011011 1101010011 10000001011 1 1101101100 1011000011 1011110011 1111111111 10000110000 1110110001 1100011110 1100100101 1100010101 25.750 42.061 998.56 150071 16 16 14 59 52 3 $GNGGA,154615.00,4333.69117,N,00128.73226,E,1,06,1.87,147.8,M,53.8,M,,*4A
149 15 46 16 4333.6908500128.73227147.6ó 00128.73227 147.6 11000000000 0 1100100010 1111110101 10000110001 1100011100 1101010010 10000010100 1 1101101100 1011000001 1011110010 10000000011 10000110000 1110110000 1100011000 1100011111 1100001110 25.750 42.038 998.56 151069 17 14 13 59 51 4 $GNGGA,154616.00,4333.69085,N,00128.73227,E,1,06,1.79,147.6,M,53.8,M,,*4D
150 15 46 17 4333.6906100128.73240147.5ó 00128.73240 147.5 11101111111 0 1100100010 1111101100 10000101111 1100011110 1101011001 10000001111 1 1101101100 1011000000 1011110000 1111111110 10000101111 1110101111 1100011011 1100101100 1100011011 25.750 42.023 998.57 152069 16 15 13 59 50 5 $GNGGA,154617.00,4333.69061,N,00128.73240,E,1,07,1.46,147.5,M,53.8,M,,*49
151 15 46 18 4333.6904900128.73213147.7ó 00128.73213 147.7 11101111111 0 1100100010 1111101101 10000101101 1100011011 1101010010 10000001111 1 1101101101 1011000001 1011110100 1111111101 10000101111 1110101111 1100011011 1100100100 1100010001 25.750 42.008 998.57 153070 17 15 14 60 51 3 $GNGGA,154618.00,4333.69049,N,00128.73213,E,1,07,1.46,147.7,M,53.8,M,,*48
152 15 46 19 4333.6905700128.73149148.0ó 00128.73149 148.0 11101111111 0 1100100010 1111111100 10000110100 1100011101 1101010001 10000001001 1 1101101101 1011000000 1011110011 10000000010 10000101101 1110110011 1100011100 1100110010 1100011011 25.750 42.000 998.57 154066 16 15 15 59 51 3 $GNGGA,154619.00,4333.69057,N,00128.73149,E,1,07,1.46,148.0,M,53.8,M,,*42
153 15 46 20 4333.6904800128.73102148.3ó 00128.73102 148.3 11101111111 0 1100100000 1111110000 10000101110 1100100101 1101010110 10000001100 1 1101101101 1011000011 1011110010 10000000000 10000110000 1110101110 1100011011 1100100100 1100011011 25.750 42.000 998.57 155067 17 15 14 60 50 4 $GNGGA,154620.00,4333.69048,N,00128.73102,E,1,06,1.87,148.3,M,53.8,M,,*46
154 15 46 21 4333.6905000128.73141148.5ó 00128.73141 148.5 11101111111 0 1100100000 1111110010 10000110011 1100011111 1101011010 10000001101 1 1101101100 1011000001 1011110100 1111111110 10000110000 1110101011 1100011010 1100101010 1100010000 25.750 41.993 998.58 156064 16 14 14 59 50 4 $GNGGA,154621.00,4333.69050,N,00128.73141,E,1,07,1.46,148.5,M,53.8,M,,*43
155 15 46 22 4333.6906000128.73182148.8ó 00128.73182 148.8 11101111111 0 1100011100 1111110000 10000101011 1100011111 1101010101 10000010011 1 1101101101 1011000011 1011110011 1111111111 10000101111 1110101110 1100011101 1100101110 1100010111 25.813 42.000 998.57 157065 16 15 13 58 52 4 $GNGGA,154622.00,4333.69060,N,00128.73182,E,1,07,1.46,148.8,M,53.8,M,,*41
156 15 46 23 4333.6904400128.73133149.1ó 00128.73133 149.1 11101111111 0 1100100010 1111111000 10000110000 1100011110 1101010101 10000010100 1 1101101100 1011000010 1011110001 10000000011 10000110001 1110110010 1100100010 1100100100 1100010000 25.813 42.000 998.58 158064 17 14 13 60 50 4 $GNGGA,154623.00,4333.69044,N,00128.73133,E,1,07,1.46,149.1,M,53.8,M,,*44
157 15 46 24 4333.6902500128.73044149.5ó 00128.73044 149.5 11101111111 0 1100100000 1111110011 10000110001 1100100000 1101010011 10000000010 1 1101101101 1011000010 1011110100 1111111110 10000101111 1110110011 1100011010 1100101001 1100010101 25.750 42.008 998.57 159062 17 16 14 59 50 4 $GNGGA,154624.00,4333.69025,N,00128.73044,E,1,07,1.46,149.5,M,53.8,M,,*41
158 15 46 25 4333.6901400128.73000149.8ó 00128.73000 149.8 11101111111 0 1100011111 1111110001 10000101011 1100011101 1101010101 10000001101 1 1101101100 1010111111 1011110010 1111111111 10000101111 1110110001 1100011111 1100100110 1100010000 25.750 42.023 998.56 160060 17 14 13 60 50 4 $GNGGA,154625.00,4333.69014,N,00128.73000,E,1,06,1.51,149.8,M,53.8,M,,*48
159 15 46 26 4333.6898600128.73033149.9ó 00128.73033 149.9 11101111111 0 1100100010 1111110110 10000110010 1100011011 1101010001 10000010010 1 1101101100 1011000100 1011110100 1111111101 10000101110 1110101100 1100011001 1100100110 1100011011 25.750 42.023 998.57 161059 16 15 15 59 51 3 $GNGGA,154626.00,4333.68986,N,00128.73033,E,1,06,1.51,149.9,M,53.8,M,,*49
160 15 46 27 4333.6896200128.73050149.9ó 00128.73050 149.9 11101111111 0 1100100000 1111111001 10000110011 1100100011 1101011011 10000001101 1 1101101100 1010111100 1011110010 10000000011 10000110001 1110101101 1100011001 1100101011 1100011000 25.750 42.038 998.57 162058 16 15 13 59 51 4 $GNGGA,154627.00,4333.68962,N,00128.73050,E,1,06,1.51,149.9,M,53.8,M,,*47
161 15 46 28 4333.6894900128.73112149.9ó 00128.73112 149.9 11101111111 0 1100100010 1111110110 10000101110 1100011010 1101010000 10000000010 1 1101101100 1011000100 1011110101 10000000001 10000110010 1110101111 1100011101 1100100011 1100001011 25.813 42.038 998.56 163057 18 15 13 60 50 4 $GNGGA,154628.00,4333.68949,N,00128.73112,E,1,05,2.58,149.9,M,53.8,M,,*4F
162 15 46 29 4333.6892900128.73086150.0ó 00128.73086 150.0 11101111111 0 1100100011 1111110100 10000110001 1100011101 1101011000 10000001011 1 1101101100 1011000010 1011110100 1111111110 10000101111 1110101111 1100011011 1100100010 1100010100 25.750 42.038 998.57 164057 16 16 14 59 51 4 $GNGGA,154629.00,4333.68929,N,00128.73086,E,1,06,1.79,150.0,M,53.8,M,,*46
163 15 46 30 4333.6889800128.73105149.8ó 00128.73105 149.8 11101111111 0 1100100011 1111110010 10000101111 1100011101 1101011000 10000001110 1 1101101101 1011000000 1011110100 10000000010 10000110000 1110101101 1100011011 1100101000 1100010110 25.813 42.031 998.57 165054 17 14 13 59 51 4 $GNGGA,154630.00,4333.68898,N,00128.73105,E,1,06,1.79,149.8,M,53.8,M,,*4F
