id HH MM SS longitude latitude altitude adc_1_ch0 adc_1_ch1 adc_1_ch2 adc_1_ch3 adc_1_ch4 adc_1_ch5 adc_1_ch6 adc_1_ch7 adc_1_ch8 adc_2_ch0 adc_2_ch1 adc_2_ch2 adc_2_ch3 adc_2_ch4 adc_2_ch5 adc_2_ch6 adc_2_ch7 adc_2_ch8 temp hum pres t_prog t_gps t_split t_adc t_temp t_hum t_pres trame_gga
1 11 00 54 Nan Nan Nan 11111111111 1100000110 1100110000 1111111110 10000111001 1100101101 1101100001 1111011001 1100001100 1101101111 1011010101 1100000000 10000000010 10000111001 1101011110 1100100111 1110110001 1100001011 25.438 51.888 795.83 4152 17 7 10 58 52 4 $GNGGA,110054.00,,,,,0,00,27.5,,,,,,*49
2 11 00 55 Nan Nan Nan 0 1100001000 1100110010 1111111011 10000111000 1100101111 1101011100 1111001101 1100000001 1101101111 1011010111 1100000000 10000001010 10000111010 1101100000 1100101010 1110111000 1100001101 25.438 51.888 1000.5 5151 17 7 11 59 51 3 $GNGGA,110055.00,,,,,0,00,27.5,,,,,,*48
3 11 00 56 Nan Nan Nan 11111111111 1100000010 1100101011 1111111100 10000110101 1100101100 1101011101 1111010110 1100001100 1101101111 1011010100 1100000010 10000001010 10000111000 1101100011 1100101000 1110111010 1100001001 25.438 51.903 1000.5 6150 17 8 10 59 51 4 $GNGGA,110056.00,,,,,0,00,27.5,,,,,,*4B
4 11 00 57 Nan Nan Nan 0 1100000110 1100110000 1111111011 10000110111 1100100100 1101010011 1111010010 1100010000 1101101111 1011010100 1100000000 10000010000 10000111100 1101100010 1100101000 1110110100 1100000011 25.438 51.919 1000.5 7149 17 7 10 60 50 4 $GNGGA,110057.00,,,,,0,00,27.5,,,,,,*4A
5 11 00 58 Nan Nan Nan 0 1100000101 1100110000 1111111101 10000110111 1100100101 1101010110 1111010111 1100001100 1101101111 1011010010 1100000000 10000001110 10000111010 1101100001 1100100110 1110110101 1100000110 25.438 51.919 1000.5 8148 16 7 12 59 51 3 $GNGGA,110058.00,,,,,0,00,27.5,,,,,,*45
6 11 00 59 4333.6899200128.72443112.6ó 00128.72443 112.6 11111111111 1100000101 1100110000 1111111011 10000110111 1100100111 1101011111 1111010101 1100010000 1101101111 1011010100 1100000101 10000001011 10000111011 1101011011 1100100011 1110110001 1100000001 25.500 51.903 1000.5 9157 17 15 14 60 51 3 $GNGGA,110059.00,4333.68992,N,00128.72443,E,1,05,3.29,112.6,M,53.8,M,,*4F
7 11 01 00 4333.6899900128.72475112.7ó 00128.72475 112.7 11111111111 1100000101 1100101111 1111111011 10000110110 1100100101 1101011010 1111010100 1100001111 1101101111 1011010111 1100000100 10000001011 10000111001 1101100010 1100101001 1110110101 1100000110 25.438 51.903 1000.5 10157 16 15 13 58 51 5 $GNGGA,110100.00,4333.68999,N,00128.72475,E,1,05,3.29,112.7,M,53.8,M,,*4D
8 11 01 01 4333.6898800128.72469112.9ó 00128.72469 112.9 0 1100001001 1100110000 1111111010 10000111000 1100100100 1101010110 1111010001 1100001000 1101101111 1011010010 1011111110 10000000110 10000111010 1101100011 1100100111 1110101110 1011111110 25.438 51.880 1000.5 11156 17 14 13 60 50 4 $GNGGA,110101.00,4333.68988,N,00128.72469,E,1,05,3.29,112.9,M,53.8,M,,*4F
9 11 01 02 4333.6901200128.72480113.1ó 00128.72480 113.1 11111111111 1100000111 1100101101 1111111010 10000110110 1100100101 1101011000 1111011110 1100010110 1101101111 1011010101 1100000000 10000000111 10000111010 1101100001 1100100010 1110110010 1100000100 25.438 51.873 1000.5 12156 16 15 15 59 51 3 $GNGGA,110102.00,4333.69012,N,00128.72480,E,1,05,3.29,113.1,M,53.8,M,,*49
10 11 01 03 4333.6900200128.72307113.4ó 00128.72307 113.4 11111111111 1100000110 1100110001 1111111011 10000111000 1100101100 1101011111 1111010001 1100001110 1101101111 1011010101 1100000010 10000001101 10000111100 1101100010 1100100101 1110110111 1100000011 25.438 51.873 1000.5 13155 16 16 14 59 51 4 $GNGGA,110103.00,4333.69002,N,00128.72307,E,1,05,3.29,113.4,M,53.8,M,,*44
11 11 01 04 4333.6899400128.72343113.6ó 00128.72343 113.6 11111111111 1100000011 1100101011 1111111010 10000110110 1100100111 1101011111 1111011011 1100010101 1101101111 1011010101 1100000000 10000001100 10000111110 1101011111 1100100011 1110110100 1011111111 25.500 51.873 1000.5 14153 17 14 13 58 51 4 $GNGGA,110104.00,4333.68994,N,00128.72343,E,1,05,3.29,113.6,M,53.8,M,,*46
12 11 01 05 Nan Nan Nan 11111111111 1100000110 1100101111 1111111001 10000111000 1100100110 1101010101 1111010101 1100010000 1101101111 1011010100 1011111111 10000001110 10000111100 1101011100 1100100001 1110110000 1100000111 25.438 51.873 1000.5 15140 16 7 12 59 50 4 $GNGGA,110105.00,,,,,0,00,27.6,,,,,,*4F
13 11 01 06 Nan Nan Nan 0 1100000100 1100110001 1111111011 10000111010 1100101010 1101011101 1111010011 1100001111 1101101111 1011010111 1100000010 10000001111 10000111100 1101011011 1100100011 1110110010 1100000101 25.500 51.873 1000.5 16140 16 7 11 59 52 3 $GNGGA,110106.00,,,,,0,00,27.6,,,,,,*4C
14 11 01 07 Nan Nan Nan 11111111111 1100000101 1100101111 1111111010 10000110110 1100100110 1101011100 1111010111 1100010011 1101101111 1011010101 1011111111 10000001010 10000111010 1101100010 1100101010 1110110010 1011111101 25.500 51.873 1000.5 17139 17 7 11 60 51 3 $GNGGA,110107.00,,,,,0,00,27.6,,,,,,*4D
15 11 01 08 4333.6899300128.72554114.4ó 00128.72554 114.4 11111111111 1100000111 1100110000 1111111100 10000110101 1100100110 1101011110 1111010100 1100010100 1101101111 1011010011 1011111110 10000001111 10000111011 1101100000 1100100111 1110110110 1100001011 25.500 51.865 1000.5 18149 17 14 14 59 51 3 $GNGGA,110108.00,4333.68993,N,00128.72554,E,1,05,4.51,114.4,M,53.8,M,,*40
16 11 01 09 4333.6900400128.72650114.7ó 00128.72650 114.7 0 1100000101 1100101111 1111111000 10000110111 1100101011 1101011010 1111001101 1100001000 1101101111 1011010100 1100000001 10000010011 10000111100 1101100011 1100101010 1110101110 1100000111 25.500 51.880 1000.5 19149 16 15 15 59 51 3 $GNGGA,110109.00,4333.69004,N,00128.72650,E,1,05,4.51,114.7,M,53.8,M,,*43
17 11 01 10 4333.6899100128.72625114.9ó 00128.72625 114.9 0 1100001000 1100110010 1111110000 10000110100 1100101001 1101100110 1111010100 1100010000 1101101111 1011010110 1100000001 10000010011 10000111100 1101100000 1100100110 1110111000 1100001010 25.500 51.896 1000.5 20145 16 15 13 58 52 4 $GNGGA,110110.00,4333.68991,N,00128.72625,E,1,05,4.51,114.9,M,53.8,M,,*43
18 11 01 11 4333.6899600128.72651115.1ó 00128.72651 115.1 11111111111 1100000110 1100110010 1111111100 10000111001 1100101010 1101011110 1111010101 1100010011 1101101111 1011010111 1011111111 10000001101 10000111011 1101100010 1100101000 1110110110 1100001100 25.500 51.903 1000.5 21145 17 14 14 59 51 3 $GNGGA,110111.00,4333.68996,N,00128.72651,E,1,05,4.51,115.1,M,53.8,M,,*4F
19 11 01 12 Nan Nan Nan 11111111111 1100000011 1100101110 10000000111 10000110110 1100101000 1101100010 1111010111 1100010100 1101101111 1011010011 1100000000 10000010000 10000111011 1101100000 1100101000 1110101100 1100000101 25.500 51.919 1000.5 22133 17 7 11 59 50 4 $GNGGA,110112.00,,,,,0,00,27.6,,,,,,*49
20 11 01 13 Nan Nan Nan 11111111111 1100000011 1100101110 10000000001 10000110111 1100101000 1101011110 1111010100 1100001001 1101101111 1011010010 1100000000 10000000110 10000111010 1101100100 1100101001 1110110110 1100001000 25.500 51.919 1000.5 23133 17 7 10 58 52 4 $GNGGA,110113.00,,,,,0,00,27.6,,,,,,*48
21 11 01 14 Nan Nan Nan 11111111111 1100001000 1100110000 10000000000 10000110111 1100100110 1101011110 1111011000 1100010111 1101101111 1011010101 1100000010 10000001111 10000111101 1101100011 1100101101 1110111101 1100010001 25.500 51.903 1000.5 24132 17 7 11 60 50 4 $GNGGA,110114.00,,,,,0,00,27.7,,,,,,*4E
22 11 01 15 Nan Nan Nan 0 1100000100 1100101100 1111111101 10000110111 1100101001 1101011111 1111010101 1100001100 1101101111 1011010101 1100000001 10000001010 10000111010 1101101010 1100110001 1110111110 1100001101 25.500 51.888 1000.5 25131 16 8 12 59 50 4 $GNGGA,110115.00,,,,,0,00,27.7,,,,,,*4F
23 11 01 16 4333.6906400128.72810115.1ó 00128.72810 115.1 11111111111 1100000011 1100101111 1111111100 10000110110 1100101000 1101011101 1111011011 1100010111 1101101111 1011010110 1100000010 10000001011 10000111010 1101100010 1100101001 1110110010 1100000110 25.500 51.865 1000.5 26140 17 14 13 59 51 4 $GNGGA,110116.00,4333.69064,N,00128.72810,E,1,05,4.52,115.1,M,53.8,M,,*45
24 11 01 17 4333.6908500128.72885115.2ó 00128.72885 115.2 0 1100000100 1100110000 1111111111 10000111000 1100101011 1101011111 1111100111 1100010101 1101101111 1011010111 1100000010 10000001011 10000111100 1101100101 1100101101 1110110101 1100000111 25.500 51.850 1000.5 27138 16 16 15 59 51 3 $GNGGA,110117.00,4333.69085,N,00128.72885,E,1,05,4.52,115.2,M,53.8,M,,*44
25 11 01 18 4333.6909700128.72942115.4ó 00128.72942 115.4 11111111111 1100000101 1100110000 1111111010 10000110110 1100101001 1101011101 1111010101 1100010010 1101101111 1011010110 1011111111 10000001000 10000111001 1101100000 1100101001 1110111001 1100001110 25.438 51.858 1000.5 28138 17 15 14 60 51 3 $GNGGA,110118.00,4333.69097,N,00128.72942,E,1,05,4.52,115.4,M,53.8,M,,*44
26 11 01 19 4333.6911500128.72924115.5ó 00128.72924 115.5 0 1100000110 1100110010 1111111000 10000110110 1100100100 1101011010 1111010011 1100011010 1101101111 1011010001 1011111100 10000001111 10000111010 1101011100 1100100110 1110110000 1100000001 25.500 51.865 1000.5 29137 17 15 14 59 50 4 $GNGGA,110119.00,4333.69115,N,00128.72924,E,1,05,4.52,115.5,M,53.8,M,,*4F
27 11 01 20 4333.6912200128.72963115.6ó 00128.72963 115.6 11111111111 1100000100 1100101111 1111111110 10000110101 1100101000 1101011011 1111010001 1100000011 1101101111 1011010101 1100000001 10000001100 10000111010 1101100010 1100101101 1110110001 1011111111 25.500 51.888 1000.5 30136 16 16 14 59 52 3 $GNGGA,110120.00,4333.69122,N,00128.72963,E,1,05,4.52,115.6,M,53.8,M,,*41
28 11 01 21 4333.6914100128.72963115.7ó 00128.72963 115.7 11111111111 1100000110 1100101110 10000000000 10000111010 1100101110 1101100001 1111001101 1100000101 1101101111 1011010101 1011111111 10000001101 10000111010 1101011011 1100100001 1110110101 1100001000 25.500 51.919 1000.5 31133 17 15 14 60 51 3 $GNGGA,110121.00,4333.69141,N,00128.72963,E,1,05,4.52,115.7,M,53.8,M,,*44
29 11 01 22 4333.6915400128.73022115.7ó 00128.73022 115.7 11111111111 1100000101 1100110000 1111111001 10000111000 1100101010 1101010111 1111010001 1100001001 1101101111 1011010101 1011111111 10000010010 10000111010 1101011101 1100100110 1110110011 1100001011 25.500 51.949 1000.5 32134 17 15 13 59 51 4 $GNGGA,110122.00,4333.69154,N,00128.73022,E,1,05,4.52,115.7,M,53.8,M,,*4E
30 11 01 23 4333.6915500128.73041115.7ó 00128.73041 115.7 0 1100000100 1100101101 1111111111 10000111100 1100101000 1101011110 1111011001 1100010000 1101101111 1011011000 1011111111 10000010000 10000111011 1101011101 1100100011 1110110010 1100000100 25.500 51.987 1000.5 33132 17 14 13 60 51 4 $GNGGA,110123.00,4333.69155,N,00128.73041,E,1,05,4.52,115.7,M,53.8,M,,*4B
31 11 01 24 4333.6918300128.72990115.7ó 00128.72990 115.7 0 1100000111 1100110001 1111111111 10000111000 1100100101 1101011001 1111010000 1100001100 1101101111 1011010100 1011111110 10000010011 10000111011 1101100000 1100100101 1110110100 1100000110 25.500 52.010 1000.5 34131 16 14 14 59 50 4 $GNGGA,110124.00,4333.69183,N,00128.72990,E,1,05,4.52,115.7,M,53.8,M,,*43
32 11 01 25 4333.6919400128.72989115.7ó 00128.72989 115.7 0 1100000110 1100101111 1111111111 10000111000 1100101010 1101011100 1111011011 1100010010 1101101111 1011010100 1011111111 10000011001 10000111101 1101100001 1100101001 1110101111 1100000110 25.500 52.033 1000.5 35130 17 14 13 59 51 4 $GNGGA,110125.00,4333.69194,N,00128.72989,E,1,05,4.52,115.7,M,53.8,M,,*4C
33 11 01 26 4333.6919100128.73010115.7ó 00128.73010 115.7 11111111111 1100000111 1100110011 1111111100 10000110100 1100100011 1101011001 1111010101 1100001010 1101101111 1011010100 1100000000 10000001101 10000111010 1101100001 1100100011 1110110011 1100001010 25.500 52.048 1000.5 36129 16 14 14 58 51 4 $GNGGA,110126.00,4333.69191,N,00128.73010,E,1,05,4.52,115.7,M,53.8,M,,*42
34 11 01 27 4333.6920100128.73072115.7ó 00128.73072 115.7 11111111111 1100000100 1100101111 1111111001 10000110100 1100101001 1101011100 1111010001 1100000111 1101101111 1011010110 1100000001 10000010000 10000111010 1101011011 1100100001 1110101110 1100000001 25.500 52.064 1000.5 37128 17 15 13 59 51 4 $GNGGA,110127.00,4333.69201,N,00128.73072,E,1,05,4.52,115.7,M,53.8,M,,*4D
35 11 01 28 4333.6919900128.73120115.8ó 00128.73120 115.8 11111111111 1100000101 1100101110 1111111111 10000111011 1100100000 1101010011 1111010101 1100010100 1101101111 1011010101 1100000001 10000001110 10000111010 1101100000 1100100111 1110110011 1100000111 25.500 52.079 1000.5 38125 17 15 14 60 51 3 $GNGGA,110128.00,4333.69199,N,00128.73120,E,1,05,4.52,115.8,M,53.8,M,,*49
36 11 01 29 4333.6919700128.73102115.9ó 00128.73102 115.9 0 1100000111 1100110001 1111111100 10000110101 1100101010 1101011011 1111011001 1100010000 1101101111 1011010110 1100000010 10000010010 10000111011 1101100000 1100100001 1110110010 1100000101 25.500 52.086 1000.5 39127 16 16 15 59 51 3 $GNGGA,110129.00,4333.69197,N,00128.73102,E,1,05,4.52,115.9,M,53.8,M,,*47
37 11 01 30 4333.6919000128.73107115.9ó 00128.73107 115.9 0 1100000111 1100110011 10000000011 10000110110 1100100011 1101011000 1111010111 1100010101 1101101111 1011010010 1011111111 10000010010 10000111011 1101011111 1100100101 1110111000 1011111111 25.500 52.094 1000.5 40125 17 14 13 59 51 4 $GNGGA,110130.00,4333.69190,N,00128.73107,E,1,05,4.52,115.9,M,53.8,M,,*4D
38 11 01 31 4333.6918500128.73107116.0ó 00128.73107 116.0 0 1100000101 1100101111 10000000100 10000111000 1100101000 1101100000 1111010100 1100010010 1101101111 1011010101 1100000001 10000001100 10000111010 1101011101 1100100011 1110110000 1100001000 25.438 52.109 1000.5 41123 16 14 14 59 50 4 $GNGGA,110131.00,4333.69185,N,00128.73107,E,1,05,4.52,116.0,M,53.8,M,,*42
39 11 01 32 4333.6918500128.73073116.1ó 00128.73073 116.1 11111111111 1100000110 1100101111 10000000011 10000110111 1100110000 1101100100 1111010011 1100001011 1101101111 1011010100 1011111110 10000010100 10000111011 1101011101 1100100111 1110111000 1100000101 25.500 52.102 1000.5 42123 16 16 14 59 52 3 $GNGGA,110132.00,4333.69185,N,00128.73073,E,1,05,4.52,116.1,M,53.8,M,,*42
