id HH MM SS longitude latitude altitude adc_1_ch0 adc_1_ch1 adc_1_ch2 adc_1_ch3 adc_1_ch4 adc_1_ch5 adc_1_ch6 adc_1_ch7 adc_1_ch8 adc_2_ch0 adc_2_ch1 adc_2_ch2 adc_2_ch3 adc_2_ch4 adc_2_ch5 adc_2_ch6 adc_2_ch7 adc_2_ch8 temp hum pres t_prog t_gps t_split t_adc t_temp t_hum t_pres trame_gga
1 11 01 50 4333.6927700128.73646111.6ó 00128.73646 111.6 1101101010 1100000110 1100101110 1111111111 10000111001 1100100110 1101011000 1111011000 1100001111 1101101111 1011010111 1100000000 10000001000 10000111001 1101011110 1100101000 1110110111 1100001000 25.500 52.155 795.83 4070 17 15 14 60 51 3 $GNGGA,110150.00,4333.69277,N,00128.73646,E,1,05,4.53,111.6,M,53.8,M,,*49
2 11 01 51 4333.6926300128.73687111.6ó 00128.73687 111.6 1101101011 1100000111 1100110000 1111111010 10000110100 1100101000 1101011110 1111010110 1100001100 1101101111 1011010010 1011111111 10000010110 10000111110 1101011111 1100101010 1110111110 1100001100 25.500 52.155 1000.4 5071 16 15 15 59 51 3 $GNGGA,110151.00,4333.69263,N,00128.73687,E,1,05,4.53,111.6,M,53.8,M,,*40
3 11 01 52 4333.6923900128.73663111.6ó 00128.73663 111.6 1101101010 1100000101 1100110000 1111111001 10000110101 1100101010 1101100001 1111011010 1100001000 1101101111 1011010110 1100000011 10000001111 10000111011 1101011010 1100100010 1110110111 1100001011 25.500 52.170 1000.4 6070 16 15 13 58 52 4 $GNGGA,110152.00,4333.69239,N,00128.73663,E,1,05,4.53,111.6,M,53.8,M,,*46
4 11 01 53 4333.6926300128.73671111.6ó 00128.73671 111.6 1101101010 1100000111 1100101110 1111111110 10000111000 1100101001 1101011110 1111011000 1100000111 1101101111 1011010010 1011111011 10000001100 10000111011 1101100011 1100101101 1110110110 1100001001 25.500 52.186 1000.4 7068 18 14 13 60 50 4 $GNGGA,110153.00,4333.69263,N,00128.73671,E,1,05,4.53,111.6,M,53.8,M,,*4B
5 11 01 54 4333.6924600128.73652111.5ó 00128.73652 111.5 1101101011 1100000011 1100101100 1111111110 10000111000 1100101001 1101011100 1111010101 1100000110 1101101111 1011010010 1011111110 10000010001 10000111100 1101011011 1100100001 1110111000 1100001100 25.500 52.193 1000.4 8068 16 15 13 58 51 5 $GNGGA,110154.00,4333.69246,N,00128.73652,E,1,05,4.53,111.5,M,53.8,M,,*49
6 11 01 55 4333.6925100128.73707111.5ó 00128.73707 111.5 1101101011 1100000100 1100110001 10000000101 10000110111 1100101100 1101100001 1111010011 1011111111 1101101111 1011010111 1100000010 10000001101 10000111001 1101011101 1100101000 1110110110 1100000111 25.500 52.208 1000.5 9068 17 15 14 60 51 3 $GNGGA,110155.00,4333.69251,N,00128.73707,E,1,05,4.53,111.5,M,53.8,M,,*4F
7 11 01 56 4333.6928100128.73739111.5ó 00128.73739 111.5 1101101011 1100000110 1100110000 1111111011 10000110011 1100100010 1101010110 1111010110 1100000111 1101101111 1011010101 1011111111 10000010110 10000111100 1101100001 1100101000 1110110101 1100000010 25.500 52.208 1000.5 10066 17 14 14 59 50 4 $GNGGA,110156.00,4333.69281,N,00128.73739,E,1,05,4.53,111.5,M,53.8,M,,*4C
8 11 01 57 4333.6928300128.73733111.5ó 00128.73733 111.5 1101101011 1100001001 1100110001 10000000001 10000111000 1100101001 1101011111 1111001110 1100001101 1101101111 1011010110 1100000010 10000010000 10000111011 1101100111 1100101001 1110111011 1100001111 25.500 52.224 1000.5 11064 16 15 14 58 52 3 $GNGGA,110157.00,4333.69283,N,00128.73733,E,1,05,4.53,111.5,M,53.8,M,,*45
9 11 01 58 4333.6927500128.73769111.5ó 00128.73769 111.5 1101101011 1100000110 1100110000 10000000101 10000110111 1100101000 1101011101 1111010111 1100010001 1101101111 1011010100 1100000001 10000010000 10000111100 1101100011 1100101000 1110110110 1100001011 25.500 52.231 1000.5 12064 16 15 15 59 51 3 $GNGGA,110158.00,4333.69275,N,00128.73769,E,1,05,4.53,111.5,M,53.8,M,,*4C
10 11 01 59 4333.6926700128.73778111.5ó 00128.73778 111.5 1101101011 1100001000 1100110010 10000000010 10000111000 1100100011 1101011110 1111010100 1100001100 1101101111 1011011000 1100000010 10000001100 10000111000 1101100011 1100100111 1110101111 1100000011 25.500 52.231 1000.5 13063 16 15 13 59 51 4 $GNGGA,110159.00,4333.69267,N,00128.73778,E,1,05,4.53,111.5,M,53.8,M,,*4E
11 11 02 00 4333.6929400128.73880111.1ó 00128.73880 111.1 1101101011 1100001001 1100110010 10000000100 10000110100 1100100100 1101011000 1111001011 1100001001 1101101111 1011010111 1100000010 10000001011 10000111010 1101011101 1100100110 1110111000 1100000100 25.500 52.231 1000.5 14063 17 15 14 60 51 3 $GNGGA,110200.00,4333.69294,N,00128.73880,E,1,06,2.41,111.1,M,53.8,M,,*47
12 11 02 01 4333.6929700128.73913110.9ó 00128.73913 110.9 1101101011 1100000110 1100110000 10000000110 10000111001 1100100001 1101011000 1111001101 1100001011 1101101111 1011010101 1100000011 10000001011 10000111001 1101011100 1100100100 1110110011 1100000101 25.500 52.231 1000.5 15062 16 16 15 59 51 3 $GNGGA,110201.00,4333.69297,N,00128.73913,E,1,06,2.41,110.9,M,53.8,M,,*47
13 11 02 02 4333.6933600128.73992110.7ó 00128.73992 110.7 1101101011 1100000110 1100110001 1111111100 10000110011 1100101010 1101100000 1111001111 1100001111 1101101111 1011010111 1100000001 10000001111 10000111010 1101100101 1100101011 1110110001 1100000110 25.500 52.231 1000.5 16061 17 14 13 59 51 4 $GNGGA,110202.00,4333.69336,N,00128.73992,E,1,06,2.41,110.7,M,53.8,M,,*49
14 11 02 03 4333.6934200128.74018110.5ó 00128.74018 110.5 1101101011 1100000111 1100110000 10000000000 10000111001 1100100001 1101011010 1111001111 1100001010 1101101111 1011010011 1100000010 10000001111 10000111011 1101100010 1100101001 1110111110 1100010000 25.500 52.239 1000.5 17060 16 15 15 59 50 4 $GNGGA,110203.00,4333.69342,N,00128.74018,E,1,06,2.41,110.5,M,53.8,M,,*45
15 11 02 04 4333.6936800128.74043110.4ó 00128.74043 110.4 1101101010 1100000111 1100110000 10000000000 10000110110 1100100110 1101010000 1111010010 1100001100 1101101111 1011010011 1100000100 10000001111 10000111100 1101100011 1100101011 1110110011 1100000111 25.500 52.239 1000.5 18059 16 16 14 59 52 3 $GNGGA,110204.00,4333.69368,N,00128.74043,E,1,06,2.41,110.4,M,53.8,M,,*45
16 11 02 05 4333.6939100128.74087110.4ó 00128.74087 110.4 1101101011 1100000100 1100101100 10000000011 10000110101 1100110010 1101100110 1111010101 1100000110 1101101111 1011010100 1011111111 10000001111 10000111011 1101100001 1100100111 1110101011 1011111111 25.500 52.247 1000.5 19057 17 15 14 60 51 3 $GNGGA,110205.00,4333.69391,N,00128.74087,E,1,06,2.41,110.4,M,53.8,M,,*4A
17 11 02 06 4333.6938800128.74080110.3ó 00128.74080 110.3 1101101011 1100000100 1100101111 10000000100 10000110111 1100100010 1101011100 1111011110 1100001110 1101101111 1011010100 1011111111 10000001001 10000111001 1101011101 1100100100 1110111001 1100000101 25.500 52.254 1000.5 20057 16 15 14 58 51 4 $GNGGA,110206.00,4333.69388,N,00128.74080,E,1,06,2.41,110.3,M,53.8,M,,*41
18 11 02 07 4333.6937400128.74086110.3ó 00128.74086 110.3 1101101011 1100000101 1100101110 10000000110 10000111011 1100100101 1101010111 1111010011 1100000010 1101101111 1011001111 1011111111 10000010001 10000111100 1101100010 1100101010 1110110011 1100000111 25.500 52.262 1000.5 21055 17 15 14 60 51 3 $GNGGA,110207.00,4333.69374,N,00128.74086,E,1,06,2.41,110.3,M,53.8,M,,*45
19 11 02 08 4333.6936300128.74084110.8ó 00128.74084 110.8 1101101011 1100000111 1100101111 10000000110 10000111001 1100101000 1101011001 1111010001 1100010001 1101101111 1011010011 1011111111 10000001100 10000111011 1101011110 1100100100 1110110100 1100001010 25.500 52.277 1000.5 22053 16 14 15 59 51 3 $GNGGA,110208.00,4333.69363,N,00128.74084,E,1,07,2.07,110.8,M,53.8,M,,*46
20 11 02 09 4333.6935100128.74062111.3ó 00128.74062 111.3 1101101011 1100000011 1100101101 10000000010 10000110011 1100100101 1101011101 1111010101 1100010011 1101101111 1011010111 1100000010 10000010000 10000111100 1101011000 1100100010 1110111100 1100010010 25.500 52.285 1000.5 23054 18 14 13 60 50 4 $GNGGA,110209.00,4333.69351,N,00128.74062,E,1,07,2.07,111.3,M,53.8,M,,*44
21 11 02 10 4333.6934300128.74071111.6ó 00128.74071 111.6 1101101010 1100000101 1100110010 1111111101 10000110100 1100101011 1101011110 1111011001 1100001111 1101101111 1011010101 1011111111 10000010011 10000111011 1101011111 1100100110 1110110000 1100000110 25.500 52.300 1000.5 24052 16 15 15 59 51 3 $GNGGA,110210.00,4333.69343,N,00128.74071,E,1,07,2.07,111.6,M,53.8,M,,*48
22 11 02 11 4333.6935600128.74164112.1ó 00128.74164 112.1 1101101011 1100000110 1100110011 1111111000 10000110110 1100100110 1101011100 1111011000 1100010010 1101101111 1011010111 1100000001 10000001100 10000111001 1101011100 1100100110 1110110110 1100000111 25.500 52.323 1000.5 25052 16 16 14 59 52 3 $GNGGA,110211.00,4333.69356,N,00128.74164,E,1,07,2.07,112.1,M,53.8,M,,*4C
23 11 02 12 4333.6936100128.74223112.2ó 00128.74223 112.2 1101101011 1100000110 1100101111 1111111101 10000110101 1100100110 1101011100 1111001110 1100010010 1101101111 1011011001 1011111111 10000010110 10000111101 1101011000 1100100110 1110110001 1100000110 25.500 52.338 1000.5 26050 17 15 14 60 50 4 $GNGGA,110212.00,4333.69361,N,00128.74223,E,1,07,2.07,112.2,M,53.8,M,,*48
24 11 02 13 4333.6937200128.74269112.2ó 00128.74269 112.2 1101101011 1100000111 1100110010 10000000100 10000111010 1100100100 1101011100 1111010011 1100001100 1101110000 1011010101 1011111110 10000010001 10000111011 1101011110 1100101010 1110110011 1100000100 25.500 52.353 1000.5 27049 16 14 14 59 50 4 $GNGGA,110213.00,4333.69372,N,00128.74269,E,1,07,2.07,112.2,M,53.8,M,,*45
25 11 02 14 4333.6937300128.74254112.3ó 00128.74254 112.3 1101101010 1100000101 1100101111 1111111110 10000111001 1100101001 1101100000 1111011010 1100010010 1101101111 1011010101 1011111111 10000010101 10000111010 1101011110 1100101000 1110111000 1100001010 25.500 52.376 1000.5 28049 17 14 14 60 51 3 $GNGGA,110214.00,4333.69373,N,00128.74254,E,1,07,2.07,112.3,M,53.8,M,,*4C
26 11 02 15 4333.6934800128.74210112.4ó 00128.74210 112.4 1101101011 1100000111 1100110000 1111111001 10000111000 1100100100 1101011111 1111010101 1100001110 1101101111 1011011000 1100000011 10000010110 10000111010 1101011111 1100101001 1110111010 1100001111 25.500 52.392 1000.5 29046 17 14 14 59 50 4 $GNGGA,110215.00,4333.69348,N,00128.74210,E,1,07,2.07,112.4,M,53.8,M,,*42
27 11 02 16 4333.6936300128.74243112.5ó 00128.74243 112.5 1101101010 1100000011 1100101111 1111111000 10000110111 1100101000 1101100001 1111011011 1100010010 1101101111 1011010101 1100000011 10000010100 10000111100 1101011011 1100100001 1110110000 1100000110 25.500 52.392 1000.5 30046 16 15 13 58 52 4 $GNGGA,110216.00,4333.69363,N,00128.74243,E,1,07,2.07,112.5,M,53.8,M,,*4F
28 11 02 17 4333.6934500128.74220112.3ó 00128.74220 112.3 1101101011 1100000100 1100101111 1111111011 10000110101 1100101010 1101011110 1111010100 1100001011 1101101111 1011010001 1011111110 10000010110 10000111011 1101011111 1100100101 1110110110 1100001010 25.563 52.384 1000.5 31045 17 14 14 60 51 3 $GNGGA,110217.00,4333.69345,N,00128.74220,E,1,07,2.07,112.3,M,53.8,M,,*49
29 11 02 18 4333.6935400128.74218112.4ó 00128.74218 112.4 1101101011 1100000101 1100110000 10000000000 10000111010 1100100111 1101011110 1111010111 1100001011 1101101111 1011010111 1100000001 10000010011 10000111010 1101100000 1100101001 1110110010 1100001010 25.500 52.384 1000.5 32046 16 16 14 59 51 4 $GNGGA,110218.00,4333.69354,N,00128.74218,E,1,07,2.07,112.4,M,53.8,M,,*4A
30 11 02 19 4333.6933500128.74199112.4ó 00128.74199 112.4 1101101011 1100000011 1100101110 1111111011 10000111000 1100100100 1101010111 1111011011 1100010101 1101101111 1011011010 1100000010 10000010101 10000111011 1101011111 1100100111 1110110001 1100001001 25.500 52.384 1000.5 33041 17 14 13 60 50 4 $GNGGA,110219.00,4333.69335,N,00128.74199,E,1,06,2.41,112.4,M,53.8,M,,*45
31 11 02 20 4333.6934100128.74224112.5ó 00128.74224 112.5 1101101011 1100000111 1100101110 10000000110 10000111010 1100100110 1101011011 1111010111 1100001101 1101101111 1011010100 1011111100 10000010111 10000111010 1101100000 1100100111 1110110111 1100001001 25.500 52.384 1000.5 34041 16 14 14 58 51 4 $GNGGA,110220.00,4333.69341,N,00128.74224,E,1,06,2.41,112.5,M,53.8,M,,*48
32 11 02 21 4333.6932900128.74211112.8ó 00128.74211 112.8 1101101010 1100000110 1100110000 1111111100 10000111000 1100101001 1101011110 1111011100 1100010101 1101101111 1011010111 1100000000 10000010110 10000111010 1101011100 1100100011 1110110010 1100000010 25.500 52.392 1000.5 35040 16 15 13 58 52 4 $GNGGA,110221.00,4333.69329,N,00128.74211,E,1,06,2.41,112.8,M,53.8,M,,*4C
33 11 02 22 4333.6934200128.74261112.9ó 00128.74261 112.9 1101101010 1100000111 1100101111 10000000000 10000111010 1100100110 1101011011 1111010010 1100000100 1101101111 1011010101 1100000000 10000001110 10000111011 1101011001 1100100110 1110110110 1100000110 25.500 52.407 1000.5 36039 17 14 14 60 51 3 $GNGGA,110222.00,4333.69342,N,00128.74261,E,1,06,2.41,112.9,M,53.8,M,,*44
34 11 02 23 4333.6934700128.74271113.1ó 00128.74271 113.1 1101101011 1100000110 1100101111 1111111011 10000111000 1100101100 1101100111 1111010000 1100000111 1101101111 1011010110 1100000001 10000010010 10000111010 1101100001 1100100110 1111000011 1100001011 25.500 52.407 1000.5 37039 16 16 14 59 51 4 $GNGGA,110223.00,4333.69347,N,00128.74271,E,1,06,2.41,113.1,M,53.8,M,,*48
35 11 02 24 4333.6930700128.74293113.1ó 00128.74293 113.1 1101101011 1100000110 1100110000 10000000010 10000111001 1100101101 1101011100 1111011000 1100010110 1101101111 1011010111 1100000010 10000010011 10000111010 1101011111 1100100111 1110111000 1100000101 25.500 52.392 1000.5 38037 17 14 13 59 51 4 $GNGGA,110224.00,4333.69307,N,00128.74293,E,1,06,2.41,113.1,M,53.8,M,,*47
36 11 02 25 4333.6930800128.74313113.4ó 00128.74313 113.4 1101101011 1100000101 1100110001 10000000000 10000111000 1100101110 1101011100 1111001111 1100001010 1101101111 1011010101 1011111110 10000001110 10000111011 1101100001 1100100111 1110110110 1100000111 25.500 52.376 1000.5 39036 17 14 14 59 50 4 $GNGGA,110225.00,4333.69308,N,00128.74313,E,1,07,2.07,113.4,M,53.8,M,,*46
37 11 02 26 4333.6928500128.74327113.7ó 00128.74327 113.7 1101101011 1100000110 1100101101 1111110111 10000110110 1100011111 1101011000 1111010100 1100010101 1101101111 1011010011 1011111011 10000010000 10000111110 1101011100 1100100110 1110110101 1100000101 25.500 52.353 1000.5 40035 16 16 14 59 52 3 $GNGGA,110226.00,4333.69285,N,00128.74327,E,1,07,2.07,113.7,M,53.8,M,,*45
38 11 02 27 4333.6929800128.74419113.9ó 00128.74419 113.9 1101101010 1100000111 1100101110 1111111001 10000110100 1100100111 1101011100 1111010111 1100010000 1101101111 1011010111 1100000000 10000001101 10000111010 1101011101 1100101000 1110110110 1100010000 25.500 52.338 1000.5 41034 18 15 13 59 50 4 $GNGGA,110227.00,4333.69298,N,00128.74419,E,1,07,2.07,113.9,M,53.8,M,,*4C
39 11 02 28 4333.6931900128.74398114.5ó 00128.74398 114.5 1101101011 1100000111 1100110001 10000000010 10000110110 1100101001 1101100001 1111011100 1100001110 1101101111 1011010101 1100000000 10000001110 10000111101 1101100011 1100101001 1110111010 1100001101 25.500 52.323 1000.5 42033 17 15 13 59 51 4 $GNGGA,110228.00,4333.69319,N,00128.74398,E,1,07,2.07,114.5,M,53.8,M,,*4E
40 11 02 29 4333.6933300128.74375114.9ó 00128.74375 114.9 1101101011 1100000111 1100110000 1111111101 10000110101 1100100111 1101100011 1111011111 1100010101 1101101111 1011010010 1011111111 10000001100 10000111100 1101100100 1100100111 1110111000 1100001101 25.500 52.308 1000.5 43033 17 15 14 60 51 3 $GNGGA,110229.00,4333.69333,N,00128.74375,E,1,07,2.07,114.9,M,53.8,M,,*48
41 11 02 30 4333.6932700128.74336115.6ó 00128.74336 115.6 1101101011 1100000101 1100101111 1111111101 10000110101 1100100011 1101011010 1111011001 1100001100 1101101111 1011010101 1100000000 10000001110 10000111101 1101011100 1100100110 1110110110 1100001000 25.500 52.308 1000.5 44030 16 14 14 58 51 4 $GNGGA,110230.00,4333.69327,N,00128.74336,E,1,07,2.07,115.6,M,53.8,M,,*4C
42 11 02 31 4333.6929000128.74360116.0ó 00128.74360 116.0 1101101011 1100000110 1100110010 10000000010 10000111000 1100101100 1101011100 1111011001 1100010000 1101101111 1011010100 1100000000 10000001100 10000111011 1101100000 1100101010 1110111000 1100000101 25.500 52.308 1000.5 45031 17 15 14 60 51 3 $GNGGA,110231.00,4333.69290,N,00128.74360,E,1,07,2.07,116.0,M,53.8,M,,*46
43 11 02 32 4333.6930100128.74374116.4ó 00128.74374 116.4 1101101011 1100000110 1100110000 1111111111 10000110110 1100100111 1101011000 1111011000 1100010011 1101101111 1011010111 1100000000 10000001010 10000111010 1101100000 1100101010 1110111110 1100001001 25.563 52.315 1000.5 46029 16 15 15 59 51 3 $GNGGA,110232.00,4333.69301,N,00128.74374,E,1,07,2.07,116.4,M,53.8,M,,*4D
44 11 02 33 4333.6924500128.74293117.0ó 00128.74293 117.0 1101101010 1100000110 1100101110 10000000011 10000111001 1100100100 1101011000 1111010101 1100010100 1101101111 1011010110 1100000001 10000010010 10000111001 1101011100 1100100101 1110111010 1100000101 25.500 52.315 1000.5 47029 16 16 14 59 52 3 $GNGGA,110233.00,4333.69245,N,00128.74293,E,1,07,2.07,117.0,M,53.8,M,,*40
45 11 02 34 4333.6920200128.74221117.4ó 00128.74221 117.4 1101101011 1100000101 1100110010 1111111000 10000110111 1100101000 1101011100 1111011000 1100010100 1101101111 1011010101 1011111111 10000010000 10000111010 1101100000 1100100111 1110111000 1011111111 25.500 52.323 1000.5 48027 17 15 14 60 51 3 $GNGGA,110234.00,4333.69202,N,00128.74221,E,1,07,2.07,117.4,M,53.8,M,,*49
46 11 02 35 4333.6917500128.74176117.5ó 00128.74176 117.5 1101101011 1100000111 1100110000 10000000011 10000111000 1100100110 1101011100 1111010110 1100010011 1101101111 1011010100 1100000011 10000010100 10000111011 1101011001 1100100111 1111000000 1100001101 25.563 52.315 1000.5 49027 16 16 14 59 51 4 $GNGGA,110235.00,4333.69175,N,00128.74176,E,1,06,2.54,117.5,M,53.8,M,,*4C
47 11 02 36 4333.6917900128.74215117.6ó 00128.74215 117.6 1101101011 1100000111 1100101111 10000000001 10000110110 1100101001 1101011100 1111011011 1100010100 1101101111 1011010110 1100000010 10000010001 10000111010 1101011100 1100100010 1110110000 1100000100 25.500 52.315 1000.5 50025 17 15 14 60 51 3 $GNGGA,110236.00,4333.69179,N,00128.74215,E,1,06,2.54,117.6,M,53.8,M,,*46
48 11 02 37 4333.6916800128.74227117.8ó 00128.74227 117.8 1101101011 1100000110 1100101111 1111111111 10000111000 1100100110 1101011101 1111011100 1100010001 1101101111 1011010101 1011111111 10000010010 10000111100 1101011111 1100101010 1110111001 1100001001 25.563 52.315 1000.5 51022 16 15 15 59 51 3 $GNGGA,110237.00,4333.69168,N,00128.74227,E,1,06,2.54,117.8,M,53.8,M,,*48
49 11 02 38 4333.6914500128.74171118.3ó 00128.74171 118.3 1101101011 1100000110 1100110001 10000000010 10000111000 1100100100 1101011001 1111010111 1100010000 1101101111 1011010111 1100000001 10000010001 10000111100 1101100010 1100101001 1110110001 1100000101 25.500 52.338 1000.5 52023 16 16 14 59 52 3 $GNGGA,110238.00,4333.69145,N,00128.74171,E,1,07,2.07,118.3,M,53.8,M,,*4B
50 11 02 39 4333.6915100128.74182118.4ó 00128.74182 118.4 1101101011 1100000100 1100101110 10000000100 10000110110 1100101010 1101100011 1111011110 1100010001 1101101111 1011010011 1100000000 10000010101 10000111100 1101011110 1100100111 1110111010 1100000100 25.563 52.361 1000.5 53021 17 14 13 59 51 4 $GNGGA,110239.00,4333.69151,N,00128.74182,E,1,06,2.54,118.4,M,53.8,M,,*43
51 11 02 40 4333.6915500128.74177118.5ó 00128.74177 118.5 1101101011 1100000100 1100101100 1111111111 10000110111 1100101001 1101011101 1111011001 1100001001 1101101111 1011010011 1100000000 10000010000 10000111011 1101100110 1100101001 1110111101 1100000111 25.563 52.384 1000.5 54021 16 16 14 59 51 4 $GNGGA,110240.00,4333.69155,N,00128.74177,E,1,06,2.54,118.5,M,53.8,M,,*42
52 11 02 41 4333.6916000128.74180118.6ó 00128.74180 118.6 1101101011 1100000100 1100101101 10000000000 10000110111 1100100111 1101100011 1111011101 1100001001 1101101111 1011010111 1100000000 10000010001 10000111011 1101011110 1100101000 1110110011 1100000000 25.500 52.392 1000.5 55019 17 14 13 59 51 4 $GNGGA,110241.00,4333.69160,N,00128.74180,E,1,06,2.54,118.6,M,53.8,M,,*4E
53 11 02 42 4333.6917700128.74174119.2ó 00128.74174 119.2 1101101010 1100000110 1100110001 10000000010 10000111000 1100101101 1101100010 1111011001 1100001110 1101101111 1011011001 1100000100 10000010110 10000111011 1101100000 1100100100 1110101111 1100000000 25.500 52.407 1000.5 56018 17 14 14 59 50 4 $GNGGA,110242.00,4333.69177,N,00128.74174,E,1,07,2.07,119.2,M,53.8,M,,*42
54 11 02 43 4333.6920900128.74192119.7ó 00128.74192 119.7 1101101010 1100000110 1100101111 1111111100 10000111000 1100101000 1101011111 1111010110 1100001101 1101101111 1011010101 1011111111 10000010110 10000111001 1101100100 1100101011 1110111101 1100001000 25.500 52.407 1000.5 57018 17 15 14 60 51 3 $GNGGA,110243.00,4333.69209,N,00128.74192,E,1,07,2.07,119.7,M,53.8,M,,*44
55 11 02 44 4333.6922200128.74203120.0ó 00128.74203 120.0 1101101011 1100000111 1100110000 10000000001 10000110111 1100101100 1101011000 1111011010 1100010001 1101101111 1011010101 1011111111 10000011001 10000111101 1101100010 1100100111 1110111010 1100000101 25.500 52.422 1000.5 58016 17 14 14 59 50 4 $GNGGA,110244.00,4333.69222,N,00128.74203,E,1,07,2.07,120.0,M,53.8,M,,*4C
56 11 02 45 4333.6920200128.74175120.1ó 00128.74175 120.1 1101101011 1100000100 1100101011 1111111010 10000110100 1100100100 1101011010 1111011111 1100010010 1101101111 1011010100 1011111111 10000010110 10000111101 1101100000 1100101000 1110111000 1100000111 25.500 52.437 1000.5 59017 16 15 13 59 51 4 $GNGGA,110245.00,4333.69202,N,00128.74175,E,1,07,2.07,120.1,M,53.8,M,,*4C
57 11 02 46 4333.6920500128.74176120.1ó 00128.74176 120.1 1101101011 1100000110 1100101111 10000000000 10000111011 1100101100 1101100010 1111010011 1100000111 1101101111 1011010010 1011111110 10000010111 10000111101 1101100010 1100101010 1110110011 1100000111 25.500 52.445 1000.5 60014 18 14 13 60 50 4 $GNGGA,110246.00,4333.69205,N,00128.74176,E,1,07,2.07,120.1,M,53.8,M,,*4B
58 11 02 47 4333.6923000128.74209120.3ó 00128.74209 120.3 1101101011 1100000101 1100101110 10000000011 10000110110 1100101010 1101100110 1111010011 1100000011 1101101111 1011010101 1100000010 10000001110 10000111010 1101011100 1100011110 1110111001 1100000001 25.563 52.460 1000.5 61014 16 16 15 59 51 3 $GNGGA,110247.00,4333.69230,N,00128.74209,E,1,06,2.54,120.3,M,53.8,M,,*42
59 11 02 48 4333.6921800128.74196120.4ó 00128.74196 120.4 1101101011 1100000110 1100110000 1111111010 10000110101 1100101010 1101011100 1111011010 1100010100 1101101111 1011010010 1100000001 10000010101 10000111100 1101011111 1100100011 1110111011 1100000001 25.500 52.460 1000.5 62010 17 14 13 59 51 4 $GNGGA,110248.00,4333.69218,N,00128.74196,E,1,06,2.54,120.4,M,53.8,M,,*45
60 11 02 49 4333.6923200128.74235120.2ó 00128.74235 120.2 1101101011 1100000011 1100101110 10000000010 10000111001 1100101100 1101011110 1111001101 1100001000 1101101111 1011010000 1011111111 10000001101 10000111010 1101100011 1100100011 1110110001 1100000101 25.500 52.468 1000.5 63011 16 15 15 59 51 3 $GNGGA,110249.00,4333.69232,N,00128.74235,E,1,07,2.06,120.2,M,53.8,M,,*46
61 11 02 50 4333.6923000128.74245120.3ó 00128.74245 120.3 1101101011 1100000111 1100110001 1111111100 10000110110 1100101001 1101011011 1111011010 1100001111 1101101111 1011011001 1100000011 10000010010 10000111110 1101011101 1100100011 1110111110 1100001001 25.563 52.460 1000.5 64010 16 15 13 58 52 4 $GNGGA,110250.00,4333.69230,N,00128.74245,E,1,07,2.06,120.3,M,53.8,M,,*4A
62 11 02 51 4333.6924800128.74269120.1ó 00128.74269 120.1 1101101011 1100000110 1100101111 1111111101 10000111001 1100101101 1101100011 1111100001 1100011000 1101101111 1011010110 1100000000 10000001000 10000111000 1101011110 1100101001 1110111110 1100000101 25.500 52.445 1000.5 65009 17 14 13 60 50 4 $GNGGA,110251.00,4333.69248,N,00128.74269,E,1,07,2.06,120.1,M,53.8,M,,*48
63 11 02 52 4333.6930300128.74325120.1ó 00128.74325 120.1 1101101010 1100001000 1100110011 1111110110 10000110011 1100100010 1101010110 1111011010 1100001100 1101101111 1011010100 1011111111 10000001111 10000111011 1101011101 1100100001 1110111011 1100001000 25.500 52.445 1000.5 66009 16 16 14 59 51 4 $GNGGA,110252.00,4333.69303,N,00128.74325,E,1,07,2.06,120.1,M,53.8,M,,*4C
64 11 02 53 4333.6930800128.74318120.1ó 00128.74318 120.1 1101101011 1100000011 1100101111 1111111111 10000111000 1100100111 1101011100 1111011010 1100001010 1101101111 1011010101 1100000001 10000001100 10000111001 1101100001 1100101001 1110111100 1100001010 25.500 52.453 1000.5 67007 17 14 13 59 51 4 $GNGGA,110253.00,4333.69308,N,00128.74318,E,1,07,2.06,120.1,M,53.8,M,,*48
65 11 02 54 4333.6932100128.74317120.3ó 00128.74317 120.3 1101101011 1100000101 1100101111 1111111110 10000110111 1100101001 1101011011 1111010101 1100001100 1101101111 1011010011 1011111101 10000001110 10000111011 1101011110 1100100110 1110110101 1100000010 25.500 52.445 1000.5 68005 16 14 14 58 51 4 $GNGGA,110254.00,4333.69321,N,00128.74317,E,1,07,2.06,120.3,M,53.8,M,,*49
66 11 02 55 4333.6933400128.74331120.3ó 00128.74331 120.3 1101101010 1100000101 1100101111 10000000001 10000111011 1100100011 1101010111 1111010111 1100001111 1101101111 1011011001 1100000100 10000010101 10000111100 1101100000 1100101010 1110111010 1100001011 25.500 52.453 1000.5 69006 16 16 14 59 52 3 $GNGGA,110255.00,4333.69334,N,00128.74331,E,1,07,2.06,120.3,M,53.8,M,,*48
67 11 02 56 4333.6933400128.74296120.6ó 00128.74296 120.6 1101101011 1100000110 1100101111 10000000001 10000110111 1100100111 1101011100 1111010011 1100001011 1101101111 1011011000 1100000001 10000011010 10000111100 1101100000 1100101000 1111000011 1100001010 25.563 52.453 1000.5 70004 16 15 15 59 51 3 $GNGGA,110256.00,4333.69334,N,00128.74296,E,1,06,2.54,120.6,M,53.8,M,,*44
68 11 02 57 4333.6932000128.74266120.8ó 00128.74266 120.8 1101101011 1100000110 1100110010 10000000110 10000110110 1100101011 1101011110 1111010000 1100001001 1101101111 1011011000 1100000001 10000001010 10000111001 1101100101 1100101100 1111000001 1100000110 25.563 52.445 1000.5 71003 16 16 14 59 51 4 $GNGGA,110257.00,4333.69320,N,00128.74266,E,1,06,2.54,120.8,M,53.8,M,,*41
69 11 02 58 4333.6931700128.74284121.1ó 00128.74284 121.1 1101101011 1100001000 1100101111 10000001000 10000111010 1100101100 1101100001 1111011100 1100010001 1101101111 1011010010 1100000000 10000010000 10000111100 1101100001 1100100110 1110110011 1100000011 25.563 52.422 1000.5 72002 17 15 14 60 51 3 $GNGGA,110258.00,4333.69317,N,00128.74284,E,1,06,2.54,121.1,M,53.8,M,,*4E
70 11 02 59 4333.6930900128.74283121.4ó 00128.74283 121.4 1101101011 1100000111 1100101111 1111111101 10000110100 1100101011 1101011111 1111010101 1100001000 1101101111 1011010001 1011111100 10000001110 10000111010 1101011101 1100100100 1110111001 1100000111 25.563 52.407 1000.5 72998 16 15 15 59 51 3 $GNGGA,110259.00,4333.69309,N,00128.74283,E,1,06,2.54,121.4,M,53.8,M,,*42
71 11 03 00 4333.6929600128.74265121.9ó 00128.74265 121.9 1101101011 1100000110 1100110010 1111111110 10000110111 1100100110 1101100010 1111011110 1100010110 1101101111 1011010101 1100000000 10000001110 10000111100 1101100100 1100101010 1110110100 1100000111 25.500 52.399 1000.5 74000 18 15 13 60 50 4 $GNGGA,110300.00,4333.69296,N,00128.74265,E,1,07,2.06,121.9,M,53.8,M,,*4B
72 11 03 01 4333.6927700128.74237122.2ó 00128.74237 122.2 1101101011 1100000100 1100101110 1111111101 10000110010 1100101100 1101011101 1111010011 1100001010 1101101111 1011010110 1011111111 10000001011 10000111010 1101011110 1100101011 1110111100 1100000100 25.500 52.399 1000.5 74999 16 15 15 59 51 3 $GNGGA,110301.00,4333.69277,N,00128.74237,E,1,07,2.06,122.2,M,53.8,M,,*4A
73 11 03 02 4333.6926200128.74214123.0ó 00128.74214 123.0 1101101011 1100000110 1100101111 1111111001 10000110110 1100100100 1101011001 1111011110 1100011110 1101101111 1011010101 1100000000 10000010000 10000111101 1101100000 1100101010 1110101111 1100000000 25.500 52.384 1000.5 75998 16 16 14 59 52 3 $GNGGA,110302.00,4333.69262,N,00128.74214,E,1,07,2.06,123.0,M,53.8,M,,*4F
74 11 03 03 4333.6926100128.74215123.6ó 00128.74215 123.6 1101101011 1100000101 1100101111 10000000001 10000111000 1100101011 1101100010 1111011011 1100011011 1101101111 1011010101 1011111101 10000001111 10000111101 1101011011 1100100100 1110110100 1100001010 25.500 52.384 1000.5 76996 17 15 14 60 51 3 $GNGGA,110303.00,4333.69261,N,00128.74215,E,1,07,2.06,123.6,M,53.8,M,,*4A
75 11 03 04 4333.6923600128.74197124.2ó 00128.74197 124.2 1101101011 1100000111 1100110101 10000000011 10000111000 1100101011 1101011110 1111100010 1100011000 1101101111 1011010111 1100000001 10000001000 10000111010 1101011101 1100101000 1110110111 1100000110 25.500 52.384 1000.5 77997 16 16 15 59 51 3 $GNGGA,110304.00,4333.69236,N,00128.74197,E,1,07,2.06,124.2,M,53.8,M,,*45
76 11 03 05 4333.6920700128.74148124.9ó 00128.74148 124.9 1101101011 1100000010 1100101101 1111111010 10000110110 1100100111 1101010111 1111011011 1100010010 1101101111 1011010111 1100000000 10000001011 10000111000 1101011001 1100100100 1110111100 1100000101 25.500 52.384 1000.5 78995 18 15 13 60 50 4 $GNGGA,110305.00,4333.69207,N,00128.74148,E,1,07,2.06,124.9,M,53.8,M,,*4F
77 11 03 06 4333.6921100128.74129125.2ó 00128.74129 125.2 1101101011 1100000110 1100101111 10000000001 10000110111 1100101000 1101011111 1111011010 1100010111 1101101111 1011010000 1011111111 10000000110 10000111001 1101011111 1100100101 1110111010 1100001000 25.500 52.384 1000.5 79991 16 14 14 58 51 4 $GNGGA,110306.00,4333.69211,N,00128.74129,E,1,07,2.06,125.2,M,53.8,M,,*46
78 11 03 07 4333.6922300128.74127125.8ó 00128.74127 125.8 1101101011 1100000110 1100101111 10000000100 10000110110 1100101010 1101011101 1111011100 1100001000 1101101111 1011010110 1100000001 10000000111 10000111001 1101100010 1100100100 1110111101 1100001111 25.500 52.361 1000.5 80992 16 15 13 58 52 4 $GNGGA,110307.00,4333.69223,N,00128.74127,E,1,07,2.06,125.8,M,53.8,M,,*42
79 11 03 08 4333.6918900128.74058126.0ó 00128.74058 126.0 1101101011 1100000111 1100110001 1111111000 10000110100 1100101111 1101100000 1111011111 1100001110 1101101111 1011010110 1100000010 10000001010 10000111010 1101011100 1100100100 1110110110 1100001001 25.563 52.346 1000.5 81991 17 15 14 60 51 3 $GNGGA,110308.00,4333.69189,N,00128.74058,E,1,07,2.06,126.0,M,53.8,M,,*4C
80 11 03 09 4333.6917600128.74053126.4ó 00128.74053 126.4 1101101010 1100000111 1100110010 1111111101 10000110101 1100100100 1101011000 1111011100 1100010001 1101101111 1011010000 1011111100 10000001100 10000111101 1101011100 1100100011 1110111010 1100001001 25.563 52.308 1000.5 82991 16 15 13 58 51 5 $GNGGA,110309.00,4333.69176,N,00128.74053,E,1,07,2.06,126.4,M,53.8,M,,*42
81 11 03 10 4333.6917100128.74061126.8ó 00128.74061 126.8 1101101011 1100000110 1100101110 1111111010 10000110110 1100100101 1101010011 1111010100 1100001010 1101101111 1011010011 1100000001 10000001010 10000111100 1101100011 1100100110 1110111010 1100001011 25.563 52.300 1000.5 83989 17 15 14 60 51 3 $GNGGA,110310.00,4333.69171,N,00128.74061,E,1,07,2.06,126.8,M,53.8,M,,*40
82 11 03 11 4333.6917300128.74102127.1ó 00128.74102 127.1 1101101011 1100000111 1100110000 1111111111 10000110111 1100100100 1101010110 1111001111 1100001010 1101101111 1011010110 1011111111 10000001100 10000111100 1101100001 1100101010 1110111010 1100001100 25.563 52.338 1000.5 84988 16 15 15 59 51 3 $GNGGA,110311.00,4333.69173,N,00128.74102,E,1,07,2.06,127.1,M,53.8,M,,*4F
83 11 03 12 4333.6918600128.74117127.8ó 00128.74117 127.8 1101101011 1100001010 1100110100 10000000000 10000111000 1100101011 1101011010 1111011101 1100010110 1101101111 1011011001 1011111110 10000010010 10000111010 1101100011 1100101001 1110111101 1100001011 25.563 52.392 1000.5 85987 16 16 14 59 52 3 $GNGGA,110312.00,4333.69186,N,00128.74117,E,1,07,2.06,127.8,M,53.8,M,,*4B
84 11 03 13 4333.6915000128.74059128.2ó 00128.74059 128.2 1101101011 1100000100 1100110000 1111111100 10000111000 1100101011 1101011110 1111010101 1100010001 1101101111 1011011100 1100000001 10000011100 10000111100 1101011011 1100100101 1110111011 1100001001 25.563 52.453 1000.5 86986 16 15 15 59 51 3 $GNGGA,110313.00,4333.69150,N,00128.74059,E,1,07,2.06,128.2,M,53.8,M,,*4F
85 11 03 14 4333.6912600128.74023128.6ó 00128.74023 128.6 1101101011 1100000100 1100101111 1111111110 10000111000 1100100100 1101100000 1111011010 1100010110 1101101111 1011011011 1100000001 10000100011 10000111100 1101011011 1100101000 1110110111 1100001001 25.563 52.506 1000.5 87986 16 16 14 59 52 3 $GNGGA,110314.00,4333.69126,N,00128.74023,E,1,07,2.06,128.6,M,53.8,M,,*40
86 11 03 15 4333.6913800128.74049129.0ó 00128.74049 129.0 1101101011 1100000100 1100110001 10000000100 10000111010 1100101000 1101011110 1111010100 1100001101 1101101111 1011011000 1011111110 10000011100 10000111011 1101011011 1100100010 1110111011 1100001011 25.500 52.529 1000.5 88984 17 14 13 59 51 4 $GNGGA,110315.00,4333.69138,N,00128.74049,E,1,07,2.06,129.0,M,53.8,M,,*45
87 11 03 16 4333.6914200128.74075129.4ó 00128.74075 129.4 1101101011 1100000100 1100110001 10000000100 10000111000 1100101101 1101100001 1111011101 1100010000 1101101111 1011010111 1011111110 10000011011 10000111010 1101011100 1100100111 1110110110 1100000100 25.563 52.514 1000.5 89984 17 16 14 59 50 4 $GNGGA,110316.00,4333.69142,N,00128.74075,E,1,07,2.06,129.4,M,53.8,M,,*40
88 11 03 17 4333.6913500128.74073129.8ó 00128.74073 129.8 1101101011 1100000110 1100110000 10000000010 10000110111 1100101000 1101011110 1111010101 1100001111 1101101111 1011010111 1100000010 10000100011 10000111101 1101011111 1100100101 1110111100 1100001001 25.563 52.491 1000.5 90981 18 15 13 60 50 4 $GNGGA,110317.00,4333.69135,N,00128.74073,E,1,07,2.06,129.8,M,53.8,M,,*4B
89 11 03 18 4333.6915600128.74101130.1ó 00128.74101 130.1 1101101011 1100001000 1100110010 1111111111 10000111000 1100101010 1101011110 1111010111 1100010101 1101101111 1011010011 1100000001 10000010011 10000111011 1101100110 1100101011 1110110111 1100000111 25.500 52.453 1000.5 91981 17 15 14 59 50 4 $GNGGA,110318.00,4333.69156,N,00128.74101,E,1,07,2.06,130.1,M,53.8,M,,*44
90 11 03 19 4333.6915800128.74037131.0ó 00128.74037 131.0 1101101011 1100000101 1100101111 10000000100 10000111001 1100101010 1101100001 1111011000 1100010011 1101101111 1011010101 1011111110 10000010001 10000111010 1101011101 1100100101 1111000100 1100001101 25.500 52.430 1000.5 92980 16 15 13 58 52 4 $GNGGA,110319.00,4333.69158,N,00128.74037,E,1,07,2.06,131.0,M,53.8,M,,*4F
91 11 03 20 4333.6917700128.74042131.3ó 00128.74042 131.3 1101101011 1100001000 1100110001 10000000010 10000111000 1100100100 1101011011 1111010111 1100010010 1101101111 1011010010 1100000000 10000010000 10000111011 1101100000 1100100101 1111000000 1100001001 25.500 52.407 1000.5 93978 17 14 13 59 51 4 $GNGGA,110320.00,4333.69177,N,00128.74042,E,1,06,2.54,131.3,M,53.8,M,,*4F
92 11 03 21 4333.6918100128.74056131.7ó 00128.74056 131.7 1101101011 1100000101 1100101110 10000001010 10000110101 1100100100 1101011010 1111011111 1100010110 1101101111 1011010010 1011111110 10000000111 10000111010 1101100000 1100101000 1110110101 1100000011 25.500 52.392 1000.5 94978 16 16 15 59 51 3 $GNGGA,110321.00,4333.69181,N,00128.74056,E,1,06,2.54,131.7,M,53.8,M,,*46
93 11 03 22 4333.6920200128.74076132.0ó 00128.74076 132.0 1101101011 1100000111 1100110010 1111111011 10000110100 1100101010 1101100010 1111011110 1100010010 1101101111 1011010011 1100000001 10000001011 10000111010 1101011110 1100100101 1111000010 1100000101 25.563 52.376 1000.5 95976 17 14 13 60 50 4 $GNGGA,110322.00,4333.69202,N,00128.74076,E,1,06,2.54,132.0,M,53.8,M,,*4B
94 11 03 23 4333.6920700128.74091132.5ó 00128.74091 132.5 1101101011 1100000101 1100101111 10000000010 10000110111 1100101000 1101011011 1111100110 1100010111 1101101111 1011010100 1100000010 10000000011 10000111001 1101011111 1100101001 1110111011 1100000000 25.563 52.353 1000.5 96975 16 15 15 59 51 3 $GNGGA,110323.00,4333.69207,N,00128.74091,E,1,06,2.54,132.5,M,53.8,M,,*43
95 11 03 24 4333.6924100128.74121132.9ó 00128.74121 132.9 1101101010 1100001000 1100110010 10000000100 10000110100 1100101011 1101100000 1111011101 1100001110 1101101111 1011010010 1011111110 10000000011 10000111000 1101100001 1100101000 1110111100 1011111101 25.563 52.331 1000.5 97974 16 16 14 59 52 3 $GNGGA,110324.00,4333.69241,N,00128.74121,E,1,06,2.54,132.9,M,53.8,M,,*40
96 11 03 25 4333.6921700128.74130133.5ó 00128.74130 133.5 1101101011 1100000101 1100101110 1111111100 10000110110 1100100100 1101011010 1111011111 1100010100 1101101111 1011010111 1100000100 10000001110 10000111011 1101011111 1100100110 1110111101 1100000101 25.500 52.323 1000.5 98972 18 14 13 60 50 4 $GNGGA,110325.00,4333.69217,N,00128.74130,E,1,06,2.54,133.5,M,53.8,M,,*4F
97 11 03 26 4333.6920700128.74138134.0ó 00128.74138 134.0 1101101011 1100001001 1100110001 1111111100 10000110110 1100101000 1101011111 1111101000 1100011000 1101101111 1011010101 1100000001 10000000101 10000111011 1101011101 1100100101 1110111111 1100001011 25.500 52.323 1000.5 99972 17 15 13 59 50 5 $GNGGA,110326.00,4333.69207,N,00128.74138,E,1,06,2.54,134.0,M,53.8,M,,*47
98 11 03 27 4333.6923300128.74193134.6ó 00128.74193 134.6 1101101011 1100000110 1100101111 1111111000 10000110111 1100100111 1101011100 1111011011 1100001111 1101101111 1011010101 1100000011 10000001000 10000111001 1101100000 1100100111 1110110110 1100001010 25.563 52.315 1000.5 100971 17 15 14 60 51 3 $GNGGA,110327.00,4333.69233,N,00128.74193,E,1,06,2.54,134.6,M,53.8,M,,*46
99 11 03 28 4333.6922000128.74197135.2ó 00128.74197 135.2 1101101010 1100001000 1100110000 1111111101 10000110111 1100101001 1101011100 1111010111 1100000111 1101101111 1011010011 1100000000 10000001101 10000111100 1101100001 1100100110 1110110111 1100000101 25.563 52.315 1000.5 101968 16 15 15 59 51 3 $GNGGA,110328.00,4333.69220,N,00128.74197,E,1,06,2.54,135.2,M,53.8,M,,*4A
100 11 03 29 4333.6917000128.74177135.4ó 00128.74177 135.4 1101101010 1100000110 1100101111 10000000010 10000111010 1100101000 1101011011 1111010111 1100001001 1101101111 1011010110 1100000010 10000001100 10000111100 1101011111 1100100111 1110111011 1100000000 25.563 52.315 1000.5 102970 18 15 13 60 50 4 $GNGGA,110329.00,4333.69170,N,00128.74177,E,1,07,2.06,135.4,M,53.8,M,,*43
101 11 03 30 4333.6917800128.74150135.9ó 00128.74150 135.9 1101101011 1100000100 1100101111 10000000001 10000111000 1100101100 1101100011 1111100010 1100011000 1101101111 1011010011 1100000001 10000001100 10000111100 1101011101 1100100110 1110111101 1100001101 25.500 52.308 1000.5 103967 17 14 14 59 50 4 $GNGGA,110330.00,4333.69178,N,00128.74150,E,1,07,2.06,135.9,M,53.8,M,,*4B
102 11 03 31 4333.6918800128.74121136.8ó 00128.74121 136.8 1101101011 1100000110 1100101111 10000000010 10000111000 1100101001 1101011101 1111100110 1100010011 1101101111 1011001110 1011111111 10000001110 10000111100 1101100100 1100100111 1110111110 1100001101 25.563 52.300 1000.5 104967 16 16 14 59 52 3 $GNGGA,110331.00,4333.69188,N,00128.74121,E,1,07,2.06,136.8,M,53.8,M,,*41
103 11 03 32 4333.6916300128.74099137.3ó 00128.74099 137.3 1101101010 1100000111 1100101111 10000000010 10000110110 1100101011 1101100011 1111100001 1100010111 1101101111 1011010011 1100000001 10000010000 10000111101 1101011100 1100100100 1110111100 1100000111 25.563 52.308 1000.5 105966 17 15 14 60 51 3 $GNGGA,110332.00,4333.69163,N,00128.74099,E,1,06,2.54,137.3,M,53.8,M,,*49
104 11 03 33 4333.6914700128.74072137.8ó 00128.74072 137.8 1101101011 1100000100 1100110000 10000000000 10000110111 1100101011 1101011100 1111011100 1100000110 1101101111 1011010100 1100000000 10000010010 10000111011 1101011110 1100101000 1110111000 1011111110 25.563 52.323 1000.5 106964 16 15 15 59 51 3 $GNGGA,110333.00,4333.69147,N,00128.74072,E,1,06,2.54,137.8,M,53.8,M,,*40
105 11 03 34 4333.6914600128.74102138.1ó 00128.74102 138.1 1101101011 1100000100 1100101100 1111111010 10000111000 1100110000 1101100001 1111011000 1100001000 1101101111 1011010111 1100000001 10000001010 10000111011 1101100011 1100101000 1111000010 1100001011 25.563 52.338 1000.5 107964 17 15 14 60 51 3 $GNGGA,110334.00,4333.69146,N,00128.74102,E,1,06,2.54,138.1,M,53.8,M,,*46
106 11 03 35 4333.6910700128.74074138.5ó 00128.74074 138.5 1101101010 1100000101 1100101111 1111111000 10000111000 1100101000 1101100010 1111011010 1100000110 1101101111 1011010001 1100000001 10000010110 10000111100 1101100101 1100100111 1110111010 1100000000 25.625 52.353 1000.5 108961 16 14 14 59 50 4 $GNGGA,110335.00,4333.69107,N,00128.74074,E,1,05,2.55,138.5,M,53.8,M,,*44
107 11 03 36 4333.6912500128.74106139.1ó 00128.74106 139.1 1101101011 1100001000 1100110010 1111111011 10000111000 1100101011 1101100000 1111100001 1100000100 1101101111 1011011000 1100000000 10000000111 10000111000 1101100010 1100101001 1111000101 1100010010 25.500 52.361 1000.5 109962 16 16 14 59 52 3 $GNGGA,110336.00,4333.69125,N,00128.74106,E,1,06,2.54,139.1,M,53.8,M,,*44
108 11 03 37 4333.6910300128.74130139.6ó 00128.74130 139.6 1101101011 1100000110 1100101100 10000000010 10000111000 1100100101 1101011001 1111011110 1100000111 1101101111 1011010011 1011111110 10000001111 10000111010 1101100010 1100100110 1110111011 1100000101 25.563 52.376 1000.5 110960 17 15 14 60 51 3 $GNGGA,110337.00,4333.69103,N,00128.74130,E,1,06,2.54,139.6,M,53.8,M,,*43
109 11 03 38 4333.6910900128.74154140.6ó 00128.74154 140.6 1101101010 1100000111 1100110010 1111111101 10000110011 1100101001 1101011100 1111011110 1100001100 1101101111 1011010111 1100000001 10000001010 10000111010 1101011011 1100100100 1110111110 1100000010 25.563 52.376 1000.5 111960 16 15 13 59 50 5 $GNGGA,110338.00,4333.69109,N,00128.74154,E,1,07,2.06,140.6,M,53.8,M,,*4C
110 11 03 39 4333.6909800128.74142141.2ó 00128.74142 141.2 1101101011 1100000100 1100101111 10000000000 10000110110 1100100011 1101010111 1111100011 1100010110 1101101111 1011010101 1100000010 10000001110 10000110111 1101100011 1100100110 1110111010 1100000111 25.563 52.369 1000.5 112957 17 14 13 59 51 4 $GNGGA,110339.00,4333.69098,N,00128.74142,E,1,07,2.06,141.2,M,53.8,M,,*46
111 11 03 40 4333.6904200128.74092141.6ó 00128.74092 141.6 1101101011 1100000110 1100101110 10000000100 10000110111 1100100110 1101011010 1111100100 1100010011 1101101111 1011010011 1011111111 10000010001 10000111010 1101011101 1100100111 1110110011 1011111110 25.563 52.361 1000.5 113957 16 15 15 59 51 3 $GNGGA,110340.00,4333.69042,N,00128.74092,E,1,06,2.54,141.6,M,53.8,M,,*41
112 11 03 41 4333.6902000128.74093142.4ó 00128.74093 142.4 1101101011 1100000101 1100101111 10000000100 10000110011 1100101011 1101011110 1111100000 1100011000 1101101111 1011010111 1100000010 10000001011 10000111100 1101011111 1100101001 1111000010 1100001011 25.563 52.338 1000.5 114956 16 15 14 58 52 3 $GNGGA,110341.00,4333.69020,N,00128.74093,E,1,06,2.54,142.4,M,53.8,M,,*44
113 11 03 42 4333.6901700128.74103142.9ó 00128.74103 142.9 1101101011 1100001000 1100110100 10000000001 10000110111 1100100110 1101011011 1111011110 1100010000 1101101111 1011010011 1100000000 10000001110 10000111101 1101011111 1100100110 1111000010 1100001110 25.563 52.315 1000.5 115955 17 15 14 60 51 3 $GNGGA,110342.00,4333.69017,N,00128.74103,E,1,06,2.54,142.9,M,53.8,M,,*46
114 11 03 43 4333.6895100128.74045143.3ó 00128.74045 143.3 1101101011 1100000101 1100101110 10000000010 10000111000 1100101011 1101100010 1111011100 1100001101 1101101111 1011010001 1011111111 10000000110 10000111001 1101100110 1100101011 1110111010 1100000111 25.563 52.300 1000.5 116954 16 16 14 59 51 4 $GNGGA,110343.00,4333.68951,N,00128.74045,E,1,05,3.28,143.3,M,53.8,M,,*4C
115 11 03 44 4333.6892200128.73988143.7ó 00128.73988 143.7 1101101011 1100000101 1100101111 1111111111 10000110111 1100100001 1101010111 1111011110 1100001110 1101101111 1011010011 1011111101 10000000100 10000111001 1101100100 1100100110 1110111101 1100000111 25.563 52.292 1000.5 117952 18 14 13 60 50 4 $GNGGA,110344.00,4333.68922,N,00128.73988,E,1,05,3.28,143.7,M,53.8,M,,*44
116 11 03 45 4333.6889600128.73980144.1ó 00128.73980 144.1 1101101011 1100000110 1100110000 1111111100 10000110100 1100101010 1101011110 1111100010 1100010010 1101101111 1011011000 1100000101 10000001011 10000111100 1101100011 1100101010 1110111001 1100001001 25.625 52.285 1000.5 118951 16 15 15 59 51 3 $GNGGA,110345.00,4333.68896,N,00128.73980,E,1,05,3.28,144.1,M,53.8,M,,*42
117 11 03 46 4333.6886500128.73994145.2ó 00128.73994 145.2 1101101010 1100000101 1100110000 1111111011 10000110100 1100100111 1101011100 1111011101 1100010011 1101101111 1011010101 1100000000 10000001001 10000111011 1101011011 1100101000 1110111010 1100001001 25.625 52.262 1000.5 119950 16 16 14 59 52 3 $GNGGA,110346.00,4333.68865,N,00128.73994,E,1,07,2.06,145.2,M,53.8,M,,*45
118 11 03 47 4333.6893000128.74017146.5ó 00128.74017 146.5 1101101010 1100000101 1100110000 1111111111 10000111001 1100101011 1101011101 1111100100 1100010100 1101101111 1011010001 1100000000 10000001100 10000111011 1101011100 1100100101 1110111000 1100000010 25.563 52.239 1000.5 120950 17 15 14 59 50 4 $GNGGA,110347.00,4333.68930,N,00128.74017,E,1,07,2.06,146.5,M,53.8,M,,*44
119 11 03 48 4333.6894200128.73910147.3ó 00128.73910 147.3 1101101011 1100000011 1100101111 1111111100 10000110110 1100100101 1101011010 1111011101 1100001100 1101101111 1011010010 1100000000 10000001000 10000111100 1101100010 1100100100 1110110000 1011111011 25.563 52.247 1000.5 121949 17 15 13 59 51 4 $GNGGA,110348.00,4333.68942,N,00128.73910,E,1,07,2.06,147.3,M,53.8,M,,*40
120 11 03 49 4333.6893000128.73921147.9ó 00128.73921 147.9 1101101011 1100000100 1100101111 1111111101 10000110110 1100101001 1101100001 1111010001 1100001101 1101110000 1011010100 1100000000 10000001000 10000111100 1101011100 1100100111 1110110110 1011111110 25.563 52.239 1000.5 122948 18 15 13 60 50 4 $GNGGA,110349.00,4333.68930,N,00128.73921,E,1,07,2.06,147.9,M,53.8,M,,*4C
121 11 03 50 4333.6890000128.73883148.5ó 00128.73883 148.5 1101101010 1100000110 1100101111 1111111100 10000110110 1100100100 1101010110 1111010101 1100001100 1101101111 1011011000 1100000010 10000001010 10000111100 1101100000 1100100100 1110110110 1100000000 25.563 52.247 1000.5 123947 16 16 15 59 51 3 $GNGGA,110350.00,4333.68900,N,00128.73883,E,1,06,2.18,148.5,M,53.8,M,,*43
122 11 03 51 4333.6888900128.73855149.3ó 00128.73855 149.3 1101101011 1100000100 1100110010 1111111111 10000110011 1100100110 1101011011 1111010101 1100001101 1101101111 1011010101 1100000000 10000001010 10000111010 1101100011 1100100011 1110111011 1100001111 25.563 52.262 1000.5 124946 17 15 14 60 51 3 $GNGGA,110351.00,4333.68889,N,00128.73855,E,1,06,2.18,149.3,M,53.8,M,,*4E
123 11 03 52 4333.6889300128.73873150.0ó 00128.73873 150.0 1101101011 1100000011 1100101110 1111111110 10000110111 1100101101 1101011111 1111010110 1100000110 1101101111 1011010101 1011111111 10000001101 10000111011 1101011110 1100101000 1110111011 1100001010 25.563 52.285 1000.5 125945 17 15 14 59 50 4 $GNGGA,110352.00,4333.68893,N,00128.73873,E,1,06,2.18,150.0,M,53.8,M,,*49
124 11 03 53 4333.6889200128.73833150.7ó 00128.73833 150.7 1101101011 1100000010 1100101101 1111111101 10000111001 1100101000 1101011010 1111011000 1100001001 1101101111 1011010011 1100000000 10000001110 10000111010 1101011110 1100101010 1110111001 1100001100 25.563 52.300 1000.5 126944 16 16 14 59 52 3 $GNGGA,110353.00,4333.68892,N,00128.73833,E,1,06,2.07,150.7,M,53.8,M,,*44
125 11 03 54 4333.6888500128.73805151.5ó 00128.73805 151.5 1101101011 1100000101 1100110011 10000000011 10000111001 1100101100 1101100011 1111100010 1100001111 1101101111 1011010100 1100000000 10000001101 10000111001 1101100000 1100100100 1110110110 1100001000 25.625 52.300 1000.5 127942 17 15 14 60 51 3 $GNGGA,110354.00,4333.68885,N,00128.73805,E,1,05,2.21,151.5,M,53.8,M,,*44
126 11 03 55 4333.6889900128.73796152.1ó 00128.73796 152.1 1101101010 1100000101 1100101110 10000000010 10000111000 1100101011 1101100011 1111100010 1100010010 1101101111 1011010110 1100000000 10000010011 10000111100 1101011101 1100101010 1110111001 1100001100 25.625 52.308 1000.5 128941 16 15 13 58 51 5 $GNGGA,110355.00,4333.68899,N,00128.73796,E,1,05,2.21,152.1,M,53.8,M,,*4A
127 11 03 56 4333.6891300128.73780152.9ó 00128.73780 152.9 1101101011 1100000110 1100110001 1111111101 10000111011 1100101001 1101011110 1111011101 1100011000 1101101111 1011010011 1100000000 10000010110 10000111011 1101100000 1100101000 1110110110 1100001011 25.625 52.308 1000.5 129941 17 15 14 60 51 3 $GNGGA,110356.00,4333.68913,N,00128.73780,E,1,06,2.18,152.9,M,53.8,M,,*4C
128 11 03 57 4333.6890800128.73782153.6ó 00128.73782 153.6 1101101011 1100000110 1100110000 10000000010 10000111001 1100100100 1101011000 1111011100 1100010100 1101101111 1011010010 1100000000 10000001100 10000111100 1101100001 1100100101 1110111000 1100001101 25.563 52.300 1000.5 130937 17 15 14 59 50 4 $GNGGA,110357.00,4333.68908,N,00128.73782,E,1,06,2.18,153.6,M,53.8,M,,*4B
129 11 03 58 4333.6893900128.73797154.7ó 00128.73797 154.7 1101101010 1100000110 1100110001 1111111101 10000110111 1100101001 1101011011 1111010011 1100001111 1101101111 1011011000 1100000010 10000001110 10000111010 1101011110 1100100101 1111000001 1100001110 25.563 52.285 1000.5 131940 18 16 13 60 50 4 $GNGGA,110358.00,4333.68939,N,00128.73797,E,1,06,2.18,154.7,M,53.8,M,,*44
130 11 03 59 4333.6892800128.73781155.4ó 00128.73781 155.4 1101101011 1100000111 1100110001 10000000000 10000111011 1100101001 1101011100 1111011000 1100010010 1101101111 1011010100 1100000010 10000001010 10000111011 1101011101 1100100011 1110111011 1100000111 25.563 52.262 1000.5 132938 18 15 13 59 50 4 $GNGGA,110359.00,4333.68928,N,00128.73781,E,1,06,2.18,155.4,M,53.8,M,,*40
131 11 04 00 4333.6892200128.73774156.0ó 00128.73774 156.0 1101101011 1100000110 1100110000 10000000011 10000111001 1100101101 1101100000 1111010010 1100010001 1101101111 1011010101 1100000000 10000001111 10000111101 1101011010 1100100000 1110111110 1100001001 25.563 52.239 1000.5 133936 17 15 13 59 50 5 $GNGGA,110400.00,4333.68922,N,00128.73774,E,1,06,2.18,156.0,M,53.8,M,,*4C
132 11 04 01 4333.6891000128.73757156.3ó 00128.73757 156.3 1101101011 1100000111 1100110000 10000000101 10000110111 1100100011 1101011010 1111010011 1100010000 1101101111 1011010100 1100000000 10000001100 10000111101 1101011110 1100100110 1110111010 1100000000 25.563 52.224 1000.5 134935 18 14 13 60 50 4 $GNGGA,110401.00,4333.68910,N,00128.73757,E,1,06,2.07,156.3,M,53.8,M,,*40
133 11 04 02 4333.6892700128.73746156.7ó 00128.73746 156.7 1101101011 1100000111 1100101111 1111111101 10000111000 1100100111 1101010111 1111011000 1100001100 1101110000 1011010010 1011111101 10000001100 10000111100 1101100010 1100101001 1110111011 1100001010 25.563 52.208 1000.5 135933 16 14 14 59 50 4 $GNGGA,110402.00,4333.68927,N,00128.73746,E,1,06,2.07,156.7,M,53.8,M,,*43
134 11 04 03 4333.6896500128.73757156.8ó 00128.73757 156.8 1101101011 1100000111 1100110001 1111111011 10000110110 1100101010 1101011110 1111011000 1100010011 1101101111 1011010100 1100000010 10000001010 10000111010 1101100011 1100101010 1110110001 1100000101 25.563 52.208 1000.5 136933 17 14 13 59 51 4 $GNGGA,110403.00,4333.68965,N,00128.73757,E,1,06,2.07,156.8,M,53.8,M,,*4B
135 11 04 04 4333.6901200128.73730156.9ó 00128.73730 156.9 1101101011 1100000111 1100110000 1111110111 10000111000 1100101011 1101011110 1111010001 1100000101 1101101111 1011010000 1011111111 10000000100 10000111001 1101100010 1100100110 1110101111 1100000010 25.563 52.208 1000.5 137932 16 15 15 59 51 3 $GNGGA,110404.00,4333.69012,N,00128.73730,E,1,06,2.07,156.9,M,53.8,M,,*44
136 11 04 05 4333.6903000128.73781156.8ó 00128.73781 156.8 1101101010 1100000111 1100110000 10000000000 10000110110 1100101000 1101011011 1111010100 1100001011 1101101111 1011010100 1100000001 10000001001 10000111010 1101011101 1100100011 1110110111 1100000101 25.625 52.193 1000.5 138931 16 16 14 59 52 3 $GNGGA,110405.00,4333.69030,N,00128.73781,E,1,06,2.07,156.8,M,53.8,M,,*4E
137 11 04 06 4333.6909200128.73810157.0ó 00128.73810 157.0 1101101011 1100000101 1100101110 1111111110 10000110101 1100101000 1101011101 1111010010 1100000011 1101101111 1011010101 1100000000 10000000101 10000111010 1101011110 1100101011 1110110100 1100000010 25.625 52.186 1000.5 139929 18 14 13 60 50 4 $GNGGA,110406.00,4333.69092,N,00128.73810,E,1,06,2.07,157.0,M,53.8,M,,*4B
138 11 04 07 4333.6911200128.73845157.4ó 00128.73845 157.4 1101101011 1100000110 1100101101 1111111101 10000111000 1100101011 1101011101 1111010011 1100001011 1101101111 1011010110 1100000000 10000001000 10000111011 1101100001 1100100110 1110110110 1100000001 25.625 52.178 1000.5 140929 16 15 14 58 51 4 $GNGGA,110407.00,4333.69112,N,00128.73845,E,1,06,2.07,157.4,M,53.8,M,,*47
139 11 04 08 4333.6911300128.73850157.3ó 00128.73850 157.3 1101101011 1100000100 1100110000 1111111011 10000110110 1100100100 1101011011 1111011010 1100010011 1101101111 1011010011 1011111110 10000000110 10000111001 1101011110 1100100110 1110111000 1100000100 25.625 52.186 1000.5 141925 17 14 13 59 51 4 $GNGGA,110408.00,4333.69113,N,00128.73850,E,1,06,2.07,157.3,M,53.8,M,,*4A
140 11 04 09 4333.6907800128.73765157.4ó 00128.73765 157.4 1101101011 1100000110 1100110000 1111111101 10000111001 1100101110 1101100100 1111100100 1100010001 1101101111 1011010101 1011111111 10000001111 10000111010 1101100010 1100101001 1110111001 1100000101 25.563 52.193 1000.5 142926 16 15 15 59 51 3 $GNGGA,110409.00,4333.69078,N,00128.73765,E,1,05,2.55,157.4,M,53.8,M,,*4D
141 11 04 10 4333.6908100128.73780157.3ó 00128.73780 157.3 1101101011 1100000010 1100101110 1111111101 10000111001 1100100110 1101011100 1111100100 1100010011 1101101111 1011010001 1011111111 10000001011 10000111100 1101100010 1100101001 1110111001 1100001010 25.563 52.224 1000.5 143926 16 16 14 59 52 3 $GNGGA,110410.00,4333.69081,N,00128.73780,E,1,06,2.07,157.3,M,53.8,M,,*4B
142 11 04 11 4333.6904900128.73713157.5ó 00128.73713 157.5 1101101011 1100000110 1100101110 1111110011 10000110111 1100101001 1101011001 1111100011 1100010001 1101101111 1011010101 1100000000 10000001101 10000111011 1101011111 1100101011 1110111101 1100000011 25.563 52.231 1000.5 144924 17 15 14 60 51 3 $GNGGA,110411.00,4333.69049,N,00128.73713,E,1,06,2.07,157.5,M,53.8,M,,*42
143 11 04 12 4333.6906100128.73728158.1ó 00128.73728 158.1 1101101011 1100000110 1100101111 1111111000 10000110100 1100101000 1101011011 1111100011 1100001001 1101110000 1011010101 1100000001 10000001010 10000111011 1101011111 1100101000 1110111101 1100000011 25.563 52.231 1000.5 145924 16 15 13 58 51 5 $GNGGA,110412.00,4333.69061,N,00128.73728,E,1,06,2.07,158.1,M,53.8,M,,*48
144 11 04 13 4333.6903400128.73710158.2ó 00128.73710 158.2 1101101011 1100000110 1100101111 1111110110 10000110110 1100100100 1101011101 1111011100 1100000010 1101110000 1011010100 1100000011 10000001111 10000111011 1101100000 1100100101 1111000010 1100010010 25.625 52.224 1000.5 146923 17 15 14 60 51 3 $GNGGA,110413.00,4333.69034,N,00128.73710,E,1,06,2.07,158.2,M,53.8,M,,*41
145 11 04 14 4333.6900000128.73765157.9ó 00128.73765 157.9 1101101011 1100000111 1100110001 1111111110 10000111000 1100100110 1101011001 1111011000 1100000110 1101101111 1011010011 1011111111 10000001011 10000111011 1101100011 1100101001 1110111100 1100000111 25.625 52.216 1000.5 147921 16 15 15 59 51 3 $GNGGA,110414.00,4333.69000,N,00128.73765,E,1,06,2.07,157.9,M,53.8,M,,*47
146 11 04 15 4333.6898600128.73727158.0ó 00128.73727 158.0 1101101011 1100000110 1100110000 1111111000 10000110110 1100101010 1101011100 1111100011 1100001110 1101101111 1011010101 1100000010 10000001100 10000111001 1101100010 1100100110 1110110111 1100000011 25.563 52.216 1000.5 148919 16 15 13 58 52 4 $GNGGA,110415.00,4333.68986,N,00128.73727,E,1,06,2.53,158.0,M,53.8,M,,*41
147 11 04 16 4333.6898900128.73672158.1ó 00128.73672 158.1 1101101011 1100000100 1100101110 10000000000 10000111000 1100101001 1101100000 1111101000 1100011000 1101101111 1011010010 1011111101 10000010100 10000111101 1101011011 1100101000 1110111011 1100001001 25.625 52.216 1000.5 149918 18 14 13 59 50 4 $GNGGA,110416.00,4333.68989,N,00128.73672,E,1,06,2.53,158.1,M,53.8,M,,*4D
148 11 04 17 4333.6895700128.73637158.0ó 00128.73637 158.0 1101101011 1100000100 1100101111 10000000100 10000110110 1100101001 1101011011 1111011111 1100010011 1101101111 1011001111 1011111111 10000010101 10000111100 1101100101 1100101101 1110111100 1100000011 25.625 52.224 1000.5 150918 17 16 13 59 50 5 $GNGGA,110417.00,4333.68957,N,00128.73637,E,1,05,2.55,158.0,M,53.8,M,,*4A
149 11 04 18 4333.6893800128.73642158.1ó 00128.73642 158.1 1101101011 1100000100 1100101110 1111111110 10000110110 1100101011 1101011101 1111011010 1100010100 1101101111 1011010010 1011111111 10000001100 10000111100 1101011100 1100100101 1110111110 1100001000 25.625 52.231 1000.5 151917 18 14 13 60 50 4 $GNGGA,110418.00,4333.68938,N,00128.73642,E,1,05,2.55,158.1,M,53.8,M,,*4F
150 11 04 19 4333.6893900128.73629157.6ó 00128.73629 157.6 1101101011 1100000110 1100110001 10000000010 10000110110 1100100110 1101011100 1111011011 1100011000 1101101111 1011010100 1100000000 10000001011 10000111010 1101011111 1100101100 1110111010 1100000111 25.625 52.239 1000.5 152915 16 15 15 59 51 3 $GNGGA,110419.00,4333.68939,N,00128.73629,E,1,06,2.07,157.6,M,53.8,M,,*4E
151 11 04 20 4333.6890500128.73601156.7ó 00128.73601 156.7 1101101011 1100000100 1100101110 10000000000 10000111001 1100100111 1101011101 1111011101 1100010010 1101101111 1011010010 1011111101 10000000101 10000111001 1101011110 1100100111 1110110111 1011111111 25.625 52.247 1000.5 153915 17 15 14 60 51 3 $GNGGA,110420.00,4333.68905,N,00128.73601,E,1,06,2.07,156.7,M,53.8,M,,*41
152 11 04 21 4333.6883900128.73678155.9ó 00128.73678 155.9 1101101011 1100000110 1100110010 1111111100 10000110110 1100101000 1101011001 1111011011 1100001100 1101110000 1011010110 1100000010 10000001001 10000111000 1101100001 1100100110 1111000111 1100001101 25.563 52.254 1000.5 154913 17 14 14 59 50 4 $GNGGA,110421.00,4333.68839,N,00128.73678,E,1,06,2.07,155.9,M,53.8,M,,*4D
153 11 04 22 4333.6882400128.73622156.0ó 00128.73622 156.0 1101101011 1100000110 1100110000 1111111100 10000110110 1100101010 1101011110 1111010111 1100001100 1101101111 1011010001 1011111100 10000001011 10000111011 1101011110 1100100110 1110110100 1011111110 25.625 52.231 1000.5 155914 17 16 13 59 51 4 $GNGGA,110422.00,4333.68824,N,00128.73622,E,1,05,2.55,156.0,M,53.8,M,,*43
154 11 04 23 4333.6879900128.73622156.0ó 00128.73622 156.0 1101101011 1100000111 1100110001 1111111001 10000110101 1100101010 1101011011 1111010000 1100001001 1101101111 1011010110 1100000001 10000001111 10000111011 1101100011 1100100110 1110110010 1011111101 25.625 52.247 1000.5 156911 18 14 13 60 50 4 $GNGGA,110423.00,4333.68799,N,00128.73622,E,1,05,2.55,156.0,M,53.8,M,,*4B
155 11 04 24 4333.6875700128.73596156.3ó 00128.73596 156.3 1101101011 1100000110 1100110000 1111111010 10000110110 1100100110 1101011110 1111011001 1100001100 1101101111 1011010110 1100000010 10000010001 10000111011 1101100000 1100101001 1110110111 1011111111 25.625 52.247 1000.5 157910 16 16 15 59 51 3 $GNGGA,110424.00,4333.68757,N,00128.73596,E,1,05,2.55,156.3,M,53.8,M,,*41
156 11 04 25 4333.6874800128.73509156.5ó 00128.73509 156.5 1101101011 1100000101 1100101101 1111111011 10000110111 1100101110 1101011110 1111010010 1100000111 1101101111 1011010110 1100000000 10000001111 10000111001 1101100111 1100101001 1110110111 1100000100 25.625 52.254 1000.5 158909 17 15 14 60 51 3 $GNGGA,110425.00,4333.68748,N,00128.73509,E,1,05,2.55,156.5,M,53.8,M,,*4E
