id HH MM SS longitude latitude altitude adc_1_ch0 adc_1_ch1 adc_1_ch2 adc_1_ch3 adc_1_ch4 adc_1_ch5 adc_1_ch6 adc_1_ch7 adc_1_ch8 adc_2_ch0 adc_2_ch1 adc_2_ch2 adc_2_ch3 adc_2_ch4 adc_2_ch5 adc_2_ch6 adc_2_ch7 adc_2_ch8 temp hum pres t_prog t_gps t_split t_adc t_temp t_hum t_pres trame_gga
1 11 07 15 4333.6815900128.73446153.2ó 00128.73446 153.2 1101101011 1100000010 1100101111 1111110110 10000110111 1100101011 1101011111 1111011100 1100001100 1101101111 1011010110 1100000010 10000001101 10000111100 1101011100 1100100010 1110111110 1100001001 25.563 51.415 795.83 3744 16 15 15 59 51 3 $GNGGA,110715.00,4333.68159,N,00128.73446,E,1,03,2.82,153.2,M,53.8,M,,*4C
2 11 07 16 4333.6815400128.73380153.2ó 00128.73380 153.2 1101101011 1100000011 1100101101 1111111100 10000110111 1100110000 1101100000 1111011010 1100001111 1101101111 1011010110 1100000011 10000001100 10000111011 1101100000 1100100110 1111000011 1100010010 25.563 51.377 1000.4 4744 16 16 14 59 51 4 $GNGGA,110716.00,4333.68154,N,00128.73380,E,1,03,2.82,153.2,M,53.8,M,,*4F
3 11 07 17 4333.6815900128.73357153.1ó 00128.73357 153.1 1101101011 1100000101 1100101101 1111110110 10000110111 1100101101 1101100010 1111011111 1100000101 1101101111 1011010111 1100000001 10000001100 10000111001 1101011110 1100100101 1110111101 1100000010 25.563 51.369 1000.4 5741 17 14 13 59 51 4 $GNGGA,110717.00,4333.68159,N,00128.73357,E,1,03,2.82,153.1,M,53.8,M,,*4A
4 11 07 18 4333.6815800128.73307153.4ó 00128.73307 153.4 1101101011 1100000110 1100101111 1111111100 10000110110 1100101010 1101011011 1111100001 1100001101 1101101111 1011010110 1100000010 10000001010 10000111011 1101100100 1100101000 1110111010 1100000111 25.563 51.392 1000.4 6739 17 14 14 59 50 4 $GNGGA,110718.00,4333.68158,N,00128.73307,E,1,03,2.82,153.4,M,53.8,M,,*44
5 11 07 19 4333.6816400128.73346153.5ó 00128.73346 153.5 1101101011 1100000101 1100101101 1111111010 10000110110 1100101000 1101011000 1111010110 1100000011 1101101111 1011010011 1011111111 10000000111 10000111001 1101101010 1100110001 1111000001 1100001111 25.563 51.415 1000.4 7740 17 15 14 60 51 3 $GNGGA,110719.00,4333.68164,N,00128.73346,E,1,03,2.82,153.5,M,53.8,M,,*4E
6 11 07 20 4333.6816500128.73217153.6ó 00128.73217 153.6 1101101011 1100000110 1100110001 1111111010 10000110110 1100100110 1101011000 1111010101 1100000000 1101101111 1011011001 1100000100 10000010000 10000111010 1101011111 1100101000 1110110101 1100000010 25.563 51.430 1000.4 8738 16 14 14 58 51 4 $GNGGA,110720.00,4333.68165,N,00128.73217,E,1,03,2.82,153.6,M,53.8,M,,*43
7 11 07 21 4333.6814500128.73168153.5ó 00128.73168 153.5 1101101011 1100001000 1100110001 10000000000 10000111001 1100101001 1101011101 1111011000 1100001101 1101101111 1011010100 1011111111 10000010011 10000111100 1101011100 1100100111 1110111000 1100000100 25.563 51.446 1000.4 9738 17 16 13 59 51 4 $GNGGA,110721.00,4333.68145,N,00128.73168,E,1,03,2.82,153.5,M,53.8,M,,*48
8 11 07 22 4333.6814500128.73208153.8ó 00128.73208 153.8 1101101011 1100001000 1100110100 1111111101 10000110111 1100101001 1101100011 1111011101 1100010010 1101101111 1011010111 1100000010 10000001111 10000111011 1101011011 1100100110 1110111010 1100000110 25.500 51.453 1000.4 10737 18 14 13 60 50 4 $GNGGA,110722.00,4333.68145,N,00128.73208,E,1,03,2.82,153.8,M,53.8,M,,*43
9 11 07 23 4333.6814100128.73156153.7ó 00128.73156 153.7 1101101011 1100000101 1100110001 1111110100 10000110000 1100110001 1101100110 1111011010 1100010111 1101110000 1011010101 1100000000 10000010000 10000111011 1101100010 1100100110 1110111010 1100000010 25.500 51.468 1000.4 11736 16 15 13 58 51 5 $GNGGA,110723.00,4333.68141,N,00128.73156,E,1,03,2.82,153.7,M,53.8,M,,*41
10 11 07 24 4333.6816100128.73132153.7ó 00128.73132 153.7 1101101011 1100000110 1100110010 1111111100 10000111000 1100101001 1101011010 1111010111 1100001111 1101101111 1011010110 1100000001 10000010000 10000111011 1101011110 1100100111 1111000000 1100001010 25.500 51.507 1000.4 12734 18 15 13 60 50 4 $GNGGA,110724.00,4333.68161,N,00128.73132,E,1,03,2.82,153.7,M,53.8,M,,*46
11 11 07 25 4333.6815800128.73084153.4ó 00128.73084 153.4 1101101011 1100000101 1100101111 1111110110 10000110101 1100101010 1101011011 1111011000 1100010001 1101110000 1011010101 1100000010 10000010011 10000111110 1101100000 1100100110 1110110101 1011111101 25.563 51.545 1000.4 13734 16 15 15 59 51 3 $GNGGA,110725.00,4333.68158,N,00128.73084,E,1,03,2.82,153.4,M,53.8,M,,*42
12 11 07 26 4333.6813100128.73010152.9ó 00128.73010 152.9 1101101011 1100000110 1100110010 1111111110 10000110110 1100100100 1101011101 1111011110 1100010001 1101101111 1011010100 1100000001 10000001100 10000111001 1101011111 1100100101 1110111000 1100000111 25.500 51.590 1000.4 14733 16 15 13 59 51 4 $GNGGA,110726.00,4333.68131,N,00128.73010,E,1,04,6.77,152.9,M,53.8,M,,*46
13 11 07 27 4333.6810200128.72985152.5ó 00128.72985 152.5 1101101011 1100000100 1100101110 1111111110 10000110100 1100100111 1101010111 1111011010 1100010010 1101101111 1011010110 1100000011 10000001111 10000111011 1101011111 1100100111 1110110111 1100000000 25.563 51.629 1000.4 15731 17 15 14 60 51 3 $GNGGA,110727.00,4333.68102,N,00128.72985,E,1,04,6.77,152.5,M,53.8,M,,*4F
14 11 07 28 4333.6811800128.72986152.5ó 00128.72986 152.5 1101101011 1100000101 1100101110 10000000001 10000110111 1100100011 1101011100 1111011110 1100010110 1101101111 1011010011 1011111111 10000001010 10000111000 1101011111 1100101000 1110111011 1100001100 25.563 51.667 1000.4 16731 16 15 14 58 51 4 $GNGGA,110728.00,4333.68118,N,00128.72986,E,1,04,6.77,152.5,M,53.8,M,,*48
15 11 07 29 4333.6807600128.72884152.1ó 00128.72884 152.1 1101101011 1100000101 1100110001 10000000000 10000110111 1100100111 1101011011 1111011001 1100010000 1101101111 1011011001 1100000011 10000010001 10000111011 1101011011 1100100111 1110111011 1100001100 25.563 51.674 1000.4 17730 18 15 13 60 50 4 $GNGGA,110729.00,4333.68076,N,00128.72884,E,1,04,6.77,152.1,M,53.8,M,,*47
16 11 07 30 4333.6807800128.72899152.1ó 00128.72899 152.1 1101101011 1100000011 1100101010 10000000011 10000111100 1100100110 1101011111 1111011111 1100001101 1101110000 1011010011 1100000010 10000001111 10000111001 1101100111 1100101100 1110111101 1100000111 25.563 51.705 1000.4 18728 16 14 14 58 51 4 $GNGGA,110730.00,4333.68078,N,00128.72899,E,1,04,6.77,152.1,M,53.8,M,,*4D
17 11 07 31 4333.6808100128.72983152.0ó 00128.72983 152.0 1101101011 1100000011 1100101111 10000000001 10000110111 1100101001 1101011101 1111100010 1100011010 1101101111 1011010100 1011111110 10000011010 10000111100 1101100100 1100101001 1110111011 1100001000 25.500 51.735 1000.4 19728 17 14 13 59 51 4 $GNGGA,110731.00,4333.68081,N,00128.72983,E,1,04,6.77,152.0,M,53.8,M,,*41
18 11 07 32 4333.6807800128.72984151.9ó 00128.72984 151.9 1101101011 1100000110 1100110000 10000000001 10000111000 1100100110 1101011100 1111010100 1100001100 1101110000 1011010111 1100000010 10000010010 10000111010 1101100010 1100101001 1110110101 1100000010 25.563 51.758 1000.4 20726 16 14 14 58 51 4 $GNGGA,110732.00,4333.68078,N,00128.72984,E,1,04,6.78,151.9,M,53.8,M,,*46
19 11 07 33 4333.6813600128.72987152.1ó 00128.72987 152.1 1101101011 1100000111 1100110001 1111110111 10000110011 1100101001 1101011100 1111010111 1100001101 1101101111 1011010100 1011111111 10000010110 10000111100 1101100000 1100100010 1110111001 1100000000 25.563 51.766 1000.4 21725 17 15 13 59 51 4 $GNGGA,110733.00,4333.68136,N,00128.72987,E,1,04,6.78,152.1,M,53.8,M,,*44
20 11 07 34 4333.6816700128.73021152.2ó 00128.73021 152.2 1101101011 1100000100 1100110000 1111111101 10000110111 1100101100 1101011110 1111010101 1100001111 1101101111 1011010100 1011111111 10000011001 10000111100 1101100010 1100101010 1111000001 1100000110 25.563 51.789 1000.4 22725 18 15 13 60 50 4 $GNGGA,110734.00,4333.68167,N,00128.73021,E,1,04,6.78,152.2,M,53.8,M,,*40
21 11 07 35 4333.6823100128.72932152.4ó 00128.72932 152.4 1101101011 1100000100 1100101111 1111111000 10000110011 1100101000 1101011100 1111011010 1100010010 1101101111 1011010110 1100000010 10000010001 10000111001 1101100000 1100101000 1110111011 1100000011 25.563 51.796 1000.4 23723 17 16 14 59 50 4 $GNGGA,110735.00,4333.68231,N,00128.72932,E,1,04,6.78,152.4,M,53.8,M,,*4D
22 11 07 36 4333.6821500128.72970152.3ó 00128.72970 152.3 1101101011 1100000111 1100110010 1111111011 10000110111 1100100101 1101011011 1111011111 1100011010 1101101111 1011010111 1100000001 10000010100 10000111010 1101011001 1100100011 1110111001 1100001010 25.563 51.796 1000.4 24723 17 15 14 60 51 3 $GNGGA,110736.00,4333.68215,N,00128.72970,E,1,04,6.78,152.3,M,53.8,M,,*49
23 11 07 37 4333.6823700128.72982152.4ó 00128.72982 152.4 1101101011 1100001000 1100110000 1111111111 10000110110 1100100101 1101011101 1111100000 1100001101 1101101111 1011010110 1100000001 10000010011 10000111100 1101011111 1100100101 1110110111 1011111110 25.563 51.774 1000.4 25721 17 14 14 59 50 4 $GNGGA,110737.00,4333.68237,N,00128.72982,E,1,04,6.78,152.4,M,53.8,M,,*42
24 11 07 38 4333.6822600128.72983152.4ó 00128.72983 152.4 1101101011 1100000111 1100110000 1111111001 10000110111 1100100001 1101011000 1111100001 1100010000 1101101111 1011010100 1100000001 10000010101 10000111010 1101011100 1100100011 1110111111 1100000111 25.563 51.758 1000.4 26721 16 16 14 59 52 3 $GNGGA,110738.00,4333.68226,N,00128.72983,E,1,04,6.78,152.4,M,53.8,M,,*4C
25 11 07 39 4333.6820300128.72996152.4ó 00128.72996 152.4 1101101011 1100000111 1100101111 1111111110 10000110101 1100100100 1101011110 1111011111 1100010001 1101101111 1011010001 1011111110 10000001111 10000111100 1101011110 1100100001 1110111010 1100000011 25.563 51.758 1000.5 27719 17 14 13 59 51 4 $GNGGA,110739.00,4333.68203,N,00128.72996,E,1,04,6.78,152.4,M,53.8,M,,*4E
26 11 07 40 4333.6819800128.73008152.3ó 00128.73008 152.3 1101101011 1100000101 1100101111 10000000111 10000110100 1100101101 1101011111 1111010111 1100000111 1101101111 1011010101 1100000011 10000001110 10000111100 1101011111 1100100111 1110111100 1100010000 25.563 51.751 1000.5 28719 16 16 14 59 51 4 $GNGGA,110740.00,4333.68198,N,00128.73008,E,1,04,6.79,152.3,M,53.8,M,,*48
27 11 07 41 4333.6818800128.73023152.2ó 00128.73023 152.2 1101101011 1100000111 1100110010 10000000101 10000110110 1100101100 1101100100 1111010111 1100000111 1101101111 1011010010 1011111111 10000000100 10000111001 1101011011 1100100011 1110110100 1100001000 25.563 51.743 1000.5 29717 17 14 13 59 51 4 $GNGGA,110741.00,4333.68188,N,00128.73023,E,1,03,2.83,152.2,M,53.8,M,,*46
28 11 07 42 4333.6817200128.73044152.1ó 00128.73044 152.1 1101101011 1100000101 1100101111 10000000110 10000110110 1100101010 1101100000 1111011100 1100010000 1101110000 1011010011 1100000001 10000001001 10000111101 1101100011 1100100111 1110111011 1011111010 25.563 51.735 1000.5 30714 16 15 15 59 51 3 $GNGGA,110742.00,4333.68172,N,00128.73044,E,1,03,2.83,152.1,M,53.8,M,,*42
29 11 07 43 Nan Nan Nan 1101101010 1100000111 1100110001 1111111111 10000110111 1100101011 1101100000 1111100000 1100001011 1101110000 1011010100 1100000001 10000000010 10000111000 1101100101 1100101000 1111000010 1100001010 25.563 51.720 1000.4 31705 16 8 11 59 51 4 $GNGGA,110743.00,,,,,0,00,29.1,,,,,,*42
30 11 07 44 Nan Nan Nan 1101101011 1100000110 1100110000 10000000000 10000110110 1100100111 1101011110 1111100101 1100010100 1101101111 1011010101 1100000010 10000001100 10000111101 1101011111 1100100111 1110111000 1100000110 25.563 51.720 1000.4 32704 17 7 11 60 51 3 $GNGGA,110744.00,,,,,0,00,29.1,,,,,,*45
31 11 07 45 4333.6820900128.72748151.3ó 00128.72748 151.3 1101101011 1100000110 1100101111 10000001000 10000111000 1100101001 1101011010 1111011110 1100010001 1101101111 1011010001 1100000000 10000000111 10000111011 1101100000 1100100110 1110111011 1100000110 25.563 51.713 1000.4 33714 17 16 13 59 51 4 $GNGGA,110745.00,4333.68209,N,00128.72748,E,1,03,2.83,151.3,M,53.8,M,,*41
32 11 07 46 4333.6824200128.72748151.4ó 00128.72748 151.4 1101101011 1100000011 1100101111 10000000000 10000110110 1100101001 1101100001 1111100000 1100010111 1101101111 1011010011 1011111111 10000000110 10000111011 1101011000 1100100010 1111000001 1100001101 25.563 51.713 1000.5 34711 17 14 13 59 51 4 $GNGGA,110746.00,4333.68242,N,00128.72748,E,1,03,2.83,151.4,M,53.8,M,,*4A
33 11 07 47 4333.6821600128.72807151.4ó 00128.72807 151.4 1101101011 1100000110 1100110011 10000000000 10000111000 1100110000 1101100001 1111011110 1100010000 1101101111 1011010011 1100000000 10000000101 10000111100 1101011111 1100100110 1110111111 1100001101 25.563 51.705 1000.4 35710 16 14 14 58 51 4 $GNGGA,110747.00,4333.68216,N,00128.72807,E,1,03,2.83,151.4,M,53.8,M,,*4E
34 11 07 48 4333.6820200128.72840151.5ó 00128.72840 151.5 1101101011 1100000110 1100110000 1111111110 10000110111 1100101001 1101100000 1111010100 1100001010 1101110000 1011010001 1011111111 10000000001 10000111001 1101100101 1100100110 1110110111 1100001011 25.563 51.690 1000.4 36709 18 14 13 60 50 4 $GNGGA,110748.00,4333.68202,N,00128.72840,E,1,03,2.83,151.5,M,53.8,M,,*46
35 11 07 49 4333.6819800128.72880151.6ó 00128.72880 151.6 1101101011 1100000110 1100110001 1111111010 10000110110 1100101100 1101100001 1111011111 1100010101 1101101111 1011010000 1100000010 10000001000 10000111101 1101100011 1100100110 1110111010 1100000111 25.625 51.690 1000.5 37708 16 15 15 59 51 3 $GNGGA,110749.00,4333.68198,N,00128.72880,E,1,03,2.83,151.6,M,53.8,M,,*48
36 11 07 50 4333.6823300128.72884151.6ó 00128.72884 151.6 1101101011 1100000110 1100101101 1111111110 10000110100 1100100000 1101011011 1111010111 1100001010 1101101111 1011010001 1100000010 10000000111 10000111100 1101011111 1100101000 1110111000 1011111111 25.625 51.667 1000.4 38708 16 16 14 59 52 3 $GNGGA,110750.00,4333.68233,N,00128.72884,E,1,03,2.83,151.6,M,53.8,M,,*46
37 11 07 51 4333.6822300128.72961151.3ó 00128.72961 151.3 1101101011 1100000110 1100110001 10000000010 10000110100 1100101000 1101011111 1111010111 1100001100 1101101111 1011010001 1011111111 10000001100 10000111100 1101100001 1100100100 1110110011 1011111100 25.625 51.636 1000.5 39706 17 14 14 60 51 3 $GNGGA,110751.00,4333.68223,N,00128.72961,E,1,04,3.06,151.3,M,53.8,M,,*42
38 11 07 52 4333.6816700128.73061151.0ó 00128.73061 151.0 1101101011 1100000011 1100101110 1111111111 10000111000 1100101010 1101011101 1111011010 1100010011 1101101111 1011001111 1100000000 10000000011 10000111011 1101100001 1100101010 1110111000 1011111111 25.563 51.644 1000.5 40706 16 15 13 58 51 5 $GNGGA,110752.00,4333.68167,N,00128.73061,E,1,04,3.06,151.0,M,53.8,M,,*49
39 11 07 53 4333.6817300128.73097151.0ó 00128.73097 151.0 1101101011 1100000010 1100101110 1111111011 10000110100 1100101100 1101011110 1111010011 1100001111 1101110000 1011010010 1100000001 10000000011 10000111001 1101100100 1100101000 1110110010 1100001100 25.625 51.659 1000.5 41703 17 15 14 60 51 3 $GNGGA,110753.00,4333.68173,N,00128.73097,E,1,03,2.83,151.0,M,53.8,M,,*4F
40 11 07 54 4333.6817500128.73138151.0ó 00128.73138 151.0 1101101011 1100000101 1100110010 1111111110 10000111001 1100101001 1101100000 1111011001 1100010000 1101110000 1011010110 1100000000 10000001001 10000111001 1101011111 1100100101 1110111000 1100000101 25.563 51.667 1000.5 42703 16 15 15 59 51 3 $GNGGA,110754.00,4333.68175,N,00128.73138,E,1,03,2.83,151.0,M,53.8,M,,*4A
41 11 07 55 4333.6820400128.73158151.1ó 00128.73158 151.1 1101101011 1100000110 1100110010 10000000011 10000110111 1100100110 1101011100 1111010001 1100000101 1101110000 1011010110 1100000001 10000001110 10000111011 1101100000 1100101000 1110110100 1100000101 25.625 51.659 1000.5 43702 16 15 13 59 51 4 $GNGGA,110755.00,4333.68204,N,00128.73158,E,1,03,2.83,151.1,M,53.8,M,,*49
42 11 07 56 4333.6823500128.73173151.1ó 00128.73173 151.1 1101101011 1100000011 1100101111 1111111101 10000110101 1100101111 1101100010 1111100010 1100010100 1101110000 1011010100 1100000001 10000001001 10000111010 1101011101 1100100011 1110111101 1100000101 25.563 51.644 1000.5 44702 17 15 14 60 50 4 $GNGGA,110756.00,4333.68235,N,00128.73173,E,1,03,2.83,151.1,M,53.8,M,,*41
43 11 07 57 4333.6819200128.73254151.1ó 00128.73254 151.1 1101101011 1100000100 1100101100 1111111000 10000110011 1100100011 1101011010 1111011101 1100001000 1101110000 1011010001 1100000000 10000001100 10000111010 1101100011 1100101000 1111000000 1100001110 25.563 51.629 1000.5 45700 17 15 13 59 50 5 $GNGGA,110757.00,4333.68192,N,00128.73254,E,1,03,2.83,151.1,M,53.8,M,,*48
44 11 07 58 4333.6820300128.73259151.2ó 00128.73259 151.2 1101101011 1100000101 1100101101 10000000000 10000111001 1100100111 1101011110 1111100000 1100010000 1101101111 1011010001 1011111110 10000000011 10000111100 1101011110 1100100010 1110111111 1100001101 25.563 51.629 1000.5 46700 17 15 14 60 51 3 $GNGGA,110758.00,4333.68203,N,00128.73259,E,1,03,2.83,151.2,M,53.8,M,,*42
45 11 07 59 4333.6824700128.73292151.3ó 00128.73292 151.3 1101101011 1100000101 1100110010 1111111000 10000110110 1100101100 1101100000 1111011000 1100000101 1101101111 1011011000 1100000010 10000000101 10000111010 1101100111 1100101101 1111000000 1100001011 25.625 51.613 1000.5 47698 16 14 14 58 51 4 $GNGGA,110759.00,4333.68247,N,00128.73292,E,1,04,3.96,151.3,M,53.8,M,,*47
46 11 08 00 4333.6828200128.73279151.3ó 00128.73279 151.3 1101101011 1100000101 1100101111 1111111001 10000110111 1100100110 1101011000 1111100000 1100001101 1101101111 1011010010 1011111110 10000001001 10000111011 1101100100 1100100110 1110111100 1100000101 25.563 51.613 1000.5 48697 18 14 13 60 50 4 $GNGGA,110800.00,4333.68282,N,00128.73279,E,1,04,3.96,151.3,M,53.8,M,,*48
47 11 08 01 4333.6825600128.73363151.3ó 00128.73363 151.3 1101101011 1100000101 1100110001 1111111101 10000111001 1100100110 1101011010 1111010100 1100001000 1101101111 1011010011 1100000001 10000000011 10000111011 1101011100 1100100111 1110111010 1100000110 25.625 51.621 1000.5 49697 17 15 14 59 50 4 $GNGGA,110801.00,4333.68256,N,00128.73363,E,1,04,3.96,151.3,M,53.8,M,,*4A
48 11 08 02 4333.6824400128.73448151.2ó 00128.73448 151.2 1101101011 1100001000 1100110001 1111111100 10000110110 1100101000 1101100100 1111011010 1100001100 1101110000 1011010011 1011111111 10000001001 10000111011 1101100010 1100101100 1110111001 1100000100 25.625 51.621 1000.5 50695 16 15 13 58 52 4 $GNGGA,110802.00,4333.68244,N,00128.73448,E,1,04,3.96,151.2,M,53.8,M,,*45
49 11 08 03 4333.6822300128.73530151.2ó 00128.73530 151.2 1101101011 1100000110 1100110001 1111111110 10000111001 1100101110 1101100011 1111011000 1100001000 1101110000 1011010110 1100000001 10000001111 10000111100 1101100100 1100100110 1110111110 1100001100 25.625 51.629 1000.5 51694 17 15 14 60 51 3 $GNGGA,110803.00,4333.68223,N,00128.73530,E,1,04,3.96,151.2,M,53.8,M,,*4B
50 11 08 04 4333.6821600128.73620151.1ó 00128.73620 151.1 1101101011 1100000101 1100101111 1111111010 10000111001 1100101110 1101100000 1111010110 1100000000 1101101111 1011010110 1100000001 10000001011 10000111001 1101011111 1100101000 1110111110 1100001000 25.563 51.613 1000.5 52690 16 14 14 58 51 4 $GNGGA,110804.00,4333.68216,N,00128.73620,E,1,04,3.96,151.1,M,53.8,M,,*4B
51 11 08 05 4333.6822300128.73692151.2ó 00128.73692 151.2 1101101011 1100000011 1100101100 10000000011 10000111010 1100101001 1101011110 1111010110 1100000100 1101110000 1011010010 1011111111 10000001100 10000111011 1101011101 1100100100 1110110111 1011111111 25.625 51.598 1000.5 53691 17 14 13 60 50 4 $GNGGA,110805.00,4333.68223,N,00128.73692,E,1,04,3.96,151.2,M,53.8,M,,*46
52 11 08 06 4333.6823700128.73691151.2ó 00128.73691 151.2 1101101011 1100000110 1100101110 1111111100 10000110110 1100100111 1101011010 1111010101 1100000010 1101101111 1011010100 1100000000 10000010000 10000111010 1101011011 1100100111 1110110110 1100000100 25.563 51.590 1000.5 54690 16 15 15 59 51 3 $GNGGA,110806.00,4333.68237,N,00128.73691,E,1,04,3.96,151.2,M,53.8,M,,*43
53 11 08 07 4333.6828000128.73724151.2ó 00128.73724 151.2 1101101011 1100000100 1100110001 1111111111 10000111000 1100100101 1101010101 1111011001 1100001101 1101110000 1011010010 1011111111 10000010001 10000111100 1101011101 1100100001 1110111001 1100001000 25.625 51.568 1000.5 55689 16 16 14 59 52 3 $GNGGA,110807.00,4333.68280,N,00128.73724,E,1,04,3.96,151.2,M,53.8,M,,*41
54 11 08 08 4333.6829800128.73715151.3ó 00128.73715 151.3 1101101011 1100000101 1100101100 10000000000 10000111001 1100101000 1101011011 1111011100 1100001100 1101101111 1011010001 1011111101 10000011011 10000111101 1101100001 1100100100 1110111011 1100000110 25.625 51.560 1000.5 56688 17 15 14 60 51 3 $GNGGA,110808.00,4333.68298,N,00128.73715,E,1,04,3.96,151.3,M,53.8,M,,*44
55 11 08 09 4333.6833500128.73751151.3ó 00128.73751 151.3 1101101011 1100000111 1100101111 1111111011 10000110110 1100100011 1101010111 1111011001 1100001011 1101110000 1011010100 1011111111 10000001110 10000111011 1101011110 1100100110 1110111011 1011111111 25.625 51.552 1000.5 57687 17 15 14 59 50 4 $GNGGA,110809.00,4333.68335,N,00128.73751,E,1,04,3.96,151.3,M,53.8,M,,*43
56 11 08 10 4333.6836700128.73797151.3ó 00128.73797 151.3 1101101011 1100000100 1100110010 10000000000 10000111001 1100101010 1101100000 1111010110 1100001111 1101101111 1011010100 1100000010 10000010011 10000111110 1101011101 1100100110 1111000010 1100000100 25.625 51.552 1000.5 58686 17 14 13 59 51 4 $GNGGA,110810.00,4333.68367,N,00128.73797,E,1,04,3.96,151.3,M,53.8,M,,*46
57 11 08 11 4333.6841500128.73824151.3ó 00128.73824 151.3 1101101011 1100001000 1100110000 1111111100 10000110111 1100100000 1101011010 1111100001 1100010101 1101101111 1011010100 1100000011 10000001110 10000111011 1101100010 1100100110 1111000110 1100001100 25.563 51.545 1000.5 59684 16 15 15 59 51 3 $GNGGA,110811.00,4333.68415,N,00128.73824,E,1,04,3.96,151.3,M,53.8,M,,*42
58 11 08 12 4333.6844700128.73833151.3ó 00128.73833 151.3 1101101011 1100000110 1100110100 10000000000 10000111000 1100100100 1101011011 1111011011 1100010010 1101110000 1011010101 1100000000 10000001010 10000111011 1101100100 1100101010 1111000010 1100001011 25.563 51.529 1000.5 60684 16 15 14 59 52 3 $GNGGA,110812.00,4333.68447,N,00128.73833,E,1,04,3.96,151.3,M,53.8,M,,*40
59 11 08 13 4333.6847400128.73874151.3ó 00128.73874 151.3 1101101011 1100000111 1100110010 1111111111 10000111000 1100101010 1101011111 1111100011 1100010101 1101110000 1011001111 1100000000 10000000100 10000111100 1101011110 1100101010 1110111100 1100001001 25.563 51.507 1000.5 61682 18 14 13 60 50 4 $GNGGA,110813.00,4333.68474,N,00128.73874,E,1,04,3.96,151.3,M,53.8,M,,*42
60 11 08 14 4333.6850600128.73889151.2ó 00128.73889 151.2 1101101011 1100000100 1100101101 1111111110 10000111010 1100101010 1101100000 1111100001 1100010000 1101110000 1011010010 1011111110 10000001010 10000111011 1101100000 1100101000 1110111101 1100000111 25.625 51.491 1000.5 62681 16 15 13 59 50 5 $GNGGA,110814.00,4333.68506,N,00128.73889,E,1,03,2.83,151.2,M,53.8,M,,*40
61 11 08 15 4333.6853100128.73906151.2ó 00128.73906 151.2 1101101011 1100000110 1100101110 1111111001 10000110110 1100100100 1101011001 1111011110 1100010001 1101101111 1011010100 1100000000 10000010001 10000111101 1101011100 1100100011 1110110111 1100000011 25.625 51.491 1000.5 63679 17 15 14 60 51 3 $GNGGA,110815.00,4333.68531,N,00128.73906,E,1,03,2.83,151.2,M,53.8,M,,*43
62 11 08 16 4333.6854400128.73877151.2ó 00128.73877 151.2 1101101011 1100000110 1100101111 1111111111 10000110010 1100100011 1101011010 1111011100 1100010000 1101101111 1011010111 1011111111 10000001100 10000111011 1101101000 1100101100 1110110111 1100000101 25.625 51.514 1000.5 64679 16 15 15 59 51 3 $GNGGA,110816.00,4333.68544,N,00128.73877,E,1,04,3.96,151.2,M,53.8,M,,*47
63 11 08 17 4333.6860500128.73989151.2ó 00128.73989 151.2 1101101011 1100000101 1100101110 1111111010 10000110101 1100100101 1101011101 1111011101 1100001011 1101110000 1011010100 1100000001 10000001011 10000111101 1101011101 1100100100 1110111011 1100001110 25.563 51.568 1000.5 65679 17 15 14 60 51 3 $GNGGA,110817.00,4333.68605,N,00128.73989,E,1,04,3.96,151.2,M,53.8,M,,*40
64 11 08 18 4333.6864100128.74021151.2ó 00128.74021 151.2 1101101011 1100000111 1100110010 10000000011 10000111001 1100101011 1101100000 1111011011 1100001010 1101110000 1011010001 1011111110 10000010011 10000111101 1101100100 1100101011 1110110110 1100000101 25.563 51.613 1000.5 66677 16 14 14 58 51 4 $GNGGA,110818.00,4333.68641,N,00128.74021,E,1,03,2.83,151.2,M,53.8,M,,*41
65 11 08 19 4333.6867500128.74051151.2ó 00128.74051 151.2 1101101011 1100000101 1100110011 1111111100 10000110110 1100110000 1101100111 1111010111 1100010101 1101101111 1011010111 1100000011 10000001110 10000111011 1101100000 1100101000 1110111110 1100000111 25.625 51.659 1000.5 67677 17 16 13 59 51 4 $GNGGA,110819.00,4333.68675,N,00128.74051,E,1,03,2.83,151.2,M,53.8,M,,*40
66 11 08 20 4333.6871000128.74076151.3ó 00128.74076 151.3 1101101011 1100000101 1100101111 1111111101 10000110101 1100101000 1101011101 1111011011 1100010110 1101101111 1011011000 1100000100 10000001111 10000111001 1101100010 1100100011 1110110111 1100001010 25.563 51.674 1000.5 68675 17 14 13 59 51 4 $GNGGA,110820.00,4333.68710,N,00128.74076,E,1,03,2.83,151.3,M,53.8,M,,*4C
67 11 08 21 4333.6876400128.74232151.3ó 00128.74232 151.3 1101101011 1100000111 1100110000 1111110110 10000110110 1100101100 1101100000 1111011101 1100010000 1101110000 1011010101 1100000101 10000010101 10000111110 1101011110 1100101000 1110110100 1100000110 25.563 51.690 1000.5 69675 16 16 15 59 50 4 $GNGGA,110821.00,4333.68764,N,00128.74232,E,1,03,2.83,151.3,M,53.8,M,,*4C
68 11 08 22 4333.6879200128.74237151.3ó 00128.74237 151.3 1101101011 1100000111 1100110000 1111111010 10000111010 1100100011 1101010111 1111011101 1100010011 1101110000 1011010011 1011111111 10000001100 10000111010 1101011110 1100100011 1110111101 1100001001 25.625 51.682 1000.5 70673 17 15 14 60 51 3 $GNGGA,110822.00,4333.68792,N,00128.74237,E,1,03,2.83,151.3,M,53.8,M,,*43
69 11 08 23 4333.6883400128.74308151.3ó 00128.74308 151.3 1101101011 1100000101 1100110000 1111111110 10000110111 1100100111 1101100010 1111010111 1100001001 1101101111 1011010100 1100000000 10000001110 10000111010 1101011100 1100100010 1110111100 1100001010 25.563 51.652 1000.5 71672 16 14 15 59 51 3 $GNGGA,110823.00,4333.68834,N,00128.74308,E,1,03,2.83,151.3,M,53.8,M,,*4C
70 11 08 24 4333.6886200128.74387151.3ó 00128.74387 151.3 1101101011 1100000111 1100110011 10000000000 10000111001 1100100111 1101100000 1111011111 1100010011 1101101111 1011010011 1100000101 10000000111 10000111001 1101100110 1100101001 1111000001 1100001000 25.625 51.636 1000.5 72672 16 16 14 59 52 3 $GNGGA,110824.00,4333.68862,N,00128.74387,E,1,03,2.83,151.3,M,53.8,M,,*4F
71 11 08 25 4333.6886300128.74389151.3ó 00128.74389 151.3 1101101011 1100000110 1100110001 10000000000 10000111001 1100101010 1101100100 1111010100 1100000101 1101110000 1011010000 1011111110 10000001010 10000111100 1101011111 1100100001 1110111011 1100000000 25.625 51.621 1000.5 73670 17 14 13 60 50 4 $GNGGA,110825.00,4333.68863,N,00128.74389,E,1,03,2.83,151.3,M,53.8,M,,*41
72 11 08 26 4333.6891200128.74477151.3ó 00128.74477 151.3 1101101011 1100001000 1100110000 1111111001 10000110101 1100100111 1101011011 1111011111 1100001110 1101101111 1011010011 1011111111 10000001000 10000111100 1101011110 1100100011 1110111011 1100001110 25.625 51.613 1000.5 74669 16 15 13 58 51 5 $GNGGA,110826.00,4333.68912,N,00128.74477,E,1,03,2.83,151.3,M,53.8,M,,*43
73 11 08 27 4333.6892700128.74463151.4ó 00128.74463 151.4 1101101011 1100000100 1100110000 1111111101 10000111001 1100100011 1101011000 1111010011 1100000110 1101110000 1011010010 1100000000 10000000011 10000111011 1101011111 1100101000 1110111001 1100001001 25.625 51.598 1000.5 75668 17 15 14 60 50 4 $GNGGA,110827.00,4333.68927,N,00128.74463,E,1,03,2.83,151.4,M,53.8,M,,*46
74 11 08 28 4333.6896400128.74452151.4ó 00128.74452 151.4 1101101011 1100000111 1100101111 1111111011 10000110101 1100100111 1101011100 1111010110 1100001100 1101101111 1011010010 1100000000 10000001000 10000111011 1101100001 1100100111 1110110100 1011111111 25.563 51.598 1000.5 76667 16 15 15 59 51 3 $GNGGA,110828.00,4333.68964,N,00128.74452,E,1,03,2.83,151.4,M,53.8,M,,*4C
75 11 08 29 4333.6899200128.74387151.3ó 00128.74387 151.3 1101101011 1100000111 1100101111 1111111101 10000110100 1100100111 1101011111 1111100001 1100011010 1101110000 1011010101 1100000000 10000010011 10000111010 1101011111 1100100110 1110111010 1100000010 25.625 51.606 1000.5 77666 16 15 13 58 52 4 $GNGGA,110829.00,4333.68992,N,00128.74387,E,1,03,2.83,151.3,M,53.8,M,,*4C
76 11 08 30 4333.6902400128.74435151.3ó 00128.74435 151.3 1101101011 1100000111 1100110001 10000000010 10000111000 1100101001 1101011001 1111011110 1100010100 1101101111 1011010001 1011111110 10000000100 10000111010 1101100010 1100101011 1110111101 1100000111 25.625 51.598 1000.5 78664 18 14 13 60 50 4 $GNGGA,110830.00,4333.69024,N,00128.74435,E,1,03,2.83,151.3,M,53.8,M,,*4F
77 11 08 31 4333.6900800128.74494151.3ó 00128.74494 151.3 1101101011 1100000100 1100101110 10000000010 10000111000 1100101101 1101100010 1111100001 1100010011 1101110000 1011010001 1011111110 10000001001 10000111011 1101100010 1100101010 1110110100 1011111111 25.625 51.606 1000.5 79664 16 16 14 59 51 4 $GNGGA,110831.00,4333.69008,N,00128.74494,E,1,03,2.83,151.3,M,53.8,M,,*4B
78 11 08 32 4333.6900700128.74442151.3ó 00128.74442 151.3 1101101011 1100000101 1100110000 1111111100 10000110110 1100101101 1101100001 1111011010 1100001110 1101110000 1011010111 1100000101 10000001111 10000111011 1101011111 1100101011 1110110100 1011110111 25.563 51.606 1000.5 80663 18 14 13 60 50 4 $GNGGA,110832.00,4333.69007,N,00128.74442,E,1,03,2.83,151.3,M,53.8,M,,*4C
79 11 08 33 4333.6900400128.74399151.4ó 00128.74399 151.4 1101101011 1100000101 1100110010 1111110111 10000110110 1100100011 1101010111 1111011110 1100010101 1101110000 1011010001 1011111101 10000001010 10000111001 1101011101 1100100101 1110110111 1100000101 25.625 51.659 1000.5 81660 17 15 14 59 50 4 $GNGGA,110833.00,4333.69004,N,00128.74399,E,1,03,2.84,151.4,M,53.8,M,,*4F
80 11 08 34 4333.6904800128.74444151.4ó 00128.74444 151.4 1101101011 1100000110 1100110001 1111111100 10000110111 1100100111 1101011001 1111100001 1100010011 1101110000 1011010010 1011111110 10000010100 10000111101 1101011100 1100100100 1110111001 1100000111 25.625 51.728 1000.5 82662 18 15 13 60 50 4 $GNGGA,110834.00,4333.69048,N,00128.74444,E,1,03,2.84,151.4,M,53.8,M,,*47
81 11 08 35 4333.6903500128.74282151.3ó 00128.74282 151.3 1101101011 1100001000 1100110011 10000000000 10000111010 1100101010 1101011010 1111100000 1100010111 1101110000 1011010011 1100000000 10000010010 10000111010 1101011101 1100100011 1110111010 1100000010 25.625 51.766 1000.5 83660 16 14 14 58 51 4 $GNGGA,110835.00,4333.69035,N,00128.74282,E,1,03,2.84,151.3,M,53.8,M,,*47
82 11 08 36 4333.6885100128.73887148.6ó 00128.73887 148.6 1101101011 1100000101 1100101111 10000000001 10000111010 1100100100 1101011010 1111010001 1100001000 1101101111 1011010100 1100000001 10000001100 10000111010 1101010111 1100100011 1110110000 1100000000 25.625 51.789 1000.5 84659 16 15 13 58 52 4 $GNGGA,110836.00,4333.68851,N,00128.73887,E,1,04,3.96,148.6,M,53.8,M,,*4F
83 11 08 37 4333.6872000128.73542147.0ó 00128.73542 147.0 1101101011 1100000101 1100101111 1111110110 10000110101 1100101010 1101011100 1111011010 1100001010 1101101111 1011010011 1011111100 10000001110 10000111010 1101100011 1100101000 1110110101 1011111100 25.625 51.804 1000.5 85658 17 15 14 60 51 3 $GNGGA,110837.00,4333.68720,N,00128.73542,E,1,04,3.96,147.0,M,53.8,M,,*4A
84 11 08 38 4333.6866900128.73334146.1ó 00128.73334 146.1 1101101011 1100000101 1100101110 1111110101 10000110110 1100101011 1101100000 1111011010 1100010000 1101101111 1011010101 1100000011 10000001101 10000111001 1101100011 1100101111 1110110011 1011111011 25.625 51.819 1000.5 86657 16 15 14 59 50 4 $GNGGA,110838.00,4333.68669,N,00128.73334,E,1,04,3.96,146.1,M,53.8,M,,*4E
85 11 08 39 4333.6862400128.73181145.7ó 00128.73181 145.7 1101101011 1100000100 1100101110 1111111011 10000110100 1100101010 1101011111 1111100001 1100010000 1101101111 1011010101 1100000001 10000010001 10000111011 1101100010 1100100111 1110110011 1100000110 25.625 51.827 1000.5 87655 18 14 13 60 50 4 $GNGGA,110839.00,4333.68624,N,00128.73181,E,1,04,3.96,145.7,M,53.8,M,,*4F
86 11 08 40 4333.6858500128.72957145.5ó 00128.72957 145.5 1101101011 1100000110 1100110001 1111111000 10000111001 1100101100 1101100010 1111100110 1100010101 1101101111 1011010010 1100000000 10000001101 10000111011 1101100010 1100100111 1110111011 1100000111 25.563 51.835 1000.5 88654 16 14 15 59 51 3 $GNGGA,110840.00,4333.68585,N,00128.72957,E,1,04,3.96,145.5,M,53.8,M,,*49
87 11 08 41 4333.6854600128.72682145.5ó 00128.72682 145.5 1101101011 1100000111 1100110010 10000000000 10000111101 1100101001 1101011001 1111011110 1100001001 1101101111 1011010010 1011111100 10000001010 10000111011 1101011110 1100100111 1110111001 1100000111 25.625 51.819 1000.5 89654 16 16 14 59 52 3 $GNGGA,110841.00,4333.68546,N,00128.72682,E,1,04,3.96,145.5,M,53.8,M,,*40
88 11 08 42 4333.6852400128.72563145.5ó 00128.72563 145.5 1101101011 1100000101 1100101101 1111111000 10000110011 1100110000 1101100100 1111011000 1100001010 1101101111 1011010010 1100000000 10000001110 10000111010 1101100100 1100101110 1110110101 1100000101 25.625 51.812 1000.5 90652 18 14 13 60 50 4 $GNGGA,110842.00,4333.68524,N,00128.72563,E,1,04,3.96,145.5,M,53.8,M,,*4B
89 11 08 43 4333.6851400128.72457145.5ó 00128.72457 145.5 1101101011 1100000110 1100101111 10000000011 10000111000 1100101000 1101011110 1111011000 1100001001 1101110000 1011010010 1011111110 10000001110 10000111011 1101011111 1100101010 1110110111 1100000101 25.625 51.804 1000.5 91652 16 16 14 59 51 4 $GNGGA,110843.00,4333.68514,N,00128.72457,E,1,04,3.96,145.5,M,53.8,M,,*4F
90 11 08 44 4333.6853600128.72401145.5ó 00128.72401 145.5 1101101011 1100000110 1100110000 1111111111 10000110111 1100100110 1101011111 1111011000 1100001011 1101101111 1011010000 1011111101 10000010000 10000111010 1101100001 1100101000 1110111000 1100001001 25.563 51.796 1000.5 92649 17 14 14 60 51 3 $GNGGA,110844.00,4333.68536,N,00128.72401,E,1,04,3.96,145.5,M,53.8,M,,*4B
91 11 08 45 4333.6850400128.72276145.7ó 00128.72276 145.7 1101101011 1100000111 1100110000 10000000000 10000110111 1100100111 1101011101 1111011000 1100001001 1101101111 1011010010 1011111111 10000001111 10000111010 1101011110 1100100100 1110110010 1100001001 25.625 51.789 1000.5 93649 16 15 15 59 51 3 $GNGGA,110845.00,4333.68504,N,00128.72276,E,1,04,3.96,145.7,M,53.8,M,,*4F
92 11 08 46 4333.6849400128.72260146.0ó 00128.72260 146.0 1101101011 1100000110 1100110000 10000000000 10000111000 1100100100 1101011011 1111011000 1100000100 1101101111 1011010010 1100000001 10000001100 10000111011 1101011011 1100100110 1111000000 1100001111 25.625 51.774 1000.5 94648 16 15 13 58 52 4 $GNGGA,110846.00,4333.68494,N,00128.72260,E,1,04,3.96,146.0,M,53.8,M,,*47
93 11 08 47 4333.6850000128.72225146.1ó 00128.72225 146.1 1101101011 1100000111 1100110000 1111110111 10000110100 1100100101 1101100000 1111011011 1100010010 1101110000 1011010001 1011111111 10000001100 10000111011 1101100001 1100101001 1111000011 1100010010 25.625 51.766 1000.5 95647 16 15 15 59 51 3 $GNGGA,110847.00,4333.68500,N,00128.72225,E,1,04,3.96,146.1,M,53.8,M,,*4A
94 11 08 48 4333.6848800128.72164146.2ó 00128.72164 146.2 1101101011 1100000110 1100110011 1111111111 10000111011 1100101101 1101100010 1111100000 1100010110 1101110000 1011010010 1100000001 10000001010 10000111110 1101100010 1100100110 1110111101 1100001000 25.625 51.743 1000.5 96646 16 16 14 59 52 3 $GNGGA,110848.00,4333.68488,N,00128.72164,E,1,04,3.96,146.2,M,53.8,M,,*41
95 11 08 49 4333.6848600128.72154146.6ó 00128.72154 146.6 1101101011 1100000110 1100110000 1111111100 10000110110 1100101111 1101100100 1111011001 1100001100 1101101111 1011010101 1100000000 10000000100 10000111010 1101100011 1100100111 1110111100 1100001001 25.625 51.728 1000.5 97645 17 15 14 60 51 3 $GNGGA,110849.00,4333.68486,N,00128.72154,E,1,03,2.84,146.6,M,53.8,M,,*4C
96 11 08 50 4333.6849100128.72117146.8ó 00128.72117 146.8 1101101011 1100000101 1100101100 1111111111 10000110111 1100100110 1101011111 1111011011 1100010101 1101110000 1011010100 1100000000 10000000000 10000111010 1101100111 1100101111 1110110101 1100001010 25.625 51.720 1000.5 98644 16 15 15 59 51 3 $GNGGA,110850.00,4333.68491,N,00128.72117,E,1,03,2.84,146.8,M,53.8,M,,*4B
97 11 08 51 4333.6852400128.72041146.9ó 00128.72041 146.9 1101101011 1100000110 1100101110 1111111111 10000110111 1100101001 1101011111 1111011011 1100010001 1101101111 1011010010 1011111111 10000000111 10000111110 1101100011 1100101001 1111000000 1100001111 25.625 51.713 1000.5 99642 17 15 14 60 51 3 $GNGGA,110851.00,4333.68524,N,00128.72041,E,1,03,2.84,146.9,M,53.8,M,,*46
98 11 08 52 4333.6855100128.72025147.0ó 00128.72025 147.0 1101101011 1100000111 1100101110 1111111110 10000111001 1100101100 1101100011 1111100000 1100010101 1101110000 1011010110 1100000001 10000000101 10000111011 1101100001 1100101001 1110111000 1100000011 25.625 51.690 1000.5 100642 16 14 14 58 51 4 $GNGGA,110852.00,4333.68551,N,00128.72025,E,1,03,2.84,147.0,M,53.8,M,,*4D
99 11 08 53 4333.6858700128.72024147.1ó 00128.72024 147.1 1101101011 1100000100 1100101101 1111111101 10000110101 1100101111 1101011111 1111011101 1100010001 1101110000 1011010010 1011111111 10000001000 10000111011 1101011111 1100101001 1110111101 1011111011 25.625 51.682 1000.5 101641 16 16 14 59 52 3 $GNGGA,110853.00,4333.68587,N,00128.72024,E,1,03,2.84,147.1,M,53.8,M,,*47
100 11 08 54 4333.6860300128.72020147.2ó 00128.72020 147.2 1101101011 1100001000 1100110000 1111111100 10000110110 1100101101 1101100000 1111011110 1100010110 1101110000 1011010011 1100000001 10000001001 10000111101 1101100011 1100100011 1110111011 1100000101 25.625 51.674 1000.5 102639 18 14 13 60 50 4 $GNGGA,110854.00,4333.68603,N,00128.72020,E,1,03,2.84,147.2,M,53.8,M,,*48
101 11 08 55 4333.6864800128.72081147.3ó 00128.72081 147.3 1101101011 1100000110 1100110011 10000000010 10000111001 1100101010 1101100010 1111100000 1100011101 1101110000 1011001111 1011111110 10000001000 10000111010 1101100000 1100101000 1110111100 1100001010 25.625 51.659 1000.5 103638 16 16 15 59 51 3 $GNGGA,110855.00,4333.68648,N,00128.72081,E,1,03,2.84,147.3,M,53.8,M,,*4C
102 11 08 56 4333.6867900128.72101147.4ó 00128.72101 147.4 1101101011 1100000111 1100110011 1111111000 10000110100 1100101111 1101011011 1111011101 1100010010 1101110000 1011010010 1011111111 10000000111 10000111010 1101011110 1100100101 1110111100 1100001010 25.625 51.652 1000.5 104638 17 14 13 60 51 4 $GNGGA,110856.00,4333.68679,N,00128.72101,E,1,03,2.84,147.4,M,53.8,M,,*43
103 11 08 57 4333.6864000128.71978147.6ó 00128.71978 147.6 1101101011 1100000110 1100110000 10000000000 10000111000 1100101001 1101100000 1111011010 1100010001 1101101111 1011010100 1100000001 10000001001 10000111011 1101011101 1100100010 1110111010 1100001011 25.625 51.644 1000.5 105636 16 15 15 59 51 3 $GNGGA,110857.00,4333.68640,N,00128.71978,E,1,03,2.84,147.6,M,53.8,M,,*4F
104 11 08 58 4333.6863600128.71993147.7ó 00128.71993 147.7 1101101011 1100000111 1100110001 1111110110 10000110110 1100101010 1101011111 1111010111 1100010110 1101101111 1011010010 1100000000 10000000111 10000111100 1101011110 1100100101 1110111010 1100001000 25.625 51.659 1000.5 106636 17 16 13 59 51 4 $GNGGA,110858.00,4333.68636,N,00128.71993,E,1,03,2.84,147.7,M,53.8,M,,*45
105 11 08 59 4333.6867100128.72093147.8ó 00128.72093 147.8 1101101011 1100000101 1100101111 1111111110 10000110111 1100101101 1101100010 1111011100 1100010001 1101101111 1011010110 1100000001 10000001110 10000111011 1101100010 1100101001 1111000000 1100001001 25.625 51.682 1000.5 107634 18 14 13 60 50 4 $GNGGA,110859.00,4333.68671,N,00128.72093,E,1,03,2.84,147.8,M,53.8,M,,*42
106 11 09 00 4333.6864200128.71948147.9ó 00128.71948 147.9 1101101011 1100000100 1100101110 1111111011 10000110110 1100100010 1101011010 1111010100 1100001101 1101110000 1011010110 1100000000 10000001111 10000111011 1101100011 1100101011 1110110111 1100000101 25.625 51.705 1000.5 108634 16 16 14 59 51 4 $GNGGA,110900.00,4333.68642,N,00128.71948,E,1,03,2.84,147.9,M,53.8,M,,*42
107 11 09 01 4333.6864200128.72015148.1ó 00128.72015 148.1 1101101011 1100000101 1100101100 1111111100 10000110110 1100101010 1101011011 1111011000 1100001100 1101101111 1011010110 1100000001 10000001010 10000111000 1101100100 1100101000 1110110111 1100000101 25.625 51.728 1000.5 109633 17 14 13 59 51 4 $GNGGA,110901.00,4333.68642,N,00128.72015,E,1,03,2.84,148.1,M,53.8,M,,*46
108 11 09 02 4333.6861300128.72011148.1ó 00128.72011 148.1 1101101011 1100000110 1100110001 1111111111 10000110110 1100100100 1101011100 1111011110 1100001100 1101110000 1011010101 1100000010 10000001010 10000111001 1101100000 1100100101 1110111111 1100001011 25.625 51.758 1000.5 110630 16 15 15 59 51 3 $GNGGA,110902.00,4333.68613,N,00128.72011,E,1,03,2.84,148.1,M,53.8,M,,*45
109 11 09 03 4333.6869400128.72107148.0ó 00128.72107 148.0 1101101011 1100000110 1100110000 1111111000 10000110001 1100101000 1101100010 1111011111 1100010010 1101110000 1011010101 1100000001 10000010011 10000111101 1101011011 1100100111 1110111101 1100000111 25.625 51.766 1000.5 111631 17 15 14 60 51 3 $GNGGA,110903.00,4333.68694,N,00128.72107,E,1,03,2.84,148.0,M,53.8,M,,*4C
110 11 09 04 4333.6869300128.72114148.0ó 00128.72114 148.0 1101101011 1100000110 1100110001 1111111100 10000111000 1100101111 1101011100 1111100000 1100001111 1101110000 1011010101 1100000101 10000001110 10000111011 1101100011 1100100110 1110111110 1100001000 25.625 51.766 1000.5 112630 17 15 14 59 50 4 $GNGGA,110904.00,4333.68693,N,00128.72114,E,1,03,2.84,148.0,M,53.8,M,,*4E
111 11 09 05 4333.6872600128.72235148.1ó 00128.72235 148.1 1101101011 1100000111 1100110011 1111111101 10000110110 1100100110 1101011001 1111011110 1100001101 1101101111 1011010010 1011111111 10000001100 10000111010 1101011001 1100100011 1110110101 1100000000 25.625 51.751 1000.5 113628 17 15 13 59 51 4 $GNGGA,110905.00,4333.68726,N,00128.72235,E,1,03,2.84,148.1,M,53.8,M,,*41
112 11 09 06 4333.6873800128.72331148.0ó 00128.72331 148.0 1101101011 1100001000 1100110011 1111111100 10000111001 1100101100 1101100001 1111010101 1100001100 1101101111 1011010011 1100000011 10000000111 10000111011 1101100010 1100101001 1110111010 1100001000 25.625 51.720 1000.5 114628 17 15 14 60 51 3 $GNGGA,110906.00,4333.68738,N,00128.72331,E,1,03,2.84,148.0,M,53.8,M,,*49
113 11 09 07 4333.6868700128.72299148.0ó 00128.72299 148.0 1101101011 1100000110 1100110000 10000000100 10000110110 1100100101 1101011001 1111010000 1100000100 1101101111 1011010010 1100000000 10000001100 10000111011 1101100111 1100101010 1110111101 1100001001 25.625 51.697 1000.5 115627 16 16 15 59 51 3 $GNGGA,110907.00,4333.68687,N,00128.72299,E,1,03,2.84,148.0,M,53.8,M,,*4E
114 11 09 08 4333.6868500128.72419147.9ó 00128.72419 147.9 1101101011 1100000011 1100101101 1111111101 10000110111 1100101000 1101011100 1111010100 1100000110 1101110000 1011001111 1011111101 10000001010 10000111011 1101100001 1100101010 1110111111 1100001001 25.625 51.690 1000.5 116626 17 15 14 60 50 4 $GNGGA,110908.00,4333.68685,N,00128.72419,E,1,03,2.84,147.9,M,53.8,M,,*4B
115 11 09 09 4333.6871100128.72577147.8ó 00128.72577 147.8 1101101011 1100000110 1100101111 10000001011 10000111011 1100101010 1101011101 1111001011 1100000011 1101101111 1011010010 1100000001 10000001101 10000111000 1101100010 1100100111 1111000000 1100001111 25.625 51.682 1000.5 117624 16 15 15 59 51 3 $GNGGA,110909.00,4333.68711,N,00128.72577,E,1,03,2.84,147.8,M,53.8,M,,*4E
116 11 09 10 4333.6874000128.72711147.8ó 00128.72711 147.8 1101101011 1100000100 1100110000 10000000011 10000110110 1100100110 1101011100 1111010011 1100000101 1101110000 1011010101 1100000001 10000000101 10000111010 1101011100 1100100001 1110111011 1100000111 25.563 51.667 1000.5 118623 16 16 14 59 52 3 $GNGGA,110910.00,4333.68740,N,00128.72711,E,1,03,2.84,147.8,M,53.8,M,,*40
117 11 09 11 4333.6869600128.72651147.7ó 00128.72651 147.7 1101101011 1100000101 1100110001 10000000011 10000111001 1100100111 1101011111 1111010001 1100000111 1101110000 1011010111 1100000001 10000001010 10000111100 1101011111 1100101010 1110111000 1100000101 25.563 51.659 1000.5 119622 17 14 14 60 51 3 $GNGGA,110911.00,4333.68696,N,00128.72651,E,1,03,2.84,147.7,M,53.8,M,,*41
118 11 09 12 4333.6872400128.72601147.7ó 00128.72601 147.7 1101101011 1100000100 1100101110 1111111110 10000110101 1100101001 1101011110 1111011001 1100001101 1101101111 1011010100 1100000000 10000001000 10000111011 1101100011 1100101110 1110111011 1100000011 25.563 51.644 1000.5 120621 16 16 15 59 51 3 $GNGGA,110912.00,4333.68724,N,00128.72601,E,1,03,2.84,147.7,M,53.8,M,,*4F
119 11 09 13 4333.6870700128.72512147.4ó 00128.72512 147.4 1101101011 1100000110 1100101101 1111111110 10000111000 1100101010 1101100000 1111010100 1100000100 1101101111 1011001110 1011111111 10000001001 10000111010 1101100010 1100100111 1110110110 1100000011 25.625 51.621 1000.5 121618 17 14 13 59 51 4 $GNGGA,110913.00,4333.68707,N,00128.72512,E,1,04,6.91,147.4,M,53.8,M,,*4A
120 11 09 14 4333.6874800128.72694147.5ó 00128.72694 147.5 1101101011 1100000100 1100101101 10000000000 10000110111 1100100100 1101011000 1111011101 1100010001 1101110000 1011010011 1100000001 10000001010 10000111011 1101100111 1100101100 1110110111 1100001000 25.625 51.613 1000.5 122619 17 15 14 59 50 4 $GNGGA,110914.00,4333.68748,N,00128.72694,E,1,04,6.91,147.5,M,53.8,M,,*4A
121 11 09 15 4333.6879400128.72924147.5ó 00128.72924 147.5 1101101011 1100000101 1100101101 10000000010 10000111001 1100101100 1101011110 1111011100 1100001111 1101110000 1011010101 1100000000 10000000100 10000111011 1101011101 1100100101 1110111000 1100000101 25.625 51.598 1000.5 123617 16 15 14 58 52 3 $GNGGA,110915.00,4333.68794,N,00128.72924,E,1,04,6.92,147.5,M,53.8,M,,*4D
122 11 09 16 4333.6883000128.72980147.7ó 00128.72980 147.7 1101101011 1100000010 1100101101 10000000010 10000111010 1100101010 1101100001 1111100001 1100010000 1101110000 1011010010 1100000001 10000001010 10000111100 1101011110 1100100011 1110101111 1100000000 25.625 51.598 1000.5 124615 17 14 13 60 50 4 $GNGGA,110916.00,4333.68830,N,00128.72980,E,1,03,2.84,147.7,M,53.8,M,,*47
123 11 09 17 4333.6885200128.73019147.4ó 00128.73019 147.4 1101101011 1100000101 1100101111 10000000010 10000110110 1100101011 1101011111 1111011010 1100000110 1101101111 1011001111 1100000000 10000001101 10000111010 1101011101 1100100011 1110110110 1100001000 25.625 51.590 1000.5 125615 17 16 13 59 50 5 $GNGGA,110917.00,4333.68852,N,00128.73019,E,1,04,6.92,147.4,M,53.8,M,,*4D
124 11 09 18 4333.6881400128.72975147.4ó 00128.72975 147.4 1101101011 1100001000 1100110001 10000000011 10000111010 1100101100 1101100000 1111100010 1100010111 1101110000 1011010010 1011111101 10000000111 10000111011 1101100000 1100100110 1110111101 1100000010 25.625 51.590 1000.5 126614 18 15 13 60 50 4 $GNGGA,110918.00,4333.68814,N,00128.72975,E,1,04,6.92,147.4,M,53.8,M,,*42
125 11 09 19 4333.6876400128.73074147.6ó 00128.73074 147.6 1101101011 1100000110 1100110001 1111111100 10000110111 1100011111 1101011001 1111100000 1100001110 1101101111 1011010001 1011111111 10000000101 10000111011 1101100101 1100100111 1110111110 1100001000 25.625 51.583 1000.5 127612 16 15 15 59 51 3 $GNGGA,110919.00,4333.68764,N,00128.73074,E,1,04,6.92,147.6,M,53.8,M,,*40
126 11 09 20 4333.6881600128.73261147.6ó 00128.73261 147.6 1101101011 1100000101 1100110000 1111111001 10000110100 1100011110 1101011000 1111100110 1100010010 1101110000 1011010010 1100000010 10000000101 10000111010 1101100001 1100100111 1110110010 1011111011 25.625 51.583 1000.5 128610 16 15 13 58 52 4 $GNGGA,110920.00,4333.68816,N,00128.73261,E,1,04,6.92,147.6,M,53.8,M,,*46
127 11 09 21 4333.6882200128.73275147.7ó 00128.73275 147.7 1101101011 1100000011 1100101101 1111111100 10000111000 1100101010 1101100000 1111011110 1100011000 1101110000 1011010011 1100000011 10000000011 10000111000 1101100111 1100101010 1111000100 1100001001 25.625 51.583 1000.5 129610 16 15 15 59 51 3 $GNGGA,110921.00,4333.68822,N,00128.73275,E,1,04,6.92,147.7,M,53.8,M,,*44
128 11 09 22 4333.6882000128.73323147.8ó 00128.73323 147.8 1101101011 1100000011 1100101110 1111111010 10000110110 1100101100 1101100000 1111100000 1100010010 1101110000 1011010011 1100000000 10000001000 10000111011 1101011010 1100100001 1111000001 1100001000 25.625 51.583 1000.5 130610 17 15 13 59 51 4 $GNGGA,110922.00,4333.68820,N,00128.73323,E,1,04,6.93,147.8,M,53.8,M,,*49
129 11 09 23 4333.6883100128.73298147.7ó 00128.73298 147.7 1101101011 1100000100 1100101110 1111111111 10000111001 1100101010 1101011100 1111011010 1100001100 1101110000 1011010111 1100000011 10000001101 10000111010 1101100001 1100101001 1110111100 1100000101 25.625 51.590 1000.5 131609 17 15 14 60 51 3 $GNGGA,110923.00,4333.68831,N,00128.73298,E,1,04,6.93,147.7,M,53.8,M,,*46
130 11 09 24 4333.6884200128.73443147.9ó 00128.73443 147.9 1101101011 1100000101 1100101111 1111111110 10000110110 1100100111 1101011110 1111010011 1100001011 1101101111 1011010011 1100000000 10000001111 10000111100 1101011111 1100100111 1110110110 1100000011 25.563 51.598 1000.5 132605 16 14 14 59 50 4 $GNGGA,110924.00,4333.68842,N,00128.73443,E,1,04,6.93,147.9,M,53.8,M,,*4B
131 11 09 25 4333.6883200128.73498147.9ó 00128.73498 147.9 1101101011 1100000100 1100101111 1111111111 10000110110 1100011101 1101010101 1111011010 1100000100 1101110000 1011010001 1011111111 10000001111 10000111100 1101100000 1100100101 1110111001 1100000011 25.625 51.575 1000.5 133607 18 15 13 60 50 4 $GNGGA,110925.00,4333.68832,N,00128.73498,E,1,04,6.93,147.9,M,53.8,M,,*4B
132 11 09 26 4333.6883800128.73568147.8ó 00128.73568 147.8 1101101011 1100000101 1100110010 1111111110 10000110111 1100101100 1101011111 1111010110 1100000110 1101101111 1011010110 1100000001 10000001011 10000111011 1101011011 1100100100 1110111000 1100001001 25.625 51.568 1000.5 134605 16 14 14 58 51 4 $GNGGA,110926.00,4333.68838,N,00128.73568,E,1,04,6.93,147.8,M,53.8,M,,*4D
133 11 09 27 4333.6885400128.73670148.0ó 00128.73670 148.0 1101101011 1100000110 1100110000 1111111001 10000111001 1100101001 1101011001 1111011110 1100010101 1101110000 1011010001 1011111110 10000001001 10000111001 1101011110 1100100110 1110110101 1100000110 25.625 51.552 1000.5 135605 16 16 14 59 52 3 $GNGGA,110927.00,4333.68854,N,00128.73670,E,1,04,6.93,148.0,M,53.8,M,,*4B
134 11 09 28 4333.6883600128.73631148.2ó 00128.73631 148.2 1101101011 1100000101 1100101110 10000000011 10000111011 1100100110 1101011100 1111011100 1100010101 1101110000 1011010011 1100000001 10000001001 10000111010 1101011010 1100100010 1110110000 1100000010 25.625 51.552 1000.5 136603 18 14 13 60 50 4 $GNGGA,110928.00,4333.68836,N,00128.73631,E,1,04,6.94,148.2,M,53.8,M,,*40
135 11 09 29 4333.6885600128.73692148.2ó 00128.73692 148.2 1101101011 1100001000 1100110000 1111111001 10000110100 1100100111 1101011100 1111011000 1100010001 1101101111 1011010101 1100000010 10000010100 10000111011 1101011110 1100100101 1110111110 1100001100 25.625 51.552 1000.5 137604 17 16 13 59 50 5 $GNGGA,110929.00,4333.68856,N,00128.73692,E,1,04,6.94,148.2,M,53.8,M,,*4E
136 11 09 30 4333.6881700128.73605148.2ó 00128.73605 148.2 1101101011 1100000101 1100101110 1111111110 10000111000 1100101011 1101011101 1111011101 1100001111 1101110000 1011010100 1100000011 10000010000 10000111011 1101100100 1100101101 1110111100 1100000000 25.625 51.568 1000.5 138601 17 14 14 60 51 3 $GNGGA,110930.00,4333.68817,N,00128.73605,E,1,04,6.94,148.2,M,53.8,M,,*4D
137 11 09 31 4333.6883800128.73606148.3ó 00128.73606 148.3 1101101011 1100000110 1100101110 10000000101 10000111001 1100101101 1101100011 1111011111 1100010100 1101110000 1011010001 1011111111 10000000110 10000111010 1101100010 1100101001 1110111010 1100000111 25.625 51.575 1000.5 139598 16 14 14 59 50 4 $GNGGA,110931.00,4333.68838,N,00128.73606,E,1,04,6.94,148.3,M,53.8,M,,*43
138 11 09 32 4333.6884400128.73665148.3ó 00128.73665 148.3 1101101011 1100000110 1100110010 1111111011 10000111000 1100101000 1101011011 1111100000 1100001000 1101110000 1011010011 1100000001 10000000111 10000111010 1101011110 1100100100 1110111001 1100000110 25.625 51.583 1000.5 140599 16 15 14 59 52 3 $GNGGA,110932.00,4333.68844,N,00128.73665,E,1,04,6.94,148.3,M,53.8,M,,*4E
139 11 09 33 4333.6885300128.73657148.4ó 00128.73657 148.4 1101101011 1100000100 1100101110 1111111111 10000111000 1100100111 1101011101 1111100001 1100000110 1101110000 1011010001 1011111110 10000001001 10000111011 1101100100 1100101101 1110111110 1100010001 25.625 51.575 1000.5 141598 17 14 13 58 51 4 $GNGGA,110933.00,4333.68853,N,00128.73657,E,1,04,6.94,148.4,M,53.8,M,,*4F
140 11 09 34 4333.6883800128.73691148.3ó 00128.73691 148.3 1101101011 1100000110 1100110001 1111111100 10000111001 1100100111 1101011111 1111011010 1100001010 1101110000 1011010101 1100000001 10000010000 10000111110 1101100011 1100101001 1111000010 1100010011 25.625 51.568 1000.5 142598 16 15 13 58 52 4 $GNGGA,110934.00,4333.68838,N,00128.73691,E,1,04,6.94,148.3,M,53.8,M,,*48
141 11 09 35 4333.6883000128.73624148.4ó 00128.73624 148.4 1101101011 1100000111 1100110000 1111111110 10000111000 1100100110 1101011110 1111010111 1100001101 1101110000 1011010100 1100000000 10000000111 10000111010 1101011101 1100100111 1110110110 1100000011 25.625 51.545 1000.5 143597 17 15 14 60 51 3 $GNGGA,110935.00,4333.68830,N,00128.73624,E,1,04,6.95,148.4,M,53.8,M,,*49
142 11 09 36 4333.6886100128.73678148.4ó 00128.73678 148.4 1101101011 1100001000 1100110001 1111111001 10000110100 1100100101 1101011010 1111100010 1100001111 1101101111 1011010010 1100000010 10000001000 10000111010 1101100111 1100101011 1110111000 1100000100 25.625 51.522 1000.5 144594 16 15 15 59 51 3 $GNGGA,110936.00,4333.68861,N,00128.73678,E,1,04,6.95,148.4,M,53.8,M,,*47
143 11 09 37 4333.6880400128.73590148.5ó 00128.73590 148.5 1101101011 1100000111 1100110001 1111111101 10000110111 1100101001 1101011001 1111011110 1100010101 1101101111 1011010010 1100000001 10000001101 10000111100 1101100011 1100101100 1110111110 1100001000 25.625 51.499 1000.5 145593 16 14 13 59 51 4 $GNGGA,110937.00,4333.68804,N,00128.73590,E,1,04,6.95,148.5,M,53.8,M,,*41
144 11 09 38 4333.6887300128.73734148.3ó 00128.73734 148.3 1101101011 1100000110 1100110001 10000000000 10000111001 1100101000 1101011110 1111011111 1100010001 1101110000 1011010000 1011111111 10000001001 10000111111 1101011100 1100100000 1110111101 1100001101 25.625 51.461 1000.5 146592 16 15 15 59 51 3 $GNGGA,110938.00,4333.68873,N,00128.73734,E,1,04,6.95,148.3,M,53.8,M,,*44
145 11 09 39 4333.6892100128.73839148.3ó 00128.73839 148.3 1101101011 1100000101 1100110000 1111111000 10000110100 1100101001 1101011101 1111010111 1100001101 1101101111 1011010010 1100000010 10000000000 10000111000 1101011001 1100011111 1110111101 1100001100 25.625 51.430 1000.5 147591 17 16 13 59 51 4 $GNGGA,110939.00,4333.68921,N,00128.73839,E,1,04,6.95,148.3,M,53.8,M,,*41
146 11 09 40 4333.6890600128.73879148.3ó 00128.73879 148.3 1101101011 1100000101 1100101100 10000000001 10000111000 1100101111 1101100001 1111100010 1100001101 1101101111 1011010000 1011111110 10000001010 10000111101 1101011111 1100101001 1110110111 1011111110 25.625 51.400 1000.5 148590 17 15 14 60 51 3 $GNGGA,110940.00,4333.68906,N,00128.73879,E,1,04,6.95,148.3,M,53.8,M,,*4E
147 11 09 41 4333.6888500128.73946148.3ó 00128.73946 148.3 1101101011 1100000101 1100101111 1111111101 10000110110 1100100110 1101011111 1111011101 1100010101 1101110000 1011010110 1100000010 10000000011 10000111000 1101100011 1100100101 1110110001 1011111001 25.625 51.377 1000.5 149588 16 14 14 59 50 4 $GNGGA,110941.00,4333.68885,N,00128.73946,E,1,04,6.95,148.3,M,53.8,M,,*48
148 11 09 42 4333.6886800128.73975148.2ó 00128.73975 148.2 1101101011 1100000101 1100110000 1111111101 10000111000 1100101011 1101011110 1111010001 1100001011 1101101111 1011010100 1100000010 10000000110 10000111010 1101100001 1100100111 1110111001 1100000101 25.625 51.346 1000.4 150586 17 14 14 59 51 3 $GNGGA,110942.00,4333.68868,N,00128.73975,E,1,04,6.96,148.2,M,53.8,M,,*4A
149 11 09 43 4333.6888500128.74059148.2ó 00128.74059 148.2 1101101011 1100000100 1100101101 1111111011 10000110011 1100101001 1101100000 1111010011 1100000101 1101110000 1011010011 1100000101 10000001111 10000111011 1101100010 1100100111 1110110001 1100000100 25.625 51.339 1000.5 151586 17 14 14 59 50 4 $GNGGA,110943.00,4333.68885,N,00128.74059,E,1,04,6.96,148.2,M,53.8,M,,*48
150 11 09 44 4333.6886600128.73983148.2ó 00128.73983 148.2 1101101011 1100000101 1100110001 1111110111 10000110101 1100101110 1101100001 1111010100 1100010000 1101101111 1011001111 1100000000 10000001101 10000111011 1101100001 1100100110 1110110111 1100000000 25.625 51.331 1000.4 152586 16 16 14 59 52 3 $GNGGA,110944.00,4333.68866,N,00128.73983,E,1,04,6.96,148.2,M,53.8,M,,*4B
151 11 09 45 4333.6881900128.74043148.2ó 00128.74043 148.2 1101101011 1100001000 1100110010 1111110101 10000110101 1100101100 1101100001 1111010100 1100001010 1101110000 1011010001 1100000001 10000000101 10000111010 1101100101 1100101000 1110111001 1100000111 25.563 51.331 1000.5 153584 18 14 13 60 50 4 $GNGGA,110945.00,4333.68819,N,00128.74043,E,1,04,6.96,148.2,M,53.8,M,,*40
152 11 09 46 4333.6878400128.73986148.2ó 00128.73986 148.2 1101101011 1100000110 1100110011 1111111111 10000110111 1100101001 1101011111 1111011010 1100010011 1101110000 1011010110 1100000001 10000000011 10000111011 1101011011 1100100101 1110110100 1100000010 25.625 51.339 1000.4 154584 16 15 13 59 50 5 $GNGGA,110946.00,4333.68784,N,00128.73986,E,1,04,6.96,148.2,M,53.8,M,,*4F
153 11 09 47 4333.6873500128.74017148.2ó 00128.74017 148.2 1101101011 1100000100 1100101111 10000000001 10000111010 1100100101 1101011000 1111011001 1100001110 1101110000 1011001111 1100000001 10000001110 10000111100 1101011101 1100100010 1110111001 1100000110 25.625 51.339 1000.4 155583 17 15 14 60 51 3 $GNGGA,110947.00,4333.68735,N,00128.74017,E,1,04,6.96,148.2,M,53.8,M,,*42
154 11 09 48 4333.6872900128.74111148.0ó 00128.74111 148.0 1101101011 1100000111 1100110011 1111111100 10000110110 1100100111 1101011010 1111100100 1100010100 1101101111 1011001110 1100000001 10000001111 10000111101 1101011101 1100101000 1110110101 1011111110 25.563 51.354 1000.4 156580 16 15 15 59 51 3 $GNGGA,110948.00,4333.68729,N,00128.74111,E,1,04,6.97,148.0,M,53.8,M,,*44
155 11 09 49 4333.6869800128.74163148.0ó 00128.74163 148.0 1101101011 1100001000 1100110001 1111111111 10000111010 1100101000 1101011111 1111001111 1100000001 1101110000 1011001110 1011111101 10000001100 10000111100 1101011011 1100100100 1110111010 1100000010 25.625 51.362 1000.5 157579 17 15 13 59 51 4 $GNGGA,110949.00,4333.68698,N,00128.74163,E,1,04,6.97,148.0,M,53.8,M,,*4B
156 11 09 50 4333.6870400128.74184147.9ó 00128.74184 147.9 1101101011 1100000110 1100101110 1111111111 10000111001 1100101000 1101011110 1111010111 1100001000 1101101111 1011010100 1100000010 10000000111 10000111001 1101100001 1100100100 1110110110 1100000010 25.625 51.362 1000.5 158580 16 15 15 59 51 3 $GNGGA,110950.00,4333.68704,N,00128.74184,E,1,04,6.97,147.9,M,53.8,M,,*48
