id HH MM SS longitude latitude altitude adc_1_ch0 adc_1_ch1 adc_1_ch2 adc_1_ch3 adc_1_ch4 adc_1_ch5 adc_1_ch6 adc_1_ch7 adc_1_ch8 adc_2_ch0 adc_2_ch1 adc_2_ch2 adc_2_ch3 adc_2_ch4 adc_2_ch5 adc_2_ch6 adc_2_ch7 adc_2_ch8 temp hum pres t_prog t_gps t_split t_adc t_temp t_hum t_pres trame_gga
1 11 10 53 4333.6826600128.73046148.3ó 00128.73046 148.3 1101101011 1100000100 1100110011 1111111100 10000110011 1100101000 1101011111 1111010001 1100001101 1101110000 1011010001 1100000000 10000000010 10000111011 1101100000 1100101011 1110110110 1100000101 25.625 51.590 795.83 3798 17 15 14 58 51 4 $GNGGA,111053.00,4333.68266,N,00128.73046,E,1,04,7.07,148.3,M,53.8,M,,*47
2 11 10 54 4333.6829400128.73095148.3ó 00128.73095 148.3 1101101011 1100000010 1100101111 1111111101 10000110110 1100100110 1101100001 1111010110 1100010011 1101110000 1011010001 1100000001 10000001000 10000111011 1101100001 1100100110 1110101101 1011111000 25.688 51.568 1000.4 4796 17 15 14 60 51 3 $GNGGA,111054.00,4333.68294,N,00128.73095,E,1,04,7.07,148.3,M,53.8,M,,*43
3 11 10 55 4333.6833100128.73118148.3ó 00128.73118 148.3 1101101011 1100000110 1100110001 10000000011 10000110111 1100101110 1101011111 1111011011 1100010101 1101110000 1011010010 1100000000 10000001010 10000111011 1101100110 1100101100 1110111001 1100000111 25.625 51.537 1000.5 5796 16 15 15 59 51 3 $GNGGA,111055.00,4333.68331,N,00128.73118,E,1,04,7.07,148.3,M,53.8,M,,*48
4 11 10 56 4333.6833300128.73049148.4ó 00128.73049 148.4 1101101011 1100000100 1100101110 10000000100 10000111000 1100101100 1101011111 1111100000 1100010101 1101110000 1011010001 1011111111 10000000100 10000111001 1101100001 1100100110 1110111000 1100001001 25.688 51.514 1000.5 6796 17 16 13 59 51 4 $GNGGA,111056.00,4333.68333,N,00128.73049,E,1,04,7.07,148.4,M,53.8,M,,*4B
5 11 10 57 4333.6830200128.72992148.5ó 00128.72992 148.5 1101101011 1100000110 1100110010 1111111011 10000110111 1100101000 1101011011 1111011001 1100010110 1101110000 1011010010 1100000000 10000000111 10000111001 1101100101 1100101001 1110111010 1100001000 25.625 51.491 1000.5 7792 18 14 13 60 50 4 $GNGGA,111057.00,4333.68302,N,00128.72992,E,1,04,7.07,148.5,M,53.8,M,,*47
6 11 10 58 4333.6832800128.72985148.6ó 00128.72985 148.6 1101101011 1100000100 1100101110 1111111100 10000111001 1100100111 1101011101 1111011110 1100011001 1101110000 1011010100 1100000000 10000001000 10000111100 1101011100 1100100110 1110110110 1100000101 25.688 51.484 1000.5 8794 16 16 14 59 51 4 $GNGGA,111058.00,4333.68328,N,00128.72985,E,1,04,7.07,148.6,M,53.8,M,,*45
7 11 10 59 4333.6838400128.73004148.6ó 00128.73004 148.6 1101101011 1100000101 1100101111 1111111000 10000110100 1100101000 1101011110 1111001111 1100010000 1101110000 1011010010 1100000010 10000000101 10000111010 1101011111 1100101000 1110101101 1011111111 25.688 51.468 1000.5 9793 17 15 14 60 51 3 $GNGGA,111059.00,4333.68384,N,00128.73004,E,1,04,7.07,148.6,M,53.8,M,,*43
8 11 11 00 4333.6844500128.73034148.7ó 00128.73034 148.7 1101101011 1100000100 1100101110 1111111111 10000111001 1100101101 1101100010 1111001110 1100001110 1101101111 1011010001 1011111110 10000001000 10000111100 1101100010 1100100101 1110110100 1011111010 25.625 51.453 1000.5 10791 16 15 15 59 51 3 $GNGGA,111100.00,4333.68445,N,00128.73034,E,1,04,7.07,148.7,M,53.8,M,,*46
9 11 11 01 4333.6852400128.73039148.7ó 00128.73039 148.7 1101101011 1100000110 1100110000 1111111100 10000110111 1100101010 1101011101 1111010100 1100001100 1101110000 1011010100 1100000000 10000000111 10000111010 1101100010 1100100011 1110101110 1100000001 25.625 51.446 1000.5 11791 18 14 13 59 51 4 $GNGGA,111101.00,4333.68524,N,00128.73039,E,1,04,7.07,148.7,M,53.8,M,,*4C
10 11 11 02 4333.6856500128.73023148.8ó 00128.73023 148.8 1101101011 1100000101 1100110000 1111111100 10000110101 1100101100 1101011110 1111010000 1100001011 1101110000 1011010011 1100000010 10000001100 10000111101 1101011111 1100101000 1110101100 1100000001 25.625 51.430 1000.5 12788 16 15 15 59 51 3 $GNGGA,111102.00,4333.68565,N,00128.73023,E,1,04,7.07,148.8,M,53.8,M,,*4E
11 11 11 03 4333.6865400128.73089148.8ó 00128.73089 148.8 1101101011 1100000101 1100101110 1111111011 10000110110 1100100111 1101011101 1111010100 1100000111 1101110000 1011001111 1011111110 10000001000 10000111010 1101100110 1100101010 1110110100 1100000111 25.688 51.438 1000.5 13789 17 16 13 59 51 4 $GNGGA,111103.00,4333.68654,N,00128.73089,E,1,04,7.07,148.8,M,53.8,M,,*4E
12 11 11 04 4333.6869600128.73123148.8ó 00128.73123 148.8 1101101011 1100000101 1100101111 1111111110 10000110111 1100101011 1101011100 1111011101 1100010000 1101110000 1011010101 1100000010 10000001011 10000111100 1101100011 1100100111 1110110001 1100000001 25.688 51.446 1000.5 14787 17 15 14 60 51 3 $GNGGA,111104.00,4333.68696,N,00128.73123,E,1,04,7.07,148.8,M,53.8,M,,*46
13 11 11 05 4333.6872400128.73118148.9ó 00128.73118 148.9 1101101011 1100000100 1100110000 1111111001 10000111001 1100100100 1101011100 1111010001 1100001000 1101110000 1011010000 1100000000 10000001001 10000111100 1101100011 1100101011 1110111010 1100000110 25.625 51.446 1000.5 15787 17 15 14 59 50 4 $GNGGA,111105.00,4333.68724,N,00128.73118,E,1,05,4.85,148.9,M,53.8,M,,*4E
14 11 11 06 4333.6880700128.73129149.1ó 00128.73129 149.1 1101101011 1100000110 1100101111 1111111101 10000110110 1100100010 1101010110 1111011010 1100001110 1101110000 1011010010 1100000001 10000001100 10000111011 1101100001 1100100101 1110111001 1100000111 25.625 51.446 1000.5 16786 18 15 13 60 50 4 $GNGGA,111106.00,4333.68807,N,00128.73129,E,1,05,4.85,149.1,M,53.8,M,,*48
15 11 11 07 4333.6887200128.73154149.3ó 00128.73154 149.3 1101101011 1100001000 1100110010 1111111000 10000110011 1100100111 1101011110 1111010110 1100000100 1101110000 1011010011 1100000010 10000001001 10000111011 1101100011 1100100101 1110111010 1011111110 25.688 51.438 1000.5 17784 17 14 14 58 51 4 $GNGGA,111107.00,4333.68872,N,00128.73154,E,1,06,2.47,149.3,M,53.8,M,,*48
16 11 11 08 4333.6893900128.73276148.8ó 00128.73276 148.8 1101101011 1100000111 1100101100 1111111001 10000110110 1100101010 1101100001 1111010100 1100000110 1101110000 1011010111 1100000100 10000000111 10000111100 1101011101 1100100101 1110110100 1011111101 25.625 51.430 1000.5 18784 16 16 14 59 52 3 $GNGGA,111108.00,4333.68939,N,00128.73276,E,1,06,2.47,148.8,M,53.8,M,,*40
17 11 11 09 4333.6905000128.73335148.0ó 00128.73335 148.0 1101101011 1100000101 1100101110 1111111001 10000111000 1100100100 1101011111 1111011000 1100001100 1101110000 1011010011 1100000001 10000001000 10000111001 1101100011 1100101000 1110101100 1011110111 25.688 51.423 1000.5 19780 17 15 14 60 51 3 $GNGGA,111109.00,4333.69050,N,00128.73335,E,1,03,2.38,148.0,M,53.8,M,,*45
18 11 11 10 4333.6910300128.73340148.0ó 00128.73340 148.0 1101101011 1100000111 1100110000 1111111101 10000111000 1100101111 1101100010 1111010101 1100000101 1101110000 1011010010 1100000001 10000001001 10000111010 1101100010 1100101000 1110110000 1011111011 25.688 51.415 1000.5 20781 16 16 15 59 51 3 $GNGGA,111110.00,4333.69103,N,00128.73340,E,1,04,7.07,148.0,M,53.8,M,,*46
19 11 11 11 4333.6905900128.73310148.1ó 00128.73310 148.1 1101101011 1100000100 1100101110 1111111100 10000111000 1100101000 1101011001 1111011010 1100001010 1101110000 1011010111 1100000110 10000000100 10000111001 1101100000 1100100101 1110110111 1100000010 25.688 51.415 1000.5 21779 18 14 13 59 51 4 $GNGGA,111111.00,4333.69059,N,00128.73310,E,1,04,7.07,148.1,M,53.8,M,,*4D
20 11 11 12 4333.6905500128.73321148.1ó 00128.73321 148.1 1101101011 1100000101 1100110000 1111111000 10000110111 1100101010 1101011011 1111010010 1100001010 1101110000 1011010101 1100000010 10000001100 10000111110 1101100010 1100100111 1110111001 1100000111 25.625 51.407 1000.5 22778 17 14 14 58 51 4 $GNGGA,111112.00,4333.69055,N,00128.73321,E,1,05,2.65,148.1,M,53.8,M,,*40
21 11 11 13 4333.6906000128.73314148.1ó 00128.73314 148.1 1101101011 1100001001 1100110001 10000000001 10000111000 1100100110 1101011000 1111010100 1100001100 1101110000 1011010011 1100000010 10000001101 10000111011 1101100011 1100101001 1110101110 1011111100 25.688 51.400 1000.5 23777 17 15 14 59 52 3 $GNGGA,111113.00,4333.69060,N,00128.73314,E,1,05,2.65,148.1,M,53.8,M,,*41
22 11 11 14 4333.6908300128.73300148.1ó 00128.73300 148.1 1101101011 1100000100 1100101011 1111111001 10000110100 1100100011 1101011000 1111011100 1100001111 1101110000 1011010110 1100000011 10000000110 10000111011 1101100100 1100101000 1110111001 1100000000 25.688 51.392 1000.5 24776 18 14 13 60 50 4 $GNGGA,111114.00,4333.69083,N,00128.73300,E,1,05,2.65,148.1,M,53.8,M,,*4E
23 11 11 15 4333.6905200128.73279148.1ó 00128.73279 148.1 1101101011 1100000110 1100110010 1111111011 10000111001 1100101101 1101100011 1111011011 1100001100 1101110000 1011010011 1100000000 10000001000 10000111010 1101011110 1100100100 1110101111 1100000001 25.688 51.384 1000.5 25776 16 16 14 59 51 4 $GNGGA,111115.00,4333.69052,N,00128.73279,E,1,05,2.65,148.1,M,53.8,M,,*4C
24 11 11 16 4333.6904100128.73275148.2ó 00128.73275 148.2 1101101011 1100000111 1100110010 1111110111 10000110101 1100101100 1101011101 1111011100 1100001110 1101110000 1011010100 1100000100 10000001100 10000111100 1101100011 1100101011 1110111001 1100000010 25.688 51.377 1000.5 26774 18 14 13 59 51 4 $GNGGA,111116.00,4333.69041,N,00128.73275,E,1,03,2.38,148.2,M,53.8,M,,*4C
25 11 11 17 4333.6905300128.73268148.2ó 00128.73268 148.2 1101101011 1100000110 1100110000 1111111111 10000111000 1100101011 1101011111 1111011010 1100001110 1101110000 1011010110 1100000011 10000001100 10000111011 1101011010 1100100011 1110111000 1100000011 25.625 51.384 1000.5 27772 17 14 14 59 50 4 $GNGGA,111117.00,4333.69053,N,00128.73268,E,1,03,2.38,148.2,M,53.8,M,,*42
26 11 11 18 4333.6906900128.73224148.2ó 00128.73224 148.2 1101101011 1100000111 1100110101 1111111110 10000111010 1100101000 1101011110 1111100101 1100010011 1101110000 1011010101 1100000010 10000001101 10000111011 1101011010 1100100101 1110111000 1100001000 25.688 51.384 1000.5 28773 17 15 14 60 51 3 $GNGGA,111118.00,4333.69069,N,00128.73224,E,1,03,2.38,148.2,M,53.8,M,,*4C
27 11 11 19 4333.6912800128.73237148.2ó 00128.73237 148.2 1101101011 1100000111 1100110010 1111111100 10000110111 1100100110 1101011110 1111011101 1100001001 1101110000 1011010001 1100000000 10000000110 10000111010 1101100010 1100101101 1110101101 1011111100 25.625 51.407 1000.5 29772 17 15 14 59 50 4 $GNGGA,111119.00,4333.69128,N,00128.73237,E,1,05,4.86,148.2,M,53.8,M,,*4E
28 11 11 20 4333.6912800128.73313148.1ó 00128.73313 148.1 1101101011 1100000111 1100101111 1111111110 10000110110 1100101000 1101011010 1111100001 1100010001 1101110000 1011010011 1100000000 10000001001 10000111011 1101011110 1100100101 1110110101 1011111111 25.625 51.430 1000.5 30770 16 16 14 59 52 3 $GNGGA,111120.00,4333.69128,N,00128.73313,E,1,05,4.86,148.1,M,53.8,M,,*40
29 11 11 21 4333.6913000128.73364148.0ó 00128.73364 148.0 1101101011 1100000100 1100101110 10000000000 10000111000 1100100100 1101011001 1111011001 1100001111 1101110000 1011001101 1011111101 10000001010 10000111010 1101100001 1100101100 1110111010 1100000001 25.625 51.446 1000.5 31770 17 15 14 60 51 3 $GNGGA,111121.00,4333.69130,N,00128.73364,E,1,05,4.86,148.0,M,53.8,M,,*49
30 11 11 22 4333.6904300128.73310147.9ó 00128.73310 147.9 1101101011 1100000100 1100101111 1111111011 10000110111 1100100110 1101100000 1111011101 1100001101 1101110000 1011010001 1100000000 10000001001 10000111011 1101100101 1100110001 1110110111 1100000011 25.625 51.468 1000.5 32769 16 16 15 59 51 3 $GNGGA,111122.00,4333.69043,N,00128.73310,E,1,05,4.86,147.9,M,53.8,M,,*4A
31 11 11 23 4333.6904700128.73304147.8ó 00128.73304 147.8 1101101011 1100000111 1100110001 10000000010 10000110111 1100101010 1101011000 1111011100 1100001001 1101110000 1011010011 1100000010 10000000100 10000111010 1101100010 1100100110 1110110111 1100000011 25.688 51.484 1000.5 33767 17 15 14 60 51 3 $GNGGA,111123.00,4333.69047,N,00128.73304,E,1,05,4.86,147.8,M,53.8,M,,*4B
32 11 11 24 4333.6901300128.73362147.7ó 00128.73362 147.7 1101101011 1100000110 1100101111 1111111110 10000110011 1100101101 1101100010 1111011100 1100001011 1101110000 1011010011 1100000000 10000001101 10000111011 1101100000 1100101000 1110111010 1100001011 25.688 51.491 1000.5 34766 17 14 14 59 50 4 $GNGGA,111124.00,4333.69013,N,00128.73362,E,1,05,4.86,147.7,M,53.8,M,,*42
33 11 11 25 4333.6904600128.73369147.7ó 00128.73369 147.7 1101101011 1100000101 1100101111 10000000000 10000110110 1100101101 1101100110 1111010101 1100001110 1101110000 1011010111 1100000011 10000000110 10000111100 1101011011 1100100100 1110111010 1100000100 25.688 51.499 1000.5 35765 17 15 13 58 52 4 $GNGGA,111125.00,4333.69046,N,00128.73369,E,1,04,7.08,147.7,M,53.8,M,,*4C
34 11 11 26 4333.6904500128.73308147.7ó 00128.73308 147.7 1101101011 1100000101 1100101111 10000000001 10000111010 1100101111 1101011111 1111001111 1011111111 1101110000 1011010110 1100000010 10000001010 10000111100 1101100010 1100100110 1110111100 1100001001 25.688 51.499 1000.5 36764 18 14 13 59 51 4 $GNGGA,111126.00,4333.69045,N,00128.73308,E,1,04,7.08,147.7,M,53.8,M,,*4B
35 11 11 27 4333.6903500128.73249147.7ó 00128.73249 147.7 1101101011 1100000101 1100101100 1111111011 10000110111 1100100011 1101010111 1111010001 1100000011 1101110000 1011010011 1100000001 10000001001 10000111010 1101100110 1100100110 1110111000 1100000101 25.688 51.491 1000.5 37764 16 16 14 59 50 5 $GNGGA,111127.00,4333.69035,N,00128.73249,E,1,04,7.08,147.7,M,53.8,M,,*49
36 11 11 28 4333.6902300128.73262147.7ó 00128.73262 147.7 1101101011 1100000101 1100101110 1111111110 10000111010 1100100100 1101011100 1111011000 1100001011 1101110000 1011010000 1011111111 10000001001 10000111100 1101100010 1100101100 1110111101 1100001000 25.688 51.476 1000.5 38761 18 14 13 59 51 4 $GNGGA,111128.00,4333.69023,N,00128.73262,E,1,04,7.08,147.7,M,53.8,M,,*48
37 11 11 29 4333.6898500128.73219147.8ó 00128.73219 147.8 1101101011 1100000100 1100110000 1111111010 10000111001 1100101011 1101011010 1111010010 1100000100 1101110000 1011010101 1100000010 10000000010 10000111100 1101100010 1100101011 1110110100 1011111111 25.688 51.476 1000.5 39760 17 14 14 59 50 4 $GNGGA,111129.00,4333.68985,N,00128.73219,E,1,04,7.08,147.8,M,53.8,M,,*4E
38 11 11 30 4333.6895200128.73233147.6ó 00128.73233 147.6 1101101011 1100000100 1100101110 1111111111 10000110100 1100100100 1101011000 1111010101 1100001011 1101110000 1011010001 1100000001 10000001101 10000111101 1101100000 1100100011 1110110000 1100000101 25.688 51.491 1000.5 40760 17 15 13 60 50 4 $GNGGA,111130.00,4333.68952,N,00128.73233,E,1,05,4.87,147.6,M,53.8,M,,*4F
39 11 11 31 4333.6895600128.73307147.4ó 00128.73307 147.4 1101101011 1100000100 1100101110 1111110101 10000110011 1100101010 1101011100 1111010110 1100001100 1101110000 1011010000 1011111111 10000001000 10000111101 1101100100 1100101100 1110111011 1100000101 25.688 51.491 1000.5 41757 18 14 13 59 51 4 $GNGGA,111131.00,4333.68956,N,00128.73307,E,1,06,2.47,147.4,M,53.8,M,,*47
40 11 11 32 4333.6899300128.73289147.2ó 00128.73289 147.2 1101101011 1100000110 1100110001 1111111100 10000110110 1100101001 1101100100 1111011010 1100001101 1101110000 1011010100 1100000011 10000000101 10000111100 1101011101 1100100010 1110111010 1100000101 25.688 51.491 1000.5 42759 16 16 14 59 52 3 $GNGGA,111132.00,4333.68993,N,00128.73289,E,1,06,2.46,147.2,M,53.8,M,,*4D
41 11 11 33 4333.6901500128.73298147.0ó 00128.73298 147.0 1101101011 1100000001 1100101101 1111111010 10000110111 1100110001 1101100011 1111011001 1100010001 1101110000 1011010010 1100000001 10000000011 10000111010 1101100100 1100101000 1110110010 1100000000 25.625 51.484 1000.5 43757 17 15 14 60 51 3 $GNGGA,111133.00,4333.69015,N,00128.73298,E,1,05,4.87,147.0,M,53.8,M,,*40
42 11 11 34 4333.6901600128.73314146.9ó 00128.73314 146.9 1101101011 1100000111 1100110010 1111111111 10000111000 1100110001 1101100010 1111010101 1100001001 1101110000 1011010101 1100000010 10000001101 10000111101 1101100101 1100101001 1110110110 1100000100 25.625 51.468 1000.5 44756 16 15 15 59 51 3 $GNGGA,111134.00,4333.69016,N,00128.73314,E,1,05,4.87,146.9,M,53.8,M,,*49
43 11 11 35 4333.6896700128.73263146.8ó 00128.73263 146.8 1101101011 1100000111 1100110000 1111110111 10000110100 1100110001 1101100110 1111010111 1100001111 1101110000 1011010010 1100000010 10000001010 10000111001 1101100010 1100100111 1110110100 1100000100 25.688 51.461 1000.5 45756 18 15 13 60 50 4 $GNGGA,111135.00,4333.68967,N,00128.73263,E,1,05,4.87,146.8,M,53.8,M,,*46
44 11 11 36 4333.6894900128.73193146.7ó 00128.73193 146.7 1101101011 1100000101 1100101111 1111111011 10000111000 1100100011 1101010100 1111100101 1100010110 1101110000 1011010011 1100000000 10000001111 10000111011 1101011100 1100100101 1110110011 1100000000 25.688 51.468 1000.5 46753 16 15 15 59 51 3 $GNGGA,111136.00,4333.68949,N,00128.73193,E,1,05,4.87,146.7,M,53.8,M,,*4A
45 11 11 37 4333.6900700128.73234146.7ó 00128.73234 146.7 1101101010 1100000100 1100110001 1111110111 10000110000 1100100110 1101011001 1111011100 1100010110 1101110000 1011010101 1100000001 10000010000 10000111101 1101100001 1100100110 1110110101 1011111111 25.688 51.507 1000.5 47752 17 15 13 59 51 4 $GNGGA,111137.00,4333.69007,N,00128.73234,E,1,05,4.87,146.7,M,53.8,M,,*47
46 11 11 38 4333.6902200128.73167146.7ó 00128.73167 146.7 1101101011 1100000101 1100101101 1111111101 10000111011 1100100111 1101011111 1111011000 1100001001 1101110000 1011010110 1100000001 10000001100 10000111001 1101100100 1100101010 1110110100 1011111111 25.688 51.537 1000.5 48751 17 15 14 60 51 3 $GNGGA,111138.00,4333.69022,N,00128.73167,E,1,05,4.88,146.7,M,53.8,M,,*45
47 11 11 39 4333.6907700128.73207146.4ó 00128.73207 146.4 1101101011 1100000111 1100110010 1111110001 10000101111 1100101011 1101011110 1111011101 1100010100 1101110000 1011010101 1011111110 10000001110 10000111010 1101100011 1100100111 1110111001 1100001001 25.625 51.560 1000.5 49751 16 15 15 59 51 3 $GNGGA,111139.00,4333.69077,N,00128.73207,E,1,06,2.46,146.4,M,53.8,M,,*45
48 11 11 40 4333.6905700128.73171146.3ó 00128.73171 146.3 1101101011 1100000100 1100110000 1111111111 10000110110 1100101000 1101011100 1111011000 1100000111 1101110000 1011011000 1100000101 10000010101 10000111101 1101011011 1100100100 1110110110 1100000100 25.688 51.575 1000.5 50749 18 14 13 59 51 4 $GNGGA,111140.00,4333.69057,N,00128.73171,E,1,05,2.64,146.3,M,53.8,M,,*4F
49 11 11 41 4333.6901700128.73192146.3ó 00128.73192 146.3 1101101011 1100000101 1100110001 10000000000 10000110111 1100101000 1101100000 1111011110 1100010000 1101110000 1011011000 1100000010 10000010100 10000111100 1101100001 1100100101 1110111000 1100001001 25.625 51.583 1000.5 51748 17 15 14 59 50 4 $GNGGA,111141.00,4333.69017,N,00128.73192,E,1,04,7.09,146.3,M,53.8,M,,*48
50 11 11 42 4333.6898500128.73232146.4ó 00128.73232 146.4 1101101011 1100000100 1100110000 1111111100 10000111000 1100100110 1101011100 1111011100 1100011101 1101110000 1011010110 1100000001 10000010010 10000111011 1101100001 1100100100 1110110101 1100000101 25.688 51.590 1000.5 52745 16 15 14 59 52 3 $GNGGA,111142.00,4333.68985,N,00128.73232,E,1,04,7.09,146.4,M,53.8,M,,*46
51 11 11 43 4333.6893800128.73252146.4ó 00128.73252 146.4 1101101011 1100000101 1100110000 10000000000 10000111001 1100101011 1101100011 1111010100 1100001011 1101110000 1011010110 1011111111 10000001100 10000111010 1101100010 1100101001 1110110111 1100000101 25.688 51.590 1000.5 53746 17 15 14 60 51 3 $GNGGA,111143.00,4333.68938,N,00128.73252,E,1,05,2.64,146.4,M,53.8,M,,*48
52 11 11 44 4333.6891000128.73169146.5ó 00128.73169 146.5 1101101011 1100000111 1100110001 10000000001 10000111001 1100100111 1101011111 1111011001 1100001111 1101110000 1011011000 1100000001 10000010010 10000111010 1101011011 1100100011 1110111000 1100000110 25.688 51.590 1000.5 54746 17 15 13 58 51 5 $GNGGA,111144.00,4333.68910,N,00128.73169,E,1,06,2.46,146.5,M,53.8,M,,*4C
53 11 11 45 4333.6894300128.73206146.5ó 00128.73206 146.5 1101101011 1100000111 1100110000 10000000010 10000110110 1100101100 1101100001 1111011100 1100001001 1101110000 1011011001 1100000111 10000001101 10000111000 1101100101 1100101011 1110111111 1100010000 25.688 51.575 1000.5 55744 17 15 14 60 51 3 $GNGGA,111145.00,4333.68943,N,00128.73206,E,1,05,4.88,146.5,M,53.8,M,,*46
54 11 11 46 4333.6898100128.73255146.5ó 00128.73255 146.5 1101101011 1100000110 1100110010 1111111100 10000110111 1100100011 1101011010 1111011100 1100010100 1101110000 1011011000 1100000010 10000010001 10000111110 1101011101 1100101001 1110111011 1100001010 25.688 51.575 1000.5 56743 17 15 14 59 50 4 $GNGGA,111146.00,4333.68981,N,00128.73255,E,1,05,4.88,146.5,M,53.8,M,,*4D
55 11 11 47 4333.6894000128.73304146.4ó 00128.73304 146.4 1101101011 1100000100 1100110000 10000000011 10000111000 1100100101 1101011001 1111011001 1100010100 1101110000 1011010001 1100000000 10000001110 10000111101 1101011110 1100100110 1110110111 1100000011 25.688 51.583 1000.5 57742 18 14 13 60 50 4 $GNGGA,111147.00,4333.68940,N,00128.73304,E,1,05,4.88,146.4,M,53.8,M,,*45
56 11 11 48 4333.6896200128.73326146.5ó 00128.73326 146.5 1101101011 1100000110 1100110000 10000000101 10000111011 1100100110 1101100010 1111011111 1100010011 1101110000 1011010101 1100000011 10000001110 10000111010 1101011111 1100100111 1110111000 1100000000 25.625 51.590 1000.5 58741 16 15 15 59 51 3 $GNGGA,111148.00,4333.68962,N,00128.73326,E,1,06,2.46,146.5,M,53.8,M,,*4C
57 11 11 49 4333.6893400128.73321146.5ó 00128.73321 146.5 1101101011 1100000111 1100110000 1111111110 10000110101 1100100110 1101011100 1111011001 1100001111 1101110000 1011001111 1011111111 10000001011 10000111011 1101011110 1100100110 1111000000 1100001011 25.688 51.590 1000.5 59740 16 16 14 59 52 3 $GNGGA,111149.00,4333.68934,N,00128.73321,E,1,05,4.88,146.5,M,53.8,M,,*4E
58 11 11 50 4333.6890900128.73380146.4ó 00128.73380 146.4 1101101011 1100001000 1100110010 1111111111 10000111000 1100101010 1101011111 1111011101 1100010010 1101110000 1011010010 1011111101 10000001110 10000111101 1101100100 1100101100 1110111001 1011111110 25.688 51.583 1000.5 60739 18 15 13 60 50 4 $GNGGA,111150.00,4333.68909,N,00128.73380,E,1,05,4.88,146.4,M,53.8,M,,*42
59 11 11 51 4333.6886900128.73431146.4ó 00128.73431 146.4 1101101011 1100001000 1100110001 10000000000 10000110111 1100101001 1101011100 1111100110 1100011111 1101110000 1011010011 1100000000 10000001110 10000111011 1101011111 1100101100 1110110001 1100001000 25.688 51.583 1000.5 61736 17 14 14 58 51 4 $GNGGA,111151.00,4333.68869,N,00128.73431,E,1,05,4.89,146.4,M,53.8,M,,*48
60 11 11 52 4333.6889200128.73470146.4ó 00128.73470 146.4 1101101011 1100000111 1100110000 1111111011 10000110111 1100100111 1101011100 1111011110 1100001101 1101110000 1011010110 1100000001 10000010000 10000111011 1101011111 1100101001 1110110101 1100001111 25.688 51.583 1000.5 62736 17 15 14 60 51 3 $GNGGA,111152.00,4333.68892,N,00128.73470,E,1,04,7.09,146.4,M,53.8,M,,*40
61 11 11 53 4333.6892800128.73492146.4ó 00128.73492 146.4 1101101011 1100000110 1100110000 1111110111 10000111000 1100101000 1101011100 1111100000 1100010101 1101110000 1011010101 1100000010 10000010000 10000111100 1101011111 1100101011 1110111110 1100001010 25.688 51.606 1000.5 63735 17 15 14 59 50 4 $GNGGA,111153.00,4333.68928,N,00128.73492,E,1,05,4.89,146.4,M,53.8,M,,*47
62 11 11 54 4333.6896900128.73500146.3ó 00128.73500 146.3 1101101011 1100000110 1100101111 1111111100 10000111010 1100101010 1101100000 1111011110 1100001111 1101110000 1011010111 1011111111 10000001111 10000111001 1101011111 1100100110 1110110010 1100000001 25.688 51.636 1000.5 64734 17 15 13 59 51 4 $GNGGA,111154.00,4333.68969,N,00128.73500,E,1,05,4.89,146.3,M,53.8,M,,*48
63 11 11 55 4333.6903800128.73473146.3ó 00128.73473 146.3 1101101011 1100000101 1100101110 1111111010 10000110111 1100101011 1101100000 1111011000 1100001111 1101110000 1011010010 1100000000 10000010110 10000111110 1101011001 1100100000 1110111000 1100000110 25.688 51.652 1000.5 65733 18 14 13 59 51 4 $GNGGA,111155.00,4333.69038,N,00128.73473,E,1,05,4.89,146.3,M,53.8,M,,*40
64 11 11 56 4333.6904300128.73505146.2ó 00128.73505 146.2 1101101011 1100000110 1100101111 1111111110 10000110110 1100101100 1101011100 1111010101 1100000010 1101110000 1011011010 1100000011 10000001101 10000111101 1101011111 1100100101 1111000000 1100000111 25.688 51.659 1000.5 66733 16 16 15 59 51 3 $GNGGA,111156.00,4333.69043,N,00128.73505,E,1,05,4.89,146.2,M,53.8,M,,*4E
65 11 11 57 4333.6904600128.73511146.2ó 00128.73511 146.2 1101101011 1100000101 1100101111 1111111110 10000110111 1100101001 1101011011 1111011010 1100001010 1101110000 1011011100 1100000011 10000010000 10000111101 1101100010 1100101110 1110111001 1100000111 25.688 51.674 1000.5 67731 18 14 13 60 50 4 $GNGGA,111157.00,4333.69046,N,00128.73511,E,1,05,4.89,146.2,M,53.8,M,,*4F
66 11 11 58 4333.6904200128.73439146.1ó 00128.73439 146.1 1101101011 1100000111 1100110010 1111111100 10000111000 1100101001 1101011100 1111011010 1100001010 1101110000 1011110101 1100000111 10000011111 10000111110 1101110000 1100111010 1110101110 1011110110 25.688 55.062 1000.5 68730 17 14 14 58 51 4 $GNGGA,111158.00,4333.69042,N,00128.73439,E,1,05,4.89,146.1,M,53.8,M,,*4C
67 11 11 59 4333.6903700128.73363146.1ó 00128.73363 146.1 1101101011 1100000110 1100110000 10000001010 10000111100 1100101010 1101100001 1111011001 1100001111 1101110000 1101010101 1100000100 10001111101 10000110110 1101011010 1100101011 1110100010 1011110011 25.688 58.945 1000.5 69729 16 16 14 59 52 3 $GNGGA,111159.00,4333.69037,N,00128.73363,E,1,05,4.89,146.1,M,53.8,M,,*47
68 11 12 00 4333.6906300128.73381146.0ó 00128.73381 146.0 1101101011 1100000111 1100110001 10000000100 10000111000 1100101010 1101100000 1111011000 1100001111 1101110000 1110110001 1100001101 10101001011 10000111010 1101000011 1100110100 1110111000 1011111101 25.750 62.432 1000.5 70727 18 15 13 60 50 4 $GNGGA,111200.00,4333.69063,N,00128.73381,E,1,06,2.46,146.0,M,53.8,M,,*42
69 11 12 01 4333.6909200128.73550146.0ó 00128.73550 146.0 1101101100 1100000111 1100110010 1111111011 10000110101 1100101010 1101011111 1111011001 1100001101 1101110000 1111001001 1011111101 11000101000 10000111100 1100001001 1100011011 1111010101 1100010010 25.688 63.660 1000.5 71727 17 15 13 58 51 5 $GNGGA,111201.00,4333.69092,N,00128.73550,E,1,05,2.64,146.0,M,53.8,M,,*44
70 11 12 02 4333.6908500128.73484146.0ó 00128.73484 146.0 1101101100 1100000111 1100110010 10000000110 10000111000 1100100110 1101100001 1111100110 1100010100 1101110000 1111101100 1100000110 11011100001 10000111111 1011110000 1100010111 1111010101 1100000110 25.688 62.951 1000.5 72726 17 15 14 60 51 3 $GNGGA,111202.00,4333.69085,N,00128.73484,E,1,04,2.69,146.0,M,53.8,M,,*45
71 11 12 03 4333.6913100128.73493146.0ó 00128.73493 146.0 1101101011 1100001001 1100110010 10000001101 10000110101 1100010101 1101011000 1111101011 1100000111 1101110000 1111100111 1100001000 11101011100 10000111111 1011110001 1100011100 1111111101 1100000100 25.750 61.295 1000.5 73725 17 15 15 59 51 3 $GNGGA,111203.00,4333.69131,N,00128.73493,E,1,04,2.69,146.0,M,53.8,M,,*4C
72 11 12 04 4333.6907200128.73426146.1ó 00128.73426 146.1 1101101011 1100001100 1100110011 10000011111 10000110111 1100010010 1101100010 10000000000 1100001001 1101110000 1111011010 1100001000 11110010001 10001000000 1011101011 1100100100 10000011111 1100000101 25.750 59.975 1000.5 74724 18 16 14 60 51 3 $GNGGA,111204.00,4333.69072,N,00128.73426,E,1,04,2.69,146.1,M,53.8,M,,*42
73 11 12 05 4333.6901300128.73342146.2ó 00128.73342 146.2 1101101100 1100010010 1100110000 10000111001 10000110111 1011111111 1101011000 10000101000 1100000111 1101110000 1111001010 1100001001 11110010101 10000111101 1011110101 1100100101 10001001000 1100001101 25.750 59.098 1000.5 75722 17 14 14 59 50 4 $GNGGA,111205.00,4333.69013,N,00128.73342,E,1,04,2.69,146.2,M,53.8,M,,*42
74 11 12 06 4333.6898300128.73363146.3ó 00128.73363 146.3 1101101100 1100010111 1100110011 10001100101 10000111011 1011111000 1101011010 10001000110 1100010000 1101110000 1110111000 1100000110 11110001100 10001000010 1011110111 1100101000 10001101000 1100001000 25.688 58.068 1000.5 76721 17 15 13 59 51 4 $GNGGA,111206.00,4333.68983,N,00128.73363,E,1,04,7.10,146.3,M,53.8,M,,*49
75 11 12 07 4333.6900000128.73386146.3ó 00128.73386 146.3 1101101011 1100011100 1100101111 10001111111 10000111010 1011111001 1101100000 10001101111 1100001111 1101110000 1110101100 1100000111 11101110010 10001000010 1011111000 1100100101 10001110101 1100001100 25.750 56.946 1000.5 77721 18 15 13 60 50 4 $GNGGA,111207.00,4333.69000,N,00128.73386,E,1,05,4.90,146.3,M,53.8,M,,*4A
76 11 12 08 4333.6893700128.73418146.3ó 00128.73418 146.3 1101101011 1100100100 1100110000 10010011010 10000110111 1011100111 1101011000 10010001101 1100011001 1101110000 1110100010 1100000110 11101001110 10001000011 1100000000 1100101011 10001111011 1100001001 25.750 56.534 1000.5 78720 17 16 15 59 51 3 $GNGGA,111208.00,4333.68937,N,00128.73418,E,1,05,4.90,146.3,M,53.8,M,,*49
77 11 12 09 4333.6887700128.73500146.4ó 00128.73500 146.4 1101101011 1100101001 1100101110 10010111100 10000111001 1011101010 1101011110 10010011110 1100010001 1101110000 1110011000 1100001001 11100100100 10001000011 1100000001 1100101011 10001111100 1100000100 25.750 56.336 1000.5 79719 17 15 14 60 51 3 $GNGGA,111209.00,4333.68877,N,00128.73500,E,1,05,4.90,146.4,M,53.8,M,,*42
78 11 12 10 4333.6890500128.73481146.4ó 00128.73481 146.4 1101101011 1100101110 1100110001 10011010011 10000110111 1011100100 1101011110 10010100100 1100001100 1101110000 1110001111 1100000111 11011111111 10001000010 1011111110 1100101100 10001111010 1100001010 25.750 56.084 1000.5 80717 17 14 15 59 51 3 $GNGGA,111210.00,4333.68905,N,00128.73481,E,1,05,4.90,146.4,M,53.8,M,,*46
79 11 12 11 4333.6893400128.73486146.3ó 00128.73486 146.3 1101101011 1100110001 1100101111 10011100110 10000111010 1011100001 1101010110 10010101000 1100001111 1101110000 1110000010 1100000111 11011010101 10001000001 1011111011 1100100110 10010000010 1100001001 25.750 55.695 1000.5 81716 16 16 14 59 52 3 $GNGGA,111211.00,4333.68934,N,00128.73486,E,1,05,4.90,146.3,M,53.8,M,,*45
80 11 12 12 4333.6898600128.73527146.3ó 00128.73527 146.3 1101101011 1100110101 1100110000 10011110100 10000111001 1011100010 1101011001 10010101000 1100001110 1101110000 1101111100 1100001001 11010101010 10001000010 1100000001 1100101100 10001110001 1100001100 25.750 55.069 1000.5 82715 17 15 14 60 51 3 $GNGGA,111212.00,4333.68986,N,00128.73527,E,1,05,4.90,146.3,M,53.8,M,,*45
81 11 12 13 4333.6902500128.73505146.3ó 00128.73505 146.3 1101101011 1100110100 1100110000 10100000000 10000111100 1011100111 1101100010 10010100000 1100010000 1101110000 1101111000 1100001011 11010010000 10001000100 1100000101 1100101010 10001100110 1100001101 25.750 54.299 1000.5 83714 17 15 13 59 50 5 $GNGGA,111213.00,4333.69025,N,00128.73505,E,1,05,4.90,146.3,M,53.8,M,,*45
82 11 12 14 4333.6898100128.73523146.2ó 00128.73523 146.2 1101101100 1100110101 1100101101 10100000001 10000111100 1011100101 1101011011 10010010010 1100001011 1101110000 1101101101 1100000110 11001110010 10001000001 1100001001 1100101100 10001011010 1100001111 25.750 53.727 1000.5 84713 18 14 13 59 51 4 $GNGGA,111214.00,4333.68981,N,00128.73523,E,1,05,4.90,146.2,M,53.8,M,,*41
83 11 12 15 4333.6895700128.73592146.2ó 00128.73592 146.2 1101101011 1100111000 1100110100 10100000010 10000111010 1011101010 1101011100 10010000001 1100001100 1101110000 1101101000 1100000110 11001001011 10001000011 1100000111 1100101100 10001010101 1100010101 25.750 53.330 1000.5 85711 17 14 14 58 51 4 $GNGGA,111215.00,4333.68957,N,00128.73592,E,1,05,4.91,146.2,M,53.8,M,,*40
84 11 12 16 4333.6896700128.73571146.2ó 00128.73571 146.2 1101101011 1100111000 1100110001 10011111001 10000110110 1011101011 1101100010 10010001001 1100011110 1101110000 1101100101 1100000111 11000100110 10001000010 1100001001 1100101100 10001001101 1100010100 25.750 53.025 1000.5 86711 16 16 14 59 52 3 $GNGGA,111216.00,4333.68967,N,00128.73571,E,1,04,7.21,146.2,M,53.8,M,,*44
85 11 12 17 4333.6906600128.73604146.2ó 00128.73604 146.2 1101101011 1100110111 1100101110 10011111101 10000111010 1011101011 1101011111 10001111010 1100010100 1101110000 1101011100 1100000100 11000001010 10001000010 1100001101 1100101011 10001001000 1100011010 25.750 52.804 1000.5 87709 18 15 14 60 51 3 $GNGGA,111217.00,4333.69066,N,00128.73604,E,1,04,7.22,146.2,M,53.8,M,,*4E
86 11 12 18 4333.6899500128.73683146.3ó 00128.73683 146.3 1101101011 1100111001 1100101111 10011110001 10000111000 1011101111 1101100000 10001101110 1100010100 1101110000 1101011000 1100000011 10111101010 10001000000 1100001101 1100101100 10000110011 1100001101 25.750 52.643 1000.5 88707 17 15 13 58 51 5 $GNGGA,111218.00,4333.68995,N,00128.73683,E,1,05,4.91,146.3,M,53.8,M,,*41
87 11 12 19 4333.6901800128.73720146.3ó 00128.73720 146.3 1101101011 1100110101 1100101101 10011110001 10000110111 1011101111 1101100000 10001100111 1100001110 1101110000 1101010010 1100000111 10111010011 10001000010 1100010010 1100101110 10000101101 1100010010 25.750 52.498 1000.5 89708 17 15 14 60 51 3 $GNGGA,111219.00,4333.69018,N,00128.73720,E,1,05,4.91,146.3,M,53.8,M,,*45
88 11 12 20 4333.6912700128.73747146.3ó 00128.73747 146.3 1101101011 1100111010 1100110100 10011110011 10000111010 1011101101 1101011100 10001011010 1100011001 1101110000 1101001101 1100000100 10110101111 10001000011 1100001101 1100100100 10000100111 1100010101 25.750 52.384 1000.5 90706 17 14 14 59 50 4 $GNGGA,111220.00,4333.69127,N,00128.73747,E,1,05,4.91,146.3,M,53.8,M,,*43
89 11 12 21 4333.6915500128.73793146.2ó 00128.73793 146.2 1101101011 1100110111 1100110000 10011101011 10000111011 1011101100 1101011000 10001010001 1100100100 1101110000 1101000101 1100000101 10110010111 10001000011 1100011011 1100101100 10000011110 1100010001 25.750 52.285 1000.5 91706 18 15 13 60 50 4 $GNGGA,111221.00,4333.69155,N,00128.73793,E,1,05,4.91,146.2,M,53.8,M,,*4F
90 11 12 22 4333.6915800128.73789146.2ó 00128.73789 146.2 1101101011 1100110110 1100110010 10011100011 10000111011 1011110110 1101100100 10001000011 1100011011 1101110000 1100110110 1100000100 10101101100 10001000000 1100011011 1100101111 10000010010 1100001110 25.750 52.193 1000.5 92704 17 14 14 58 51 4 $GNGGA,111222.00,4333.69158,N,00128.73789,E,1,05,4.91,146.2,M,53.8,M,,*4A
91 11 12 23 4333.6919000128.73696146.1ó 00128.73696 146.1 1101101011 1100110110 1100110000 10011011101 10000111100 1011111001 1101100010 10000111100 1100011101 1101110000 1100100011 1100000110 10101000100 10001000010 1100011011 1100100110 10000001111 1100010001 25.750 52.125 1000.5 93703 17 15 13 58 52 4 $GNGGA,111223.00,4333.69190,N,00128.73696,E,1,04,7.23,146.1,M,53.8,M,,*48
92 11 12 24 4333.6924000128.73634146.1ó 00128.73634 146.1 1101101011 1100110101 1100110100 10011011010 10000111001 1011110001 1101011011 10000110001 1100011000 1101110000 1100000111 1100000010 10100000010 10001000001 1100011101 1100101000 10000001010 1100010100 25.750 52.071 1000.5 94702 18 15 14 60 51 3 $GNGGA,111224.00,4333.69240,N,00128.73634,E,1,04,7.23,146.1,M,53.8,M,,*49
93 11 12 25 4333.6925200128.73615146.0ó 00128.73615 146.0 1101101011 1100111010 1100110110 10011010101 10000111100 1011111010 1101100000 10000111011 1100011001 1101110000 1011101111 1100000111 10010111000 10001000000 1100101100 1100101011 10000000111 1100001000 25.750 52.025 1000.5 95702 16 16 15 59 51 3 $GNGGA,111225.00,4333.69252,N,00128.73615,E,1,04,7.23,146.0,M,53.8,M,,*49
94 11 12 26 Nan Nan Nan 1101101011 1100110110 1100110011 10011001101 10000111011 1011110111 1101010111 10000100100 1100010111 1101110000 1011010000 1100000101 10001011101 10001000000 1100110111 1100101111 1111111001 1100001111 25.750 51.980 1000.5 96689 17 8 10 59 51 4 $GNGGA,111226.00,,,,,0,00,99.9,,,,,,*46
95 11 12 27 4333.6922500128.73649145.8ó 00128.73649 145.8 1101101011 1100110100 1100101110 10011000110 10000111100 1011111111 1101100100 10000100100 1100011101 1101110000 1010110001 1100000100 1111111110 10000111110 1101000111 1100101111 1111111111 1100010010 25.750 51.934 1000.5 97699 17 15 15 59 51 3 $GNGGA,111227.00,4333.69225,N,00128.73649,E,1,05,4.92,145.8,M,53.8,M,,*41
96 11 12 28 4333.6923800128.73802145.6ó 00128.73802 145.6 1101101011 1100110010 1100110010 10011000000 10000111100 1011111110 1101011011 10000101001 1100100010 1101110000 1010011000 1100000010 1110010011 10000111101 1101000100 1100100001 1111110111 1100001011 25.750 51.896 1000.5 98698 17 15 13 59 51 4 $GNGGA,111228.00,4333.69238,N,00128.73802,E,1,05,4.92,145.6,M,53.8,M,,*4D
97 11 12 29 4333.6924900128.73942145.5ó 00128.73942 145.5 1101101011 1100110001 1100101111 10010110010 10000111010 1100000111 1101011111 10000011110 1100011010 1101110000 1010000100 1100000011 1100110111 10000111100 1101011010 1100101010 1111110110 1100010000 25.750 51.858 1000.5 99696 18 15 13 60 50 4 $GNGGA,111229.00,4333.69249,N,00128.73942,E,1,05,4.92,145.5,M,53.8,M,,*4C
98 11 12 30 4333.6930700128.74117145.3ó 00128.74117 145.3 1101101011 1100101101 1100101111 10010100001 10000111100 1100001110 1101100100 10000010101 1100010101 1101110000 1001110011 1100000001 1011101100 10000111110 1101100011 1100101000 1111111011 1100010110 25.750 51.835 1000.5 100696 17 15 13 58 51 5 $GNGGA,111230.00,4333.69307,N,00128.74117,E,1,05,4.92,145.3,M,53.8,M,,*46
99 11 12 31 4333.6929400128.74210145.2ó 00128.74210 145.2 1101101011 1100101011 1100101100 10010010001 10000111011 1100001101 1101011100 10000001101 1100001011 1101110000 1001101100 1100000010 1010110111 10001000000 1101101001 1100101000 1111111001 1100011000 25.750 51.804 1000.5 101694 18 14 13 59 51 4 $GNGGA,111231.00,4333.69294,N,00128.74210,E,1,04,7.24,145.2,M,53.8,M,,*46
100 11 12 32 4333.6938900128.74235145.1ó 00128.74235 145.1 1101101011 1100101010 1100110000 10010000000 10000111011 1100010111 1101100000 10000001000 1100010111 1101110000 1001101000 1011111111 1001111011 10000111010 1101110010 1100101010 1111110011 1100011001 25.750 51.789 1000.5 102693 17 15 15 59 51 3 $GNGGA,111232.00,4333.69389,N,00128.74235,E,1,05,4.92,145.1,M,53.8,M,,*43
101 11 12 33 4333.6941800128.74196145.0ó 00128.74196 145.0 1101101011 1100100110 1100110001 10001101001 10000111000 1100011101 1101100011 10000000110 1100011001 1101110000 1001101100 1100000011 1001100111 10000111100 1101110100 1100101011 1111100101 1100010110 25.750 51.774 1000.5 103693 17 15 13 58 52 4 $GNGGA,111233.00,4333.69418,N,00128.74196,E,1,05,4.92,145.0,M,53.8,M,,*46
102 11 12 34 4333.6935400128.74153145.0ó 00128.74153 145.0 1101101011 1100100100 1100110100 10001010011 10000111000 1100011111 1101011011 10000000000 1100010110 1101110000 1001101010 1011111111 1001010110 10000111101 1101111110 1100101110 1111110001 1100010010 25.750 51.758 1000.5 104692 16 15 15 59 51 3 $GNGGA,111234.00,4333.69354,N,00128.74153,E,1,05,4.92,145.0,M,53.8,M,,*47
103 11 12 35 4333.6928100128.74135145.0ó 00128.74135 145.0 1101101011 1100011110 1100101110 10000111110 10000111010 1100101011 1101100011 10000000000 1100010101 1101110000 1001110011 1100000001 1001010010 10000111110 1101111110 1100101100 1111101100 1100011100 25.750 51.751 1000.5 105691 17 15 13 58 51 5 $GNGGA,111235.00,4333.69281,N,00128.74135,E,1,04,7.25,145.0,M,53.8,M,,*41
104 11 12 36 4333.6930600128.74110144.9ó 00128.74110 144.9 1101101011 1100011100 1100110001 10000101101 10000111100 1100101110 1101100001 10000001001 1100011111 1101110000 1001111010 1100000010 1001010111 10000111011 1101110010 1100100000 1111101101 1100100011 25.750 51.728 1000.5 106689 18 14 13 60 50 4 $GNGGA,111236.00,4333.69306,N,00128.74110,E,1,04,7.25,144.9,M,53.8,M,,*43
105 11 12 37 4333.6923100128.74051144.9ó 00128.74051 144.9 1101101011 1100010110 1100101111 10000011000 10000111000 1100110011 1101100001 10000001010 1100100000 1101110000 1001111010 1011111111 1001011111 10000111010 1101111110 1100101000 1111100101 1100010110 25.750 51.705 1000.5 107687 16 15 15 59 50 4 $GNGGA,111237.00,4333.69231,N,00128.74051,E,1,04,7.25,144.9,M,53.8,M,,*43
106 11 12 38 4333.6934800128.74039144.7ó 00128.74039 144.7 1101101011 1100010111 1100110001 10000000111 10000110111 1100110011 1101011101 10000000110 1100100001 1101110000 1010000010 1100000011 1001110101 10000111100 1110000010 1100100111 1111100110 1100010100 25.750 51.690 1000.5 108687 18 14 13 59 51 4 $GNGGA,111238.00,4333.69348,N,00128.74039,E,1,05,4.92,144.7,M,53.8,M,,*4D
107 11 12 39 4333.6932800128.74040144.6ó 00128.74040 144.6 1101101011 1100001110 1100101101 1111111000 10000111000 1100110110 1101011110 10000001001 1100100000 1101110000 1010000001 1011111110 1010001101 10000111010 1101111101 1100101000 1111101001 1100011101 25.750 51.659 1000.5 109686 17 15 14 59 50 4 $GNGGA,111239.00,4333.69328,N,00128.74040,E,1,04,7.26,144.6,M,53.8,M,,*48
108 11 12 40 4333.6936000128.74047144.5ó 00128.74047 144.5 1101101011 1100001110 1100110100 1111011110 10000111000 1101000000 1101100100 10000001001 1100011111 1101110000 1010001010 1011111111 1010011111 10000111011 1101111101 1100100111 1111100101 1100011111 25.750 51.636 1000.5 110684 16 16 14 59 52 3 $GNGGA,111240.00,4333.69360,N,00128.74047,E,1,04,7.26,144.5,M,53.8,M,,*4E
109 11 12 41 4333.6931900128.74031144.4ó 00128.74031 144.4 1101101011 1100001010 1100101101 1111010101 10000111010 1100111110 1101100001 1111111101 1100011111 1101110000 1010001101 1100000000 1010110001 10000111011 1101111001 1100100101 1111100101 1100011010 25.750 51.629 1000.5 111684 18 15 13 60 50 4 $GNGGA,111241.00,4333.69319,N,00128.74031,E,1,04,7.26,144.4,M,53.8,M,,*41
110 11 12 42 4333.6922100128.74057144.4ó 00128.74057 144.4 1101101011 1100001000 1100101111 1111001001 10000111010 1101000010 1101100010 10000000001 1100100010 1101110000 1010010011 1100000000 1011001000 10000111101 1101111010 1100100110 1111101001 1100100011 25.750 51.621 1000.5 112683 17 15 14 58 51 4 $GNGGA,111242.00,4333.69221,N,00128.74057,E,1,04,7.26,144.4,M,53.8,M,,*48
111 11 12 43 4333.6922400128.74024144.2ó 00128.74024 144.2 1101101011 1100000111 1100101111 1110111101 10000111010 1101000000 1101011101 1111111010 1100100010 1101110000 1010010111 1011111111 1011011000 10000111000 1101111011 1100100111 1111100100 1100011001 25.750 51.621 1000.5 113682 18 14 13 59 51 4 $GNGGA,111243.00,4333.69224,N,00128.74024,E,1,05,4.93,144.2,M,53.8,M,,*42
112 11 12 44 4333.6917900128.73891144.2ó 00128.73891 144.2 1101101011 1100000001 1100101110 1110110000 10000111001 1101000001 1101011101 1111111100 1100011100 1101110000 1010011011 1100000001 1011110001 10000111010 1101111101 1100101010 1111011111 1100011101 25.750 51.621 1000.5 114681 17 14 14 58 51 4 $GNGGA,111244.00,4333.69179,N,00128.73891,E,1,05,4.93,144.2,M,53.8,M,,*4F
113 11 12 45 4333.6913500128.73668144.1ó 00128.73668 144.1 1101101011 1100000010 1100110000 1110100110 10000111001 1101000000 1101011101 1111111000 1100011001 1101110000 1010011110 1011111111 1100001001 10000111100 1101111010 1100101111 1111011110 1100011010 25.750 51.613 1000.5 115680 17 15 13 58 52 4 $GNGGA,111245.00,4333.69135,N,00128.73668,E,1,05,4.93,144.1,M,53.8,M,,*4D
114 11 12 46 4333.6911900128.73559144.1ó 00128.73559 144.1 1101101011 1100000001 1100110010 1110100001 10000111010 1100111100 1101011011 10000000001 1100011100 1101110000 1010100001 1100000000 1100100000 10000111101 1110000000 1100110000 1111100111 1100011011 25.750 51.621 1000.5 116679 18 14 13 59 51 4 $GNGGA,111246.00,4333.69119,N,00128.73559,E,1,05,4.93,144.1,M,53.8,M,,*41
115 11 12 47 4333.6912800128.73535144.0ó 00128.73535 144.0 1101101011 1100000010 1100110010 1110011001 10000110110 1101000100 1101011101 1111110100 1100100001 1101110000 1010100101 1100000010 1100110000 10000111100 1101111100 1100100110 1111100001 1100011011 25.750 51.613 1000.5 117678 17 15 13 58 51 5 $GNGGA,111247.00,4333.69128,N,00128.73535,E,1,05,4.93,144.0,M,53.8,M,,*49
116 11 12 48 4333.6908700128.73557144.0ó 00128.73557 144.0 1101101011 1011111110 1100101110 1110010101 10000110110 1101000010 1101011110 1111110111 1100100111 1101110000 1010100110 1100000010 1101000000 10000111100 1101111000 1100100110 1111100000 1100010101 25.750 51.629 1000.5 118677 18 14 13 59 51 4 $GNGGA,111248.00,4333.69087,N,00128.73557,E,1,05,4.93,144.0,M,53.8,M,,*46
117 11 12 49 4333.6904300128.73555143.9ó 00128.73555 143.9 1101101100 1011111111 1100110011 1110010000 10000110111 1101000011 1101100001 1111110111 1100100000 1101110000 1010101001 1011111111 1101001110 10000111100 1101110101 1100100101 1111010110 1100011000 25.750 51.621 1000.5 119676 16 15 15 59 51 3 $GNGGA,111249.00,4333.69043,N,00128.73555,E,1,05,4.93,143.9,M,53.8,M,,*43
118 11 12 50 4333.6903600128.73585143.9ó 00128.73585 143.9 1101101011 1011111101 1100110000 1110010100 10000110111 1100111111 1101011100 1111111011 1100100111 1101110000 1010101110 1011111111 1101011111 10000111011 1101110100 1100100110 1111011111 1100010011 25.750 51.606 1000.5 120675 16 16 14 59 52 3 $GNGGA,111250.00,4333.69036,N,00128.73585,E,1,05,4.93,143.9,M,53.8,M,,*44
119 11 12 51 4333.6890600128.73611143.9ó 00128.73611 143.9 1101101011 1011111101 1100101101 1110011100 10000111001 1101000010 1101100000 1111110111 1100100001 1101110000 1010110011 1100000001 1101101000 10000111001 1101110100 1100101001 1111010110 1100010000 25.750 51.613 1000.5 121671 18 14 13 59 51 4 $GNGGA,111251.00,4333.68906,N,00128.73611,E,1,05,4.94,143.9,M,53.8,M,,*47
120 11 12 52 4333.6887100128.73682143.9ó 00128.73682 143.9 1101101011 1011111010 1100101111 1110010110 10000111000 1100111000 1101010111 1111111011 1100100000 1101110000 1010110100 1100000000 1101111101 10000111100 1101110011 1100101001 1111010101 1100010100 25.750 51.652 1000.5 122674 16 16 14 59 52 3 $GNGGA,111252.00,4333.68871,N,00128.73682,E,1,05,4.94,143.9,M,53.8,M,,*4F
121 11 12 53 4333.6888300128.73630143.9ó 00128.73630 143.9 1101101011 1011111100 1100110000 1110011101 10000111000 1100111110 1101011110 10000000001 1100101001 1101110000 1010110110 1100000000 1110000001 10000111001 1101110101 1100101101 1111011000 1100010101 25.750 51.682 1000.5 123672 17 15 14 60 51 3 $GNGGA,111253.00,4333.68883,N,00128.73630,E,1,04,7.28,143.9,M,53.8,M,,*4F
122 11 12 54 4333.6885500128.73677144.0ó 00128.73677 144.0 1101101011 1011111100 1100101110 1110010111 10000110111 1100111011 1101011110 10000000011 1100011100 1101110000 1010110111 1100000001 1110001110 10000111001 1101110000 1100100011 1111010011 1100010100 25.750 51.697 1000.5 124670 17 14 14 58 51 4 $GNGGA,111254.00,4333.68855,N,00128.73677,E,1,04,7.29,144.0,M,53.8,M,,*4F
123 11 12 55 4333.6876300128.73619144.0ó 00128.73619 144.0 1101101011 1011111100 1100101110 1110011100 10000110111 1100111110 1101100001 1111110010 1100010010 1101110000 1010111101 1100000001 1110011010 10000111001 1101110010 1100100100 1111010100 1100010011 25.750 51.697 1000.5 125670 18 15 13 60 50 4 $GNGGA,111255.00,4333.68763,N,00128.73619,E,1,05,4.94,144.0,M,53.8,M,,*48
124 11 12 56 4333.6872100128.73632144.0ó 00128.73632 144.0 1101101011 1011111101 1100101110 1110011111 10000110100 1100111010 1101011100 1111110110 1100011100 1101110000 1010111010 1011111111 1110100100 10000111010 1101110001 1100101011 1111011001 1100010001 25.750 51.690 1000.5 126668 17 14 14 58 51 4 $GNGGA,111256.00,4333.68721,N,00128.73632,E,1,05,4.94,144.0,M,53.8,M,,*44
125 11 12 57 4333.6876700128.73551144.0ó 00128.73551 144.0 1101101011 1011111110 1100110001 1110100001 10000110111 1100111000 1101011011 1111110101 1100011011 1101110000 1010111100 1100000010 1110100111 10000111001 1101101100 1100100111 1111010011 1100010100 25.750 51.697 1000.5 127667 17 15 13 59 51 4 $GNGGA,111257.00,4333.68767,N,00128.73551,E,1,05,4.94,144.0,M,53.8,M,,*41
126 11 12 58 4333.6882300128.73464144.0ó 00128.73464 144.0 1101101011 1100000000 1100110000 1110101001 10000110110 1100111101 1101011110 1111110010 1100011011 1101110000 1010110111 1011111111 1110101011 10000111011 1101110000 1100100100 1111010111 1100010100 25.750 51.690 1000.5 128665 18 15 13 60 50 4 $GNGGA,111258.00,4333.68823,N,00128.73464,E,1,05,4.94,144.0,M,53.8,M,,*46
127 11 12 59 4333.6881600128.73504144.1ó 00128.73504 144.1 1101101011 1011111111 1100110010 1110101101 10000110101 1100110110 1101011010 1111101111 1100011000 1101110000 1010111101 1100000000 1110110001 10000111011 1101110001 1100100111 1111010001 1100001110 25.750 51.682 1000.5 129666 16 16 15 59 51 3 $GNGGA,111259.00,4333.68816,N,00128.73504,E,1,05,4.94,144.1,M,53.8,M,,*47
128 11 13 00 4333.6884600128.73504144.1ó 00128.73504 144.1 1101101011 1100000000 1100110000 1110101110 10000110101 1100110111 1101011011 1111110001 1100010001 1101110000 1010111011 1011111111 1110101101 10000110111 1101101111 1100100101 1111001110 1100001001 25.750 51.667 1000.5 130663 17 15 14 60 51 3 $GNGGA,111300.00,4333.68846,N,00128.73504,E,1,04,7.30,144.1,M,53.8,M,,*43
129 11 13 01 4333.6883300128.73524144.2ó 00128.73524 144.2 1101101011 1011111111 1100101111 1110110011 10000110111 1100110100 1101011011 1111101100 1100010010 1101110000 1011000011 1100000001 1110110111 10000111100 1101110101 1100101000 1111010101 1100001011 25.750 51.652 1000.5 131663 16 15 15 59 51 3 $GNGGA,111301.00,4333.68833,N,00128.73524,E,1,04,7.30,144.2,M,53.8,M,,*41
130 11 13 02 4333.6883900128.73515144.2ó 00128.73515 144.2 1101101011 1100000010 1100110010 1110110010 10000110111 1100111000 1101011100 1111101010 1100011000 1101110000 1011000000 1011111110 1111000000 10000111001 1101110000 1100100011 1111001111 1100001110 25.750 51.644 1000.5 132662 17 15 13 58 52 4 $GNGGA,111302.00,4333.68839,N,00128.73515,E,1,05,4.94,144.2,M,53.8,M,,*46
131 11 13 03 4333.6890300128.73488144.3ó 00128.73488 144.3 1101101011 1100000000 1100110000 1110111001 10000111001 1100110100 1101011000 1111101100 1100010100 1101110000 1010111110 1011111011 1111000011 10000111011 1101110000 1100100101 1111010101 1100010000 25.750 51.644 1000.5 133662 17 15 14 60 50 4 $GNGGA,111303.00,4333.68903,N,00128.73488,E,1,05,4.95,144.3,M,53.8,M,,*4A
132 11 13 04 4333.6889200128.73512144.4ó 00128.73512 144.4 1101101011 1011111111 1100101111 1111000111 10000111110 1100111010 1101100011 1111101011 1100001110 1101110000 1011000110 1011111111 1111001010 10000111100 1101110000 1100100111 1111001010 1100000110 25.750 51.636 1000.5 134660 17 15 13 59 50 5 $GNGGA,111304.00,4333.68892,N,00128.73512,E,1,04,7.30,144.4,M,53.8,M,,*4C
133 11 13 05 4333.6895200128.73549144.5ó 00128.73549 144.5 1101101011 1011111110 1100101101 1111001001 10000111010 1100111011 1101011110 1111101010 1100011000 1101110000 1011000111 1100000100 1111001101 10000111011 1101110000 1100100101 1111001100 1100000010 25.750 51.636 1000.5 135658 18 14 13 59 51 4 $GNGGA,111305.00,4333.68952,N,00128.73549,E,1,04,7.31,144.5,M,53.8,M,,*4E
134 11 13 06 4333.6885500128.73565144.6ó 00128.73565 144.6 1101101011 1100000000 1100110000 1111001001 10000111010 1100110010 1101100100 1111100000 1100010100 1101110000 1011000110 1011111111 1111010001 10000111011 1101101010 1100100100 1111001001 1100000110 25.813 51.652 1000.5 136657 17 14 14 59 50 4 $GNGGA,111306.00,4333.68855,N,00128.73565,E,1,04,7.31,144.6,M,53.8,M,,*46
135 11 13 07 4333.6887500128.73578144.7ó 00128.73578 144.7 1101101011 1100000001 1100101111 1111000011 10000110010 1100101011 1101011011 1111100010 1100010001 1101110000 1011000100 1100000000 1111010100 10000111011 1101101110 1100101110 1111010111 1100010001 25.813 51.659 1000.5 137657 16 14 13 59 51 4 $GNGGA,111307.00,4333.68875,N,00128.73578,E,1,04,7.31,144.7,M,53.8,M,,*48
136 11 13 08 4333.6884200128.73613144.7ó 00128.73613 144.7 1101101011 1100000011 1100110010 1111001010 10000111000 1100110001 1101011000 1111100110 1100010000 1101110000 1011000110 1100000000 1111010010 10000111000 1101101111 1100101001 1111010001 1100000111 25.750 51.674 1000.5 138656 16 14 15 59 51 3 $GNGGA,111308.00,4333.68842,N,00128.73613,E,1,04,7.31,144.7,M,53.8,M,,*4D
137 11 13 09 4333.6882300128.73616144.8ó 00128.73616 144.8 1101101011 1011111110 1100101100 1111000101 10000110110 1100110000 1101100011 1111100011 1100010010 1101110000 1011000111 1100000010 1111010010 10000111001 1101110000 1100101000 1111001111 1100001001 25.750 51.674 1000.5 139653 17 15 13 59 50 5 $GNGGA,111309.00,4333.68823,N,00128.73616,E,1,04,7.31,144.8,M,53.8,M,,*41
138 11 13 10 4333.6885800128.73652144.8ó 00128.73652 144.8 1101101011 1011111110 1100101011 1111000110 10000110101 1100101110 1101011111 1111101011 1100010010 1101110000 1011000101 1100000000 1111011101 10000111010 1101101101 1100100100 1111000001 1011111110 25.813 51.674 1000.5 140653 18 14 13 60 50 4 $GNGGA,111310.00,4333.68858,N,00128.73652,E,1,04,7.32,144.8,M,53.8,M,,*46
139 11 13 11 4333.6882300128.73660144.9ó 00128.73660 144.9 1101101011 1100000010 1100101111 1111001001 10000110101 1100110010 1101100001 1111100110 1100010001 1101110000 1011001001 1100000000 1111011011 10000111100 1101101111 1100101000 1111001100 1100000011 25.813 51.674 1000.5 141652 17 14 14 58 51 4 $GNGGA,111311.00,4333.68823,N,00128.73660,E,1,04,7.32,144.9,M,53.8,M,,*4B
140 11 13 12 4333.6889000128.73647144.9ó 00128.73647 144.9 1101101011 1100000010 1100110010 1111001000 10000110111 1100101111 1101011101 1111101000 1100001100 1101110000 1011001000 1011111111 1111011111 10000111001 1101101001 1100101000 1111001011 1100000101 25.813 51.674 1000.5 142652 17 15 14 60 51 3 $GNGGA,111312.00,4333.68890,N,00128.73647,E,1,04,7.32,144.9,M,53.8,M,,*45
141 11 13 13 4333.6891400128.73653144.9ó 00128.73653 144.9 1101101011 1100000010 1100110001 1111010010 10000110110 1100101111 1101011011 1111011101 1100001000 1101110000 1011000101 1100000000 1111011100 10000111001 1101101101 1100100011 1111000110 1100000000 25.813 51.667 1000.5 143651 16 15 15 59 51 3 $GNGGA,111313.00,4333.68914,N,00128.73653,E,1,04,7.32,144.9,M,53.8,M,,*4C
142 11 13 14 4333.6894300128.73642145.0ó 00128.73642 145.0 1101101011 1100000101 1100110000 1111010011 10000111000 1100110000 1101010111 1111100100 1100010000 1101110000 1011001000 1100000000 1111011100 10000111011 1101110001 1100101011 1111001000 1100000100 25.750 51.652 1000.5 144650 16 15 13 58 52 4 $GNGGA,111314.00,4333.68943,N,00128.73642,E,1,04,7.32,145.0,M,53.8,M,,*41
143 11 13 15 4333.6897600128.73638145.1ó 00128.73638 145.1 1101101011 1100000011 1100110000 1111010100 10000110110 1100100111 1101011011 1111100100 1100001011 1101110000 1011001001 1100000001 1111011011 10000111011 1101101011 1100101000 1111001010 1100001000 25.750 51.636 1000.5 145649 18 15 13 60 50 4 $GNGGA,111315.00,4333.68976,N,00128.73638,E,1,04,7.33,145.1,M,53.8,M,,*4B
144 11 13 16 4333.6902700128.73640145.1ó 00128.73640 145.1 1101101011 1100000011 1100110001 1111010011 10000111001 1100101101 1101011100 1111100100 1100001000 1101110000 1011000111 1100000001 1111011101 10000111010 1101110000 1100101010 1111000110 1100000100 25.813 51.629 1000.5 146647 17 15 14 59 50 4 $GNGGA,111316.00,4333.69027,N,00128.73640,E,1,04,7.33,145.1,M,53.8,M,,*4B
145 11 13 17 4333.6909000128.73660145.2ó 00128.73660 145.2 1101101011 1100000010 1100101101 1111011001 10000110111 1100101110 1101011100 1111100000 1100001000 1101110000 1011000110 1011111101 1111011101 10000111010 1101110111 1100110010 1111001001 1100000000 25.750 51.629 1000.5 147646 18 14 13 59 51 4 $GNGGA,111317.00,4333.69090,N,00128.73660,E,1,04,7.33,145.2,M,53.8,M,,*47
146 11 13 18 4333.6912100128.73641145.2ó 00128.73641 145.2 1101101011 1100000100 1100110000 1111011010 10000111000 1100110100 1101100101 1111011001 1100001010 1101110000 1011001001 1100000001 1111011111 10000111011 1101101000 1100101000 1111000110 1011110110 25.813 51.621 1000.5 148645 16 15 15 59 51 3 $GNGGA,111318.00,4333.69121,N,00128.73641,E,1,04,7.33,145.2,M,53.8,M,,*40
147 11 13 19 4333.6917200128.73634145.3ó 00128.73634 145.3 1101101011 1100000011 1100101111 1111010101 10000110101 1100110000 1101011110 1111011110 1100001100 1101110000 1011001000 1011111110 1111011111 10000111001 1101100110 1100101001 1111000000 1011111111 25.750 51.606 1000.5 149644 16 16 14 59 52 3 $GNGGA,111319.00,4333.69172,N,00128.73634,E,1,04,7.33,145.3,M,53.8,M,,*44
148 11 13 20 4333.6916200128.73441145.3ó 00128.73441 145.3 1101101011 1100000101 1100110000 1111011010 10000110101 1100100111 1101010100 1111100110 1100011010 1101110000 1011001000 1100000011 1111100100 10000111001 1101110000 1100100111 1111000011 1100000101 25.813 51.598 1000.5 150641 17 15 14 60 51 3 $GNGGA,111320.00,4333.69162,N,00128.73441,E,1,04,7.34,145.3,M,53.8,M,,*48
149 11 13 21 4333.6920000128.73507145.2ó 00128.73507 145.2 1101101011 1100000100 1100110000 1111011101 10000110110 1100110001 1101100010 1111101010 1100010000 1101110000 1011001000 1100000000 1111101001 10000111011 1101101100 1100101001 1111000000 1011111111 25.813 51.598 1000.5 151641 16 16 14 59 51 4 $GNGGA,111321.00,4333.69200,N,00128.73507,E,1,04,7.34,145.2,M,53.8,M,,*4C
150 11 13 22 4333.6914900128.73543145.3ó 00128.73543 145.3 1101101011 1100000011 1100101111 1111011010 10000110100 1100110011 1101100011 1111100010 1100000111 1101110000 1011001000 1011111101 1111101100 10000111010 1101101001 1100100100 1111001010 1100001011 25.750 51.590 1000.5 152640 18 14 13 60 50 4 $GNGGA,111322.00,4333.69149,N,00128.73543,E,1,04,7.34,145.3,M,53.8,M,,*40
151 11 13 23 4333.6911600128.73583145.3ó 00128.73583 145.3 1101101100 1100000010 1100101101 1111011010 10000110100 1100110010 1101100010 1111100110 1100001001 1101110000 1011001010 1011111110 1111101011 10000111011 1101101001 1100100110 1111000011 1011111111 25.750 51.590 1000.5 153639 16 15 15 59 51 3 $GNGGA,111323.00,4333.69116,N,00128.73583,E,1,04,7.34,145.3,M,53.8,M,,*47
152 11 13 24 4333.6905200128.73586145.3ó 00128.73586 145.3 1101101011 1100000101 1100110001 1111011110 10000110101 1100110001 1101100001 1111101000 1100001101 1101110000 1011001011 1011111110 1111100101 10000110111 1101100111 1100100011 1110111110 1100000010 25.750 51.590 1000.5 154639 18 15 13 60 50 4 $GNGGA,111324.00,4333.69052,N,00128.73586,E,1,04,7.34,145.3,M,53.8,M,,*44
153 11 13 25 4333.6907400128.73629145.3ó 00128.73629 145.3 1101101011 1100000101 1100101111 1111100001 10000110110 1100110000 1101011111 1111100110 1100010011 1101110000 1011001000 1011111110 1111100100 10000111010 1101101100 1100101011 1111000001 1100000011 25.750 51.598 1000.5 155638 16 15 15 59 51 3 $GNGGA,111325.00,4333.69074,N,00128.73629,E,1,04,7.35,145.3,M,53.8,M,,*46
154 11 13 26 4333.6905200128.73622145.3ó 00128.73622 145.3 1101101011 1100000110 1100101111 1111100011 10000110111 1100101110 1101100010 1111100010 1100001010 1101110000 1011000111 1011111100 1111101011 10000111101 1101100111 1100100101 1111000010 1100001001 25.750 51.598 1000.5 156637 17 15 13 58 52 4 $GNGGA,111326.00,4333.69052,N,00128.73622,E,1,04,7.35,145.3,M,53.8,M,,*4A
155 11 13 27 4333.6905400128.73682145.1ó 00128.73682 145.1 1101101011 1100000101 1100110000 1111100000 10000111010 1100110010 1101100100 1111100101 1100001101 1101110000 1011001000 1011111110 1111101101 10000111011 1101101110 1100100111 1110111000 1011111101 25.750 51.598 1000.5 157634 17 15 14 60 51 3 $GNGGA,111327.00,4333.69054,N,00128.73682,E,1,05,2.49,145.1,M,53.8,M,,*4A
156 11 13 28 4333.6901800128.73762145.0ó 00128.73762 145.0 1101101011 1100000100 1100110000 1111100001 10000110111 1100101110 1101011100 1111100010 1100000111 1101110000 1011001001 1100000001 1111101000 10000111000 1101100100 1100100100 1111000111 1100001100 25.750 51.583 1000.5 158635 17 15 14 58 51 4 $GNGGA,111328.00,4333.69018,N,00128.73762,E,1,05,2.49,145.0,M,53.8,M,,*43
