id HH MM SS longitude latitude altitude adc_1_ch0 adc_1_ch1 adc_1_ch2 adc_1_ch3 adc_1_ch4 adc_1_ch5 adc_1_ch6 adc_1_ch7 adc_1_ch8 adc_2_ch0 adc_2_ch1 adc_2_ch2 adc_2_ch3 adc_2_ch4 adc_2_ch5 adc_2_ch6 adc_2_ch7 adc_2_ch8 temp hum pres t_prog t_gps t_split t_adc t_temp t_hum t_pres trame_gga
1 11 55 24 4333.6860300128.72727161.9ó 00128.72727 161.9 1101101000 1100001000 1100101100 10000000111 10000110001 1100100101 1101010100 1111110000 1100000011 1101110001 1011010000 1011111111 10000001000 10000111000 1101101011 1100100110 1110101111 1011101000 26.375 52.247 795.83 3980 17 15 13 58 52 4 $GNGGA,115524.00,4333.68603,N,00128.72727,E,1,04,8.69,161.9,M,53.8,M,,*46
2 11 55 25 4333.6861900128.72760161.8ó 00128.72760 161.8 1101101000 1100001000 1100101011 10000001000 10000110100 1100100110 1101010011 1111101111 1100000111 1101110001 1011001111 1011111111 10000000000 10000110110 1101101011 1100100100 1110101100 1011100101 26.375 52.300 1000.2 4981 17 15 14 59 50 4 $GNGGA,115525.00,4333.68619,N,00128.72760,E,1,05,7.07,161.8,M,53.8,M,,*48
3 11 55 26 4333.6862400128.72737161.8ó 00128.72737 161.8 1101101000 1100000111 1100101000 10000001010 10000110101 1100100000 1101010010 1111110111 1100001001 1101110001 1011001101 1011111100 10000010100 10000111011 1101101100 1100100110 1110101011 1011101000 26.375 52.338 1000.2 5979 17 15 13 59 50 5 $GNGGA,115526.00,4333.68624,N,00128.72737,E,1,04,8.68,161.8,M,53.8,M,,*40
4 11 55 27 4333.6864600128.72777161.8ó 00128.72777 161.8 1101101000 1100000111 1100101010 10000001010 10000110100 1100100110 1101010111 1111101011 1011111100 1101110001 1011010010 1100000001 10000001110 10000111010 1101101101 1100100111 1110110101 1011101111 26.375 52.331 1000.2 6977 18 14 13 60 50 4 $GNGGA,115527.00,4333.68646,N,00128.72777,E,1,04,8.68,161.8,M,53.8,M,,*41
5 11 55 28 4333.6858400128.72727161.8ó 00128.72727 161.8 1101101000 1100001010 1100101011 10000001101 10000110100 1100100010 1101011000 1111101011 1100000001 1101110000 1011001111 1100000000 10000001000 10000110111 1101101010 1100100101 1110101110 1011100101 26.375 52.346 1000.2 7976 17 14 14 58 51 4 $GNGGA,115528.00,4333.68584,N,00128.72727,E,1,04,8.67,161.8,M,53.8,M,,*49
6 11 55 29 4333.6855900128.72758161.7ó 00128.72758 161.7 1101101000 1100001010 1100101101 10000000100 10000101111 1100101010 1101011101 1111101011 1011111100 1101110000 1011001001 1011111101 10000010001 10000111011 1101101000 1100100011 1110110100 1011110000 26.313 52.323 1000.2 8976 17 15 14 60 51 3 $GNGGA,115529.00,4333.68559,N,00128.72758,E,1,04,8.67,161.7,M,53.8,M,,*4F
7 11 55 30 4333.6858800128.72730161.8ó 00128.72730 161.8 1101101000 1100001011 1100101101 10000001001 10000110101 1100100010 1101010110 1111110000 1100000001 1101110001 1011010001 1100000000 10000001110 10000111010 1101100100 1100011111 1110101110 1011101110 26.375 52.178 1000.2 9975 16 15 15 59 51 3 $GNGGA,115530.00,4333.68588,N,00128.72730,E,1,04,8.67,161.8,M,53.8,M,,*4A
8 11 55 31 4333.6859700128.72786161.7ó 00128.72786 161.7 1101101000 1100001011 1100101101 10000000101 10000110010 1100100010 1101010110 1111100101 1011111100 1101110001 1011010010 1100000000 10000010110 10000111100 1101100111 1100011110 1110101010 1011101011 26.375 52.071 1000.2 10973 17 15 13 59 51 4 $GNGGA,115531.00,4333.68597,N,00128.72786,E,1,04,8.66,161.7,M,53.8,M,,*46
9 11 55 32 4333.6853500128.72869161.7ó 00128.72869 161.7 1101101000 1100001001 1100101011 10000001000 10000110110 1100101000 1101010010 1111011111 1011110111 1101110000 1011000110 1011111000 10000001101 10000111001 1101101011 1100101010 1110110101 1011101111 26.375 51.972 1000.2 11973 17 15 14 60 51 3 $GNGGA,115532.00,4333.68535,N,00128.72869,E,1,04,8.66,161.7,M,53.8,M,,*43
10 11 55 33 4333.6847000128.72737161.7ó 00128.72737 161.7 1101101000 1100001011 1100101100 10000001010 10000110101 1100100001 1101010000 1111100101 1011110010 1101110001 1011001101 1100000001 1111111101 10000110010 1101101000 1100100110 1110101000 1011100100 26.375 51.941 1000.2 12972 17 15 14 59 50 4 $GNGGA,115533.00,4333.68470,N,00128.72737,E,1,05,7.06,161.7,M,53.8,M,,*4E
11 11 55 34 4333.6843600128.72520161.7ó 00128.72520 161.7 1101101000 1100001001 1100100111 10000001010 10000110011 1100100001 1101010000 1111100101 1011111010 1101110001 1011001010 1011111110 10000001011 10000111010 1101101100 1100101010 1110101110 1011101110 26.313 51.957 1000.2 13971 18 14 13 59 51 4 $GNGGA,115534.00,4333.68436,N,00128.72520,E,1,05,7.06,161.7,M,53.8,M,,*4F
12 11 55 35 4333.6835500128.72344161.8ó 00128.72344 161.8 1101101000 1100001011 1100101100 10000001101 10000110001 1100100101 1101010110 1111101110 1100000001 1101110000 1011010000 1100000011 10000000100 10000111000 1101110000 1100101011 1110100101 1011100011 26.375 51.987 1000.2 14970 16 15 15 59 51 3 $GNGGA,115535.00,4333.68355,N,00128.72344,E,1,05,7.06,161.8,M,53.8,M,,*47
13 11 55 36 4333.6832900128.72373161.8ó 00128.72373 161.8 1101101000 1100001011 1100101011 10000000111 10000110100 1100100110 1101010111 1111101100 1011111111 1101110001 1011001010 1100000001 10000000001 10000111000 1101101000 1100100110 1110101011 1011011110 26.375 51.972 1000.2 15970 16 16 14 59 52 3 $GNGGA,115536.00,4333.68329,N,00128.72373,E,1,05,7.06,161.8,M,53.8,M,,*4B
14 11 55 37 4333.6836100128.72397161.8ó 00128.72397 161.8 1101101000 1100001000 1100101000 10000000100 10000110000 1100011101 1101010010 1111100111 1011111010 1101110001 1011001001 1011111110 10000001001 10000111100 1101101110 1100101001 1110101011 1011100110 26.375 51.941 1000.2 16968 18 14 14 60 51 3 $GNGGA,115537.00,4333.68361,N,00128.72397,E,1,05,7.06,161.8,M,53.8,M,,*4C
15 11 55 38 4333.6847900128.72486161.8ó 00128.72486 161.8 1101101000 1100001100 1100101110 10000001001 10000110100 1100100000 1101001101 1111101010 1011110111 1101110001 1011000111 1011111110 10000000010 10000111000 1101100111 1100011101 1110101000 1011100110 26.375 51.941 1000.2 17968 17 15 13 59 50 5 $GNGGA,115538.00,4333.68479,N,00128.72486,E,1,05,7.06,161.8,M,53.8,M,,*4A
16 11 55 39 4333.6851300128.72587161.9ó 00128.72587 161.9 1101101000 1100001011 1100101001 10000001111 10000110110 1100011111 1101001101 1111101000 1011110010 1101110001 1011001100 1011111111 10000000011 10000111011 1101101011 1100100110 1110101001 1011100001 26.375 52.018 1000.2 18967 17 15 14 60 51 3 $GNGGA,115539.00,4333.68513,N,00128.72587,E,1,05,7.06,161.9,M,53.8,M,,*47
17 11 55 40 4333.6839600128.72594162.0ó 00128.72594 162.0 1101101000 1100001010 1100101010 10000001101 10000110101 1100100000 1101001111 1111101100 1011110000 1101110001 1011001011 1100000000 1111111110 10000111011 1101101111 1100101011 1110100101 1011011110 26.375 52.094 1000.2 19965 17 14 14 59 50 4 $GNGGA,115540.00,4333.68396,N,00128.72594,E,1,05,7.06,162.0,M,53.8,M,,*4A
18 11 55 41 4333.6849100128.72765161.9ó 00128.72765 161.9 1101101000 1100001000 1100101001 10000001000 10000110100 1100101000 1101011001 1111101000 1011110000 1101110001 1011001011 1100000000 10000000100 10000111011 1101100110 1100100111 1110101100 1011011011 26.375 52.125 1000.2 20964 18 14 13 60 50 4 $GNGGA,115541.00,4333.68491,N,00128.72765,E,1,05,7.06,161.9,M,53.8,M,,*4D
19 11 55 42 4333.6850900128.72899161.9ó 00128.72899 161.9 1101101000 1100001010 1100101011 10000000100 10000110010 1100011110 1101010100 1111101010 1011110110 1101110001 1011000111 1011111110 1111111011 10000110111 1101101100 1100100101 1110100001 1011011000 26.375 52.231 1000.2 21963 17 15 14 59 50 4 $GNGGA,115542.00,4333.68509,N,00128.72899,E,1,05,7.06,161.9,M,53.8,M,,*42
20 11 55 43 4333.6868300128.73097159.7ó 00128.73097 159.7 1101101000 1100001100 1100101111 10000001001 10000110011 1100100101 1101010101 1111101001 1011110100 1101110000 1011010000 1100000001 10000001010 10000111010 1101100111 1100100011 1110101001 1011100110 26.375 52.285 1000.2 22965 17 16 13 59 51 4 $GNGGA,115543.00,4333.68683,N,00128.73097,E,1,06,1.59,159.7,M,53.8,M,,*4F
21 11 55 44 4333.6881500128.73338158.5ó 00128.73338 158.5 1101101000 1100001000 1100101010 10000000100 10000110001 1100100101 1101010111 1111101000 1011110110 1101110001 1011001100 1011111110 10000000110 10000111010 1101110100 1100101010 1110100011 1011100000 26.375 52.346 1000.2 23963 17 15 14 60 51 3 $GNGGA,115544.00,4333.68815,N,00128.73338,E,1,06,1.59,158.5,M,53.8,M,,*4C
22 11 55 45 4333.6895700128.73304157.4ó 00128.73304 157.4 1101101000 1100001000 1100101010 10000001010 10000110100 1100100000 1101010011 1111100101 1011111000 1101110001 1011001110 1011111111 10000000010 10000111000 1101101010 1100100100 1110101010 1011100010 26.375 52.277 1000.2 24962 17 16 14 59 50 4 $GNGGA,115545.00,4333.68957,N,00128.73304,E,1,06,1.59,157.4,M,53.8,M,,*4B
23 11 55 46 4333.6902100128.73373157.1ó 00128.73373 157.1 1101101000 1100001001 1100101011 10000000010 10000110010 1100100001 1101010101 1111100111 1011110100 1101110001 1011010000 1100000001 10000000111 10000111010 1101101101 1100101001 1110100001 1011011100 26.375 52.170 1000.2 25960 18 14 13 60 50 4 $GNGGA,115546.00,4333.69021,N,00128.73373,E,1,06,1.59,157.1,M,53.8,M,,*44
24 11 55 47 4333.6898600128.73309156.4ó 00128.73309 156.4 1101101000 1100001000 1100101000 10000001000 10000110011 1100100000 1101001011 1111101001 1011110011 1101110000 1011001101 1011111111 10000000011 10000110111 1101100101 1100100010 1110100010 1011100000 26.375 52.147 1000.2 26960 17 15 14 59 50 4 $GNGGA,115547.00,4333.68986,N,00128.73309,E,1,06,1.59,156.4,M,53.8,M,,*49
25 11 55 48 4333.6903700128.73267155.8ó 00128.73267 155.8 1101101000 1100000101 1100101000 10000001000 10000110011 1100100101 1101010100 1111110001 1011111111 1101110001 1011001110 1100000011 10000001110 10000111100 1101101100 1100101001 1110011111 1011011111 26.375 52.071 1000.2 27959 17 15 13 58 52 4 $GNGGA,115548.00,4333.69037,N,00128.73267,E,1,06,1.59,155.8,M,53.8,M,,*42
26 11 55 49 4333.6907400128.73204155.5ó 00128.73204 155.5 1101101000 1100001001 1100101100 10000000111 10000110011 1100100010 1101010010 1111101010 1011111011 1101110001 1011001010 1100000001 10000010101 10000111011 1101101110 1100101100 1110100001 1011011110 26.375 52.079 1000.2 28957 17 15 14 60 51 3 $GNGGA,115549.00,4333.69074,N,00128.73204,E,1,06,1.59,155.5,M,53.8,M,,*4C
27 11 55 50 4333.6912200128.73265155.3ó 00128.73265 155.3 1101101000 1100001010 1100101100 10000000101 10000110001 1100100100 1101010011 1111110001 1011111001 1101110001 1011001110 1100000000 10000001000 10000111001 1101100110 1100100110 1110100001 1011011100 26.375 52.056 1000.2 29958 17 16 13 59 50 5 $GNGGA,115550.00,4333.69122,N,00128.73265,E,1,06,1.59,155.3,M,53.8,M,,*47
28 11 55 51 4333.6909700128.73214154.9ó 00128.73214 154.9 1101101000 1100000111 1100101000 10000000011 10000110000 1100100000 1101010011 1111101010 1011110100 1101110001 1011001001 1100000000 10000000010 10000110111 1101101011 1100100111 1110100100 1011100011 26.375 52.079 1000.2 30955 17 15 14 60 51 3 $GNGGA,115551.00,4333.69097,N,00128.73214,E,1,06,1.59,154.9,M,53.8,M,,*44
29 11 55 52 4333.6917200128.73134154.6ó 00128.73134 154.6 1101101000 1100001001 1100101100 10000000001 10000110010 1100100101 1101010000 1111101100 1011110110 1101110001 1011001000 1100000000 10000000000 10000111001 1101101110 1100101010 1110011110 1011010011 26.375 52.285 1000.2 31954 16 15 15 59 50 4 $GNGGA,115552.00,4333.69172,N,00128.73134,E,1,06,1.59,154.6,M,53.8,M,,*43
30 11 55 53 4333.6914300128.73087154.3ó 00128.73087 154.3 1101101000 1100001000 1100101001 10000000001 10000110000 1100100011 1101011100 1111100111 1011101110 1101110001 1011000111 1011111100 1111111000 10000110111 1101101100 1100101011 1110100100 1011100011 26.375 52.308 1000.2 32952 16 15 14 59 52 3 $GNGGA,115553.00,4333.69143,N,00128.73087,E,1,05,1.86,154.3,M,53.8,M,,*4D
31 11 55 54 4333.6914300128.73065154.0ó 00128.73065 154.0 1101101000 1100001010 1100101010 10000001101 10000110011 1100100110 1101010110 1111100110 1011101110 1101110000 1011010001 1100000010 10000000111 10000111000 1101101010 1100100110 1110011011 1011011001 26.375 52.231 1000.2 33951 16 15 15 59 51 3 $GNGGA,115554.00,4333.69143,N,00128.73065,E,1,05,1.86,154.0,M,53.8,M,,*45
32 11 55 55 4333.6917200128.73014153.7ó 00128.73014 153.7 1101101000 1100001010 1100101011 10000001001 10000110011 1100011110 1101010001 1111011111 1011101001 1101110001 1011001110 1011111110 10000000100 10000111000 1101101101 1100100011 1110100100 1011011111 26.375 52.224 1000.2 34950 17 15 13 59 51 4 $GNGGA,115555.00,4333.69172,N,00128.73014,E,1,05,2.13,153.7,M,53.8,M,,*4F
33 11 55 56 4333.6918500128.72971153.3ó 00128.72971 153.3 1101101000 1100000111 1100100111 10000001111 10000110101 1100100100 1101010100 1111011100 1011101000 1101110001 1011010000 1100000100 1111111011 10000110110 1101101001 1100101000 1110100010 1011100000 26.375 52.102 1000.2 35950 18 14 13 59 51 4 $GNGGA,115556.00,4333.69185,N,00128.72971,E,1,05,1.86,153.3,M,53.8,M,,*44
34 11 55 57 4333.6924000128.72927153.3ó 00128.72927 153.3 1101101000 1100001010 1100101001 10000000111 10000101111 1100100100 1101011001 1111100100 1011110000 1101110000 1011000101 1011111101 1111111001 10000110110 1101101101 1100100010 1110100100 1011100011 26.375 51.995 1000.2 36948 17 14 14 59 50 4 $GNGGA,115557.00,4333.69240,N,00128.72927,E,1,05,1.86,153.3,M,53.8,M,,*4C
35 11 55 58 4333.6923500128.72914153.2ó 00128.72914 153.2 1101101000 1100001000 1100101010 10000001010 10000110011 1100011110 1101000110 1111100000 1011110010 1101110000 1011010000 1100000100 10000001101 10000111100 1101101010 1100100110 1110101101 1011101010 26.375 52.048 1000.2 37947 18 14 13 59 51 4 $GNGGA,115558.00,4333.69235,N,00128.72914,E,1,05,1.86,153.2,M,53.8,M,,*40
36 11 55 59 4333.6943600128.72847153.5ó 00128.72847 153.5 1101101000 1100001000 1100100111 10000000001 10000101110 1100100101 1101010101 1111100101 1011110010 1101110001 1011001110 1100000000 10000001101 10000111100 1101101000 1100100011 1110100110 1011100100 26.375 52.048 1000.2 38946 17 14 14 58 51 4 $GNGGA,115559.00,4333.69436,N,00128.72847,E,1,05,1.86,153.5,M,53.8,M,,*44
37 11 56 00 4333.6947400128.72836153.8ó 00128.72836 153.8 1101101000 1100001001 1100101100 10000001001 10000110110 1100100010 1101001111 1111101110 1011110010 1101110001 1011000101 1011111100 10000001011 10000111101 1101100100 1100100001 1110100110 1011011101 26.375 52.102 1000.2 39945 16 16 14 59 52 3 $GNGGA,115600.00,4333.69474,N,00128.72836,E,1,05,1.86,153.8,M,53.8,M,,*46
38 11 56 01 4333.6947600128.72804154.0ó 00128.72804 154.0 1101101000 1100001010 1100101000 10000000011 10000110100 1100100110 1101010110 1111101101 1011110100 1101110001 1011000101 1011111101 10000000001 10000111001 1101101100 1100101011 1110011110 1011100001 26.375 52.178 1000.2 40944 18 14 13 59 51 4 $GNGGA,115601.00,4333.69476,N,00128.72804,E,1,05,1.86,154.0,M,53.8,M,,*4B
39 11 56 02 4333.6946700128.72836154.4ó 00128.72836 154.4 1101101000 1100001010 1100101101 10000000000 10000101111 1100100011 1101010001 1111101001 1011101111 1101110001 1011000101 1011111011 10000001110 10000111110 1101100111 1100100100 1110011100 1011011011 26.375 52.201 1000.2 41946 16 16 14 59 51 4 $GNGGA,115602.00,4333.69467,N,00128.72836,E,1,06,1.59,154.4,M,53.8,M,,*4C
40 11 56 03 4333.6947700128.72905155.1ó 00128.72905 155.1 1101101000 1100001010 1100101011 1111111111 10000110011 1100101010 1101010111 1111100111 1011110010 1101110001 1011001110 1100000000 10000001010 10000111010 1101101001 1100100110 1110011101 1011010110 26.375 52.247 1000.2 42943 18 14 13 59 51 4 $GNGGA,115603.00,4333.69477,N,00128.72905,E,1,06,1.59,155.1,M,53.8,M,,*49
41 11 56 04 4333.6923800128.72920155.2ó 00128.72920 155.2 1101101000 1100001010 1100101100 10000000001 10000110010 1100100111 1101011010 1111100110 1011110010 1101110001 1011001100 1100000001 10000000011 10000111011 1101101110 1100101011 1110011110 1011011010 26.375 52.270 1000.2 43942 16 15 15 59 51 3 $GNGGA,115604.00,4333.69238,N,00128.72920,E,1,06,1.58,155.2,M,53.8,M,,*46
42 11 56 05 4333.6917500128.72894155.7ó 00128.72894 155.7 1101101000 1100001010 1100101011 10000000011 10000101111 1100100111 1101011001 1111100110 1011110010 1101110000 1011001101 1011111111 1111111111 10000110110 1101110011 1100101010 1110100001 1011011011 26.375 52.285 1000.2 44941 17 15 13 58 52 4 $GNGGA,115605.00,4333.69175,N,00128.72894,E,1,06,1.58,155.7,M,53.8,M,,*46
43 11 56 06 4333.6905500128.72998156.1ó 00128.72998 156.1 1101101000 1100001001 1100101011 10000000100 10000110000 1100100110 1101010110 1111100100 1011111000 1101110001 1011001011 1011111110 10000000100 10000111001 1101101100 1100101001 1110100101 1011011101 26.375 52.277 1000.2 45939 17 15 14 60 51 3 $GNGGA,115606.00,4333.69055,N,00128.72998,E,1,06,1.58,156.1,M,53.8,M,,*4E
44 11 56 07 4333.6900800128.73063156.6ó 00128.73063 156.6 1101101000 1100001010 1100101011 1111111110 10000110000 1100100001 1101010111 1111100001 1011110100 1101110001 1011001010 1011111111 10000000110 10000110111 1101100111 1100100011 1110100011 1011100010 26.375 52.285 1000.2 46939 17 15 13 58 51 5 $GNGGA,115607.00,4333.69008,N,00128.73063,E,1,06,1.58,156.6,M,53.8,M,,*4C
45 11 56 08 4333.6893400128.73083157.2ó 00128.73083 157.2 1101101000 1100001010 1100101011 10000001101 10000111000 1100100000 1101010001 1111100001 1011110010 1101110001 1011001110 1011111111 1111111110 10000110111 1101100110 1100100101 1110100100 1011011101 26.375 52.292 1000.2 47938 17 15 14 60 51 3 $GNGGA,115608.00,4333.68934,N,00128.73083,E,1,06,1.58,157.2,M,53.8,M,,*4F
46 11 56 09 4333.6889600128.73096158.0ó 00128.73096 158.0 1101101000 1100000111 1100100111 10000000101 10000110100 1100100101 1101010101 1111100001 1011110000 1101110001 1011001100 1011111110 10000000101 10000111010 1101101010 1100101000 1110011100 1011011101 26.375 52.285 1000.2 48936 16 15 15 59 51 3 $GNGGA,115609.00,4333.68896,N,00128.73096,E,1,05,1.82,158.0,M,53.8,M,,*4A
47 11 56 10 4333.6900000128.73060158.7ó 00128.73060 158.7 1101101000 1100000111 1100101010 10000001010 10000110011 1100100011 1101010001 1111101110 1011111100 1101110000 1011010000 1011111111 10000001010 10000111001 1101100110 1100100010 1110100011 1011011000 26.375 52.285 1000.2 49936 17 15 14 60 51 3 $GNGGA,115610.00,4333.69000,N,00128.73060,E,1,05,1.82,158.7,M,53.8,M,,*4A
48 11 56 11 4333.6896400128.73117159.5ó 00128.73117 159.5 1101101000 1100000110 1100101001 10000000100 10000110010 1100100001 1101010010 1111100011 1011110110 1101110001 1011001011 1011111011 10000001010 10000111000 1101101100 1100100101 1110011101 1011010111 26.313 52.231 1000.2 50934 16 15 15 59 51 3 $GNGGA,115611.00,4333.68964,N,00128.73117,E,1,05,1.82,159.5,M,53.8,M,,*43
49 11 56 12 4333.6894400128.73162160.0ó 00128.73162 160.0 1101101000 1100001000 1100101010 1111111110 10000110001 1100100001 1101010100 1111011110 1011110100 1101110000 1011010000 1100000000 10000010000 10000111010 1101101110 1100101001 1110100100 1011011101 26.313 52.231 1000.2 51933 17 15 13 59 51 4 $GNGGA,115612.00,4333.68944,N,00128.73162,E,1,05,1.82,160.0,M,53.8,M,,*4F
50 11 56 13 4333.6912000128.73136160.3ó 00128.73136 160.3 1101101000 1100001010 1100101010 10000000110 10000110100 1100100000 1101010110 1111100010 1011110011 1101110001 1011001110 1100000001 10000001010 10000111010 1101101111 1100101101 1110100011 1011100011 26.375 52.193 1000.2 52931 18 14 13 60 50 4 $GNGGA,115613.00,4333.69120,N,00128.73136,E,1,04,2.51,160.3,M,53.8,M,,*4B
51 11 56 14 4333.6905600128.73128160.7ó 00128.73128 160.7 1101101000 1100001100 1100101011 10000000001 10000110100 1100100011 1101011000 1111100011 1011110011 1101110001 1011001001 1011111100 10000000000 10000110111 1101101010 1100101001 1110011111 1011100000 26.375 52.178 1000.2 53931 17 15 14 58 51 4 $GNGGA,115614.00,4333.69056,N,00128.73128,E,1,04,2.50,160.7,M,53.8,M,,*46
52 11 56 15 4333.6902500128.73041160.9ó 00128.73041 160.9 1101101000 1100001100 1100101110 1111111101 10000101100 1100101000 1101011011 1111100011 1011110011 1101110001 1011000101 1011111110 1111111010 10000110011 1101101001 1100100101 1110100011 1011100011 26.375 52.216 1000.2 54930 17 15 14 60 51 3 $GNGGA,115615.00,4333.69025,N,00128.73041,E,1,04,2.50,160.9,M,53.8,M,,*43
53 11 56 16 4333.6906600128.73052161.4ó 00128.73052 161.4 1101101000 1100001011 1100101110 10000000101 10000110100 1100100110 1101010111 1111101000 1011101100 1101110001 1011001101 1100000000 10000001111 10000111100 1101101010 1100101000 1110101001 1011100111 26.313 52.216 1000.2 55929 16 15 15 59 51 3 $GNGGA,115616.00,4333.69066,N,00128.73052,E,1,05,1.82,161.4,M,53.8,M,,*44
54 11 56 17 4333.6903900128.73105162.1ó 00128.73105 162.1 1101101000 1100001011 1100101010 10000000010 10000110001 1100100001 1101010001 1111100110 1011110000 1101110000 1011001001 1011111110 10000000010 10000111010 1101101011 1100101010 1110011110 1011011010 26.375 52.247 1000.2 56928 17 15 13 58 52 4 $GNGGA,115617.00,4333.69039,N,00128.73105,E,1,05,1.82,162.1,M,53.8,M,,*4A
55 11 56 18 4333.6900200128.73136162.8ó 00128.73136 162.8 1101101000 1100001001 1100101001 10000000110 10000110000 1100100110 1101011001 1111100011 1011110100 1101110001 1011001010 1011111110 1111111110 10000110111 1101100111 1100100011 1110011101 1011011100 26.313 52.338 1000.2 57928 17 15 14 60 50 4 $GNGGA,115618.00,4333.69002,N,00128.73136,E,1,05,1.82,162.8,M,53.8,M,,*44
56 11 56 19 4333.6900200128.73156163.5ó 00128.73156 163.5 1101101000 1100001000 1100101011 10000000100 10000110001 1100100001 1101001111 1111101000 1100000010 1101110001 1011001110 1100000010 10000010011 10000111100 1101100110 1100100001 1110011000 1011011101 26.375 52.491 1000.2 58927 16 16 14 59 51 4 $GNGGA,115619.00,4333.69002,N,00128.73156,E,1,05,1.82,163.5,M,53.8,M,,*4F
57 11 56 20 4333.6905400128.73146164.0ó 00128.73146 164.0 1101101000 1100001100 1100101101 1111111100 10000110011 1100100101 1101011000 1111100100 1011110111 1101110001 1011001111 1100000011 10000001101 10000111101 1101100110 1100100001 1110100001 1011100001 26.313 52.643 1000.2 59925 18 14 13 60 50 4 $GNGGA,115620.00,4333.69054,N,00128.73146,E,1,05,1.82,164.0,M,53.8,M,,*45
58 11 56 21 4333.6896400128.73043164.6ó 00128.73043 164.6 1101101000 1100000111 1100100111 10000000111 10000110010 1100011101 1101010011 1111101011 1011110110 1101110001 1011010011 1100000000 10000001100 10000111010 1101101100 1100101010 1110100010 1011100000 26.313 52.674 1000.2 60924 17 14 14 58 51 4 $GNGGA,115621.00,4333.68964,N,00128.73043,E,1,05,1.82,164.6,M,53.8,M,,*4D
59 11 56 22 4333.6903500128.73187165.5ó 00128.73187 165.5 1101101000 1100001011 1100101110 10000000100 10000110011 1100100000 1101001111 1111011111 1011110100 1101110001 1011010000 1100000100 10000010000 10000111101 1101101010 1100100110 1110011011 1011011110 26.375 52.636 1000.2 61923 16 16 14 59 52 3 $GNGGA,115622.00,4333.69035,N,00128.73187,E,1,05,1.82,165.5,M,53.8,M,,*49
60 11 56 23 4333.6906800128.73207166.4ó 00128.73207 166.4 1101101000 1100000110 1100100111 10000000000 10000110010 1100100000 1101001111 1111111011 1100000000 1101110001 1011010010 1100000010 1111101110 10000101111 1101101001 1100101000 1110100010 1011100011 26.313 52.712 1000.2 62922 16 15 15 59 51 3 $GNGGA,115623.00,4333.69068,N,00128.73207,E,1,05,1.82,166.4,M,53.8,M,,*49
61 11 56 24 4333.6903900128.73249167.0ó 00128.73249 167.0 1101101000 1100001001 1100101000 10000000011 10000101111 1100100100 1101010010 1111110011 1100000010 1101110000 1011001110 1011111100 10000001111 10000111010 1101101010 1100100011 1110011101 1011011111 26.313 52.727 1000.2 63922 16 16 14 59 52 3 $GNGGA,115624.00,4333.69039,N,00128.73249,E,1,05,1.82,167.0,M,53.8,M,,*45
62 11 56 25 4333.6900800128.73333167.7ó 00128.73333 167.7 1101101000 1100000111 1100100111 10000000111 10000110011 1100100010 1101010110 1111101110 1011111001 1101110000 1011001110 1011111100 10000001101 10000111101 1101100100 1100100100 1110100101 1011100110 26.313 52.651 1000.2 64921 17 15 14 60 51 3 $GNGGA,115625.00,4333.69008,N,00128.73333,E,1,05,1.82,167.7,M,53.8,M,,*4D
63 11 56 26 4333.6896600128.73470168.3ó 00128.73470 168.3 1101101000 1100001000 1100101010 10000000011 10000110011 1100011110 1101010000 1111101111 1011110101 1101110001 1011001000 1011111010 10000001001 10000111000 1101101011 1100101001 1110100100 1011011110 26.313 52.613 1000.2 65921 16 16 15 59 51 3 $GNGGA,115626.00,4333.68966,N,00128.73470,E,1,05,1.82,168.3,M,53.8,M,,*45
64 11 56 27 4333.6886400128.73493168.7ó 00128.73493 168.7 1101101000 1100000110 1100101001 10000000111 10000110011 1100100111 1101010111 1111110100 1100000101 1101110001 1011010010 1100000011 10000000110 10000110111 1101110001 1100101010 1110100101 1011011111 26.313 52.636 1000.2 66918 18 14 13 59 51 4 $GNGGA,115627.00,4333.68864,N,00128.73493,E,1,05,1.82,168.7,M,53.8,M,,*4E
65 11 56 28 4333.6887000128.73491169.1ó 00128.73491 169.1 1101101000 1100001010 1100101010 10000001101 10000110111 1100100000 1101001110 1111101111 1100000001 1101110001 1011001111 1100000011 10000000100 10000111000 1101101001 1100100101 1110100001 1011101100 26.313 52.659 1000.2 67917 17 14 15 59 51 3 $GNGGA,115628.00,4333.68870,N,00128.73491,E,1,05,1.82,169.1,M,53.8,M,,*41
66 11 56 29 4333.6879900128.73550169.8ó 00128.73550 169.8 1101101000 1100001010 1100101011 10000000111 10000110100 1100100010 1101010011 1111101110 1011111111 1101110001 1011010010 1100000011 10000011010 10000111110 1101101001 1100101000 1110101001 1011100010 26.313 52.689 1000.2 68916 17 15 13 58 52 4 $GNGGA,115629.00,4333.68799,N,00128.73550,E,1,05,1.81,169.8,M,53.8,M,,*4E
67 11 56 30 4333.6874300128.73500170.4ó 00128.73500 170.4 1101101000 1100000111 1100100110 10000000111 10000110100 1100100001 1101010101 1111110000 1100000000 1101110000 1011001001 1011111101 10000010100 10000111101 1101100110 1100100100 1110100001 1011100001 26.313 52.743 1000.2 69915 18 14 13 59 51 4 $GNGGA,115630.00,4333.68743,N,00128.73500,E,1,05,1.81,170.4,M,53.8,M,,*40
68 11 56 31 4333.6873800128.73574170.3ó 00128.73574 170.3 1101101000 1100001001 1100100110 10000000000 10000110011 1100011111 1101010010 1111100011 1011111010 1101110001 1011001010 1011111110 1111111111 10000110110 1101101011 1100100101 1110100100 1011100000 26.313 52.651 1000.2 70915 17 15 13 59 50 5 $GNGGA,115631.00,4333.68738,N,00128.73574,E,1,06,1.58,170.3,M,53.8,M,,*4E
69 11 56 32 4333.6871600128.73564169.9ó 00128.73564 169.9 1101101000 1100001000 1100101010 1111111111 10000101111 1100100100 1101010110 1111101000 1011111101 1101110001 1011010000 1100000011 10000000100 10000111000 1101101000 1100100001 1110100101 1011011110 26.313 52.666 1000.2 71913 18 14 13 60 50 4 $GNGGA,115632.00,4333.68716,N,00128.73564,E,1,06,1.58,169.9,M,53.8,M,,*42
70 11 56 33 4333.6874800128.73554169.4ó 00128.73554 169.4 1101101000 1100001010 1100101010 10000000001 10000101111 1100100000 1101001100 1111100101 1100000011 1101110000 1011001010 1011111110 1111111011 10000110101 1101101000 1100100000 1110011100 1011100000 26.313 52.605 1000.2 72911 16 15 15 59 51 3 $GNGGA,115633.00,4333.68748,N,00128.73554,E,1,06,1.58,169.4,M,53.8,M,,*46
71 11 56 34 4333.6873700128.73468169.0ó 00128.73468 169.0 1101101000 1100001110 1100101111 10000001001 10000110011 1100100000 1101010011 1111110110 1100001101 1101110001 1011001010 1011111101 10000000010 10000110111 1101101101 1100101010 1110100111 1011101000 26.313 52.590 1000.2 73912 17 15 13 60 50 4 $GNGGA,115634.00,4333.68737,N,00128.73468,E,1,06,1.58,169.0,M,53.8,M,,*43
72 11 56 35 4333.6868000128.73500169.3ó 00128.73500 169.3 1101101000 1100001011 1100101101 10000000100 10000110011 1100100000 1101010010 1111101111 1100001011 1101110000 1011010000 1100000011 10000001001 10000111011 1101101001 1100100111 1110011111 1011100101 26.313 52.628 1000.2 74912 16 15 15 59 51 3 $GNGGA,115635.00,4333.68680,N,00128.73500,E,1,05,1.81,169.3,M,53.8,M,,*44
73 11 56 36 4333.6865900128.73483169.0ó 00128.73483 169.0 1101101000 1100001010 1100101100 10000000001 10000110010 1100100100 1101010110 1111101110 1100000100 1101110000 1011001101 1011111110 10000001011 10000111001 1101100011 1100100011 1110011111 1011100101 26.313 52.643 1000.2 75911 17 15 13 59 51 4 $GNGGA,115636.00,4333.68659,N,00128.73483,E,1,06,1.58,169.0,M,53.8,M,,*4D
74 11 56 37 4333.6871100128.73395168.4ó 00128.73395 168.4 1101101000 1100001100 1100101100 10000000111 10000110101 1100011111 1101001111 1111110110 1100001111 1101110000 1011001101 1100000000 10000001111 10000111001 1101101101 1100100010 1110011011 1011011000 26.313 52.590 1000.2 76909 17 15 14 60 50 4 $GNGGA,115637.00,4333.68711,N,00128.73395,E,1,05,1.73,168.4,M,53.8,M,,*4E
75 11 56 38 4333.6873200128.73399167.9ó 00128.73399 167.9 1101101000 1100001011 1100101010 1111111100 10000110000 1100100101 1101010110 1111101000 1100000010 1101110000 1011001101 1011111111 10000001101 10000111100 1101101110 1100100111 1110100100 1011011100 26.313 52.590 1000.2 77907 17 14 14 58 51 4 $GNGGA,115638.00,4333.68732,N,00128.73399,E,1,05,1.73,167.9,M,53.8,M,,*4E
76 11 56 39 4333.6871100128.73360167.3ó 00128.73360 167.3 1101101000 1100000111 1100100111 10000001011 10000110011 1100100010 1101010110 1111101111 1100000001 1101110001 1011001101 1011111111 1111111001 10000110010 1101101111 1100100111 1110100011 1011011010 26.313 52.544 1000.2 78907 18 14 13 59 51 4 $GNGGA,115639.00,4333.68711,N,00128.73360,E,1,05,1.73,167.3,M,53.8,M,,*42
77 11 56 40 4333.6864000128.73397166.9ó 00128.73397 166.9 1101101000 1100000111 1100101000 10000000101 10000110000 1100100000 1101010011 1111101000 1100000001 1101110001 1011010001 1100000100 10000001000 10000111001 1101101000 1100101011 1110101011 1011100010 26.313 52.575 1000.2 79904 17 14 14 58 51 4 $GNGGA,115640.00,4333.68640,N,00128.73397,E,1,05,1.73,166.9,M,53.8,M,,*4A
78 11 56 41 4333.6862200128.73377166.4ó 00128.73377 166.4 1101101000 1100001001 1100101001 10000000011 10000110010 1100101000 1101011000 1111101101 1100000001 1101110000 1011001111 1100000001 1111110001 10000110001 1101101011 1100101000 1110100111 1011101001 26.313 52.575 1000.2 80905 17 16 14 59 52 3 $GNGGA,115641.00,4333.68622,N,00128.73377,E,1,05,1.73,166.4,M,53.8,M,,*4C
79 11 56 42 4333.6858100128.73393165.5ó 00128.73393 165.5 1101101000 1100001001 1100101001 10000000111 10000110011 1100100111 1101010100 1111101101 1011111111 1101110001 1011001101 1011111100 10000001010 10000111100 1101100111 1100100111 1110100000 1011100010 26.313 52.613 1000.2 81904 17 15 14 60 51 3 $GNGGA,115642.00,4333.68581,N,00128.73393,E,1,06,1.58,165.5,M,53.8,M,,*47
80 11 56 43 4333.6858700128.73360164.6ó 00128.73360 164.6 1101101000 1100001001 1100101011 10000000111 10000110010 1100100000 1101001101 1111101100 1100000101 1101110001 1011001001 1011111111 1111111101 10000111010 1101110001 1100100111 1110100111 1011101011 26.313 52.666 1000.2 82905 17 16 13 59 50 5 $GNGGA,115643.00,4333.68587,N,00128.73360,E,1,06,1.58,164.6,M,53.8,M,,*4E
81 11 56 44 4333.6849400128.73330163.9ó 00128.73330 163.9 1101101000 1100001000 1100101011 10000000011 10000101101 1100101010 1101011000 1111101110 1100001001 1101110000 1011001111 1100000000 10000001011 10000111100 1101101010 1100100110 1110100011 1011100101 26.313 52.712 1000.2 83902 18 15 14 60 51 3 $GNGGA,115644.00,4333.68494,N,00128.73330,E,1,06,1.58,163.9,M,53.8,M,,*47
82 11 56 45 4333.6848800128.73300163.1ó 00128.73300 163.1 1101101000 1100001001 1100101011 10000000011 10000110001 1100100001 1101010100 1111101011 1100000000 1101110000 1011001011 1011111101 10000000010 10000111000 1101101110 1100100110 1110100111 1011101011 26.313 52.750 1000.2 84900 17 14 14 59 50 4 $GNGGA,115645.00,4333.68488,N,00128.73300,E,1,06,1.58,163.1,M,53.8,M,,*40
83 11 56 46 4333.6842600128.73264162.8ó 00128.73264 162.8 1101101000 1100000110 1100100111 1111111111 10000101110 1100011100 1101001111 1111101101 1100000001 1101110000 1011001011 1100000000 10000000100 10000111010 1101100110 1100100001 1110100001 1011100001 26.313 52.758 1000.2 85902 16 16 14 59 52 3 $GNGGA,115646.00,4333.68426,N,00128.73264,E,1,06,1.58,162.8,M,53.8,M,,*4C
84 11 56 47 4333.6835300128.73215162.3ó 00128.73215 162.3 1101101000 1100001101 1100101110 1111111110 10000101111 1100100100 1101011010 1111101100 1100000000 1101110000 1011001111 1100000001 10000001000 10000111010 1101101001 1100101000 1110100110 1011101100 26.313 52.758 1000.2 86900 17 14 14 58 51 4 $GNGGA,115647.00,4333.68353,N,00128.73215,E,1,06,1.58,162.3,M,53.8,M,,*45
85 11 56 48 4333.6830000128.73167161.8ó 00128.73167 161.8 1101101000 1100001000 1100101000 10000000010 10000110010 1100100001 1101010101 1111101101 1100000111 1101110000 1011001101 1011111101 10000000100 10000111001 1101101110 1100101001 1110101010 1011101100 26.313 52.758 1000.2 87899 17 15 13 58 51 5 $GNGGA,115648.00,4333.68300,N,00128.73167,E,1,05,1.73,161.8,M,53.8,M,,*48
86 11 56 49 4333.6825900128.73116160.9ó 00128.73116 160.9 1101101000 1100001100 1100101110 10000000001 10000110010 1100011110 1101010001 1111100111 1100000000 1101110000 1011010000 1100000001 10000000100 10000111000 1101101001 1100101001 1110100010 1011100011 26.313 52.773 1000.2 88897 17 15 14 60 51 3 $GNGGA,115649.00,4333.68259,N,00128.73116,E,1,05,1.73,160.9,M,53.8,M,,*42
87 11 56 50 4333.6823300128.73104160.1ó 00128.73104 160.1 1101101000 1100001010 1100101101 10000000001 10000110000 1100100010 1101010100 1111101100 1100000101 1101110001 1011001011 1011111011 10000010001 10000111100 1101101011 1100100100 1110110000 1011101110 26.313 52.819 1000.2 89895 17 14 14 58 51 4 $GNGGA,115650.00,4333.68233,N,00128.73104,E,1,04,2.14,160.1,M,53.8,M,,*4E
88 11 56 51 4333.6822200128.73082159.4ó 00128.73082 159.4 1101101000 1100001000 1100101011 10000000110 10000110000 1100011111 1101010010 1111101101 1100000011 1101110000 1011001101 1011111110 1111110110 10000110100 1101100111 1100100111 1110101001 1011101000 26.313 52.842 1000.2 90893 16 16 14 59 52 3 $GNGGA,115651.00,4333.68222,N,00128.73082,E,1,04,2.14,159.4,M,53.8,M,,*4F
89 11 56 52 4333.6827000128.73037159.1ó 00128.73037 159.1 1101101000 1100001101 1100101111 10000000101 10000110011 1100100000 1101010011 1111110110 1100010011 1101110000 1011001011 1011111100 1111111100 10000110011 1101101000 1100100000 1110100010 1011100110 26.313 52.796 1000.2 91893 17 14 15 58 51 3 $GNGGA,115652.00,4333.68270,N,00128.73037,E,1,05,1.73,159.1,M,53.8,M,,*43
90 11 56 53 4333.6824900128.73035158.8ó 00128.73035 158.8 1101101000 1100001000 1100101010 1111111110 10000101111 1100100010 1101010100 1111110000 1100000011 1101110000 1011010010 1100000100 10000001011 10000111011 1101101010 1100100101 1110101001 1011101010 26.313 52.720 1000.2 92893 17 15 13 58 52 4 $GNGGA,115653.00,4333.68249,N,00128.73035,E,1,05,1.73,158.8,M,53.8,M,,*42
91 11 56 54 4333.6824700128.73057158.3ó 00128.73057 158.3 1101101000 1100001010 1100101100 10000000010 10000110111 1100100010 1101011000 1111101100 1100000011 1101110000 1011010000 1100000000 10000001000 10000111010 1101101000 1100101011 1110100000 1011100000 26.313 52.651 1000.2 93891 18 14 13 59 51 4 $GNGGA,115654.00,4333.68247,N,00128.73057,E,1,05,1.73,158.3,M,53.8,M,,*44
92 11 56 55 4333.6818300128.73030157.9ó 00128.73030 157.9 1101101000 1100001011 1100101100 10000000000 10000110001 1100100101 1101010111 1111100111 1100000000 1101110000 1011000101 1011111001 1111110111 10000110100 1101101110 1100100111 1110101010 1011100101 26.313 52.659 1000.2 94891 16 16 15 59 51 3 $GNGGA,115655.00,4333.68183,N,00128.73030,E,1,05,1.73,157.9,M,53.8,M,,*4A
93 11 56 56 4333.6820100128.73053157.4ó 00128.73053 157.4 1101101000 1100001010 1100101010 10000000100 10000110000 1100011101 1101010001 1111110100 1100001000 1101110000 1011010001 1100000010 1111101011 10000101101 1101101001 1100100011 1110101000 1011101011 26.313 52.620 1000.2 95890 18 14 14 60 51 3 $GNGGA,115656.00,4333.68201,N,00128.73053,E,1,05,1.73,157.4,M,53.8,M,,*48
94 11 56 57 4333.6825300128.73056157.2ó 00128.73056 157.2 1101101000 1100000111 1100101000 10000000010 10000110010 1100100001 1101010100 1111100110 1100000000 1101110001 1011001101 1100000000 10000001011 10000111010 1101100101 1100100011 1110100011 1011100010 26.250 52.666 1000.2 96887 17 14 14 59 50 4 $GNGGA,115657.00,4333.68253,N,00128.73056,E,1,05,1.73,157.2,M,53.8,M,,*4D
95 11 56 58 4333.6820900128.73027156.6ó 00128.73027 156.6 1101101000 1100000110 1100101000 1111111100 10000110001 1100100100 1101010110 1111100101 1100000001 1101110001 1011010001 1100000001 1111111000 10000110011 1101100101 1100011111 1110100111 1011101111 26.313 52.727 1000.2 97887 17 15 13 58 52 4 $GNGGA,115658.00,4333.68209,N,00128.73027,E,1,05,1.73,156.6,M,53.8,M,,*4E
96 11 56 59 4333.6831500128.73033156.4ó 00128.73033 156.4 1101101000 1100001010 1100101010 10000000011 10000110010 1100100101 1101010111 1111110110 1100001000 1101110000 1011001110 1011111110 10000010101 10000111110 1101101010 1100100111 1110011111 1011100110 26.313 52.765 1000.2 98886 17 15 14 60 51 3 $GNGGA,115659.00,4333.68315,N,00128.73033,E,1,05,1.73,156.4,M,53.8,M,,*44
97 11 57 00 4333.6835400128.73034155.9ó 00128.73034 155.9 1101101000 1100001010 1100101100 10000000010 10000110000 1100011011 1101001110 1111101101 1100000100 1101110000 1011010001 1100000011 10000000001 10000110011 1101101000 1100100010 1110101011 1011101100 26.313 52.781 1000.2 99886 17 16 13 59 50 5 $GNGGA,115700.00,4333.68354,N,00128.73034,E,1,05,1.73,155.9,M,53.8,M,,*45
98 11 57 01 4333.6840600128.73085155.3ó 00128.73085 155.3 1101101000 1100001000 1100100110 10000000111 10000110101 1100011110 1101001111 1111101101 1100000001 1101110000 1011010011 1100000100 10000011010 10001000000 1101101100 1100100110 1110101010 1011101010 26.313 52.796 1000.2 100885 17 15 14 60 51 3 $GNGGA,115701.00,4333.68406,N,00128.73085,E,1,05,1.73,155.3,M,53.8,M,,*44
99 11 57 02 4333.6840200128.73064154.7ó 00128.73064 154.7 1101101000 1100001000 1100101000 10000000010 10000110001 1100100100 1101010101 1111110000 1011111010 1101110000 1011001101 1100000000 10000010001 10000111010 1101101010 1100100101 1110101001 1011101111 26.313 52.849 1000.2 101882 17 14 14 58 51 4 $GNGGA,115702.00,4333.68402,N,00128.73064,E,1,05,1.73,154.7,M,53.8,M,,*49
100 11 57 03 4333.6842100128.73086154.1ó 00128.73086 154.1 1101101000 1100001010 1100101101 10000000000 10000110001 1100100000 1101010111 1111101111 1100000010 1101110000 1011010001 1100000001 10000011001 10000111110 1101100100 1100100010 1110011100 1011100000 26.250 52.872 1000.2 102882 17 15 13 59 51 4 $GNGGA,115703.00,4333.68421,N,00128.73086,E,1,05,1.73,154.1,M,53.8,M,,*43
101 11 57 04 4333.6840400128.73088153.4ó 00128.73088 153.4 1101101000 1100001000 1100100111 10000000111 10000110010 1100011011 1101001010 1111101111 1100000000 1101110001 1011001110 1011111111 10000001000 10000111100 1101101011 1100101010 1110100111 1011110001 26.313 52.910 1000.2 103881 18 14 13 58 51 4 $GNGGA,115704.00,4333.68404,N,00128.73088,E,1,05,1.73,153.4,M,53.8,M,,*4F
102 11 57 05 4333.6844300128.73098152.6ó 00128.73098 152.6 1101101000 1100000111 1100101000 10000000100 10000110100 1100100010 1101010100 1111101001 1011111101 1101110001 1011010010 1100000011 10000010101 10000111110 1101110010 1100101000 1110101000 1011101100 26.313 52.903 1000.2 104880 17 15 13 59 50 5 $GNGGA,115705.00,4333.68443,N,00128.73098,E,1,05,1.73,152.6,M,53.8,M,,*4F
103 11 57 06 4333.6847000128.73110152.3ó 00128.73110 152.3 1101101000 1100001001 1100101010 1111111111 10000101110 1100011111 1101010010 1111101110 1100000110 1101110000 1011000101 1011111000 10000000010 10000111001 1101100001 1100100100 1110101110 1011101111 26.313 52.941 1000.2 105879 18 14 13 59 51 4 $GNGGA,115706.00,4333.68470,N,00128.73110,E,1,04,2.13,152.3,M,53.8,M,,*4C
104 11 57 07 4333.6852600128.73147152.0ó 00128.73147 152.0 1101100111 1100001010 1100101010 10000000111 10000110001 1100100000 1101001111 1111110011 1100001111 1101110000 1011001111 1100000010 1111111110 10000110100 1101100101 1100100010 1110110100 1011110110 26.313 52.956 1000.2 106878 16 15 15 59 51 3 $GNGGA,115707.00,4333.68526,N,00128.73147,E,1,04,2.13,152.0,M,53.8,M,,*4E
105 11 57 08 4333.6857000128.73176151.7ó 00128.73176 151.7 1101100111 1100001011 1100101011 10000000010 10000110010 1100100010 1101010110 1111100110 1011111111 1101110000 1011010001 1100000000 10000001111 10000111011 1101101010 1100101001 1110100010 1011100110 26.313 53.086 1000.2 107878 18 15 13 60 50 4 $GNGGA,115708.00,4333.68570,N,00128.73176,E,1,04,2.13,151.7,M,53.8,M,,*44
106 11 57 09 4333.6855500128.73201151.3ó 00128.73201 151.3 1101101000 1100000110 1100100110 10000000110 10000110011 1100100000 1101010100 1111110000 1100000011 1101110000 1011001101 1011111111 10000001000 10000111010 1101101010 1100101100 1110101111 1011101111 26.250 53.170 1000.2 108874 17 14 15 59 51 3 $GNGGA,115709.00,4333.68555,N,00128.73201,E,1,04,2.13,151.3,M,53.8,M,,*45
107 11 57 10 4333.6854700128.73243151.1ó 00128.73243 151.1 1101101000 1100001000 1100100101 10000000010 10000101110 1100100000 1101010010 1111101001 1011110101 1101110000 1011001110 1011111110 10000000110 10000111001 1101100110 1100100101 1110101001 1011100101 26.313 53.086 1000.2 109875 16 16 14 59 51 4 $GNGGA,115710.00,4333.68547,N,00128.73243,E,1,04,2.12,151.1,M,53.8,M,,*4B
108 11 57 11 4333.6862900128.73314150.8ó 00128.73314 150.8 1101101000 1100001100 1100101011 10000000011 10000110001 1100011011 1101001110 1111110101 1100000001 1101110000 1011001100 1011111111 10000001011 10000111010 1101101000 1100101000 1110101001 1011101100 26.313 53.048 1000.3 110874 18 15 13 60 50 4 $GNGGA,115711.00,4333.68629,N,00128.73314,E,1,04,2.12,150.8,M,53.8,M,,*4A
109 11 57 12 4333.6863700128.73329150.4ó 00128.73329 150.4 1101101000 1100001000 1100100110 1111111111 10000110000 1100011111 1101010100 1111110010 1100000000 1101110001 1011001110 1011111111 10000001101 10000111011 1101101000 1100100101 1110100110 1011100001 26.313 53.017 1000.3 111873 17 15 14 58 51 4 $GNGGA,115712.00,4333.68637,N,00128.73329,E,1,04,2.12,150.4,M,53.8,M,,*44
110 11 57 13 4333.6867300128.73405149.9ó 00128.73405 149.9 1101101000 1100001010 1100101001 10000001010 10000110100 1100011110 1101010000 1111101000 1011111011 1101110000 1011010001 1011111111 10000001011 10000111010 1101101011 1100101010 1110100110 1011101011 26.313 52.994 1000.3 112872 17 15 14 60 51 3 $GNGGA,115713.00,4333.68673,N,00128.73405,E,1,04,2.12,149.9,M,53.8,M,,*49
111 11 57 14 4333.6862300128.73401149.5ó 00128.73401 149.5 1101101000 1100001001 1100100111 10000001001 10000110000 1100100101 1101010011 1111101100 1011111111 1101110000 1011001110 1100000001 10000000100 10000111000 1101101101 1100101100 1110101001 1011101011 26.250 52.971 1000.3 113871 17 14 14 58 51 4 $GNGGA,115714.00,4333.68623,N,00128.73401,E,1,04,2.12,149.5,M,53.8,M,,*43
112 11 57 15 4333.6864900128.73404148.7ó 00128.73404 148.7 1101101000 1100001011 1100101001 10000000100 10000101111 1100100010 1101010100 1111110001 1100000100 1101110000 1011001110 1011111111 10000001100 10000111010 1101101001 1100100111 1110100110 1011100110 26.250 52.971 1000.3 114871 16 16 14 59 52 3 $GNGGA,115715.00,4333.68649,N,00128.73404,E,1,04,2.12,148.7,M,53.8,M,,*48
113 11 57 16 4333.6875400128.73409148.6ó 00128.73409 148.6 1101101000 1100001001 1100101000 10000000000 10000101111 1100100100 1101010101 1111101011 1011111110 1101110000 1011010011 1100000000 10000001011 10000111010 1101101001 1100100100 1110100101 1011100000 26.313 52.994 1000.3 115869 17 15 14 60 51 3 $GNGGA,115716.00,4333.68754,N,00128.73409,E,1,04,2.12,148.6,M,53.8,M,,*4A
114 11 57 17 4333.6875500128.73474148.4ó 00128.73474 148.4 1101101000 1100000111 1100101010 10000000101 10000110001 1100100010 1101010011 1111110111 1100001001 1101110000 1011001110 1011111101 10000001110 10000111011 1101101000 1100100100 1110101110 1011100110 26.250 52.994 1000.3 116869 16 16 14 59 50 5 $GNGGA,115717.00,4333.68755,N,00128.73474,E,1,04,2.12,148.4,M,53.8,M,,*42
115 11 57 18 4333.6878300128.73536148.0ó 00128.73536 148.0 1101101000 1100001000 1100101010 10000001011 10000110001 1100100001 1101010000 1111110100 1100000001 1101110000 1011001011 1011111110 10000001000 10000111000 1101110001 1100101100 1110101001 1011100110 26.250 53.002 1000.3 117868 18 15 13 60 50 4 $GNGGA,115718.00,4333.68783,N,00128.73536,E,1,04,2.12,148.0,M,53.8,M,,*45
116 11 57 19 4333.6878500128.73555148.3ó 00128.73555 148.3 1101100111 1100001000 1100101010 10000001001 10000110000 1100011101 1101010001 1111110110 1100000110 1101110000 1011001010 1011111101 10000000111 10000110111 1101100101 1100011101 1110101001 1011101011 26.313 52.949 1000.3 118866 17 14 15 59 51 3 $GNGGA,115719.00,4333.68785,N,00128.73555,E,1,05,1.72,148.3,M,53.8,M,,*40
117 11 57 20 4333.6882600128.73568148.2ó 00128.73568 148.2 1101101000 1100001010 1100101100 10000001000 10000110100 1100011111 1101010010 1111101100 1011111010 1101110000 1011010011 1100000011 10000000110 10000111010 1101100111 1100100111 1110101011 1011101110 26.250 52.949 1000.3 119865 18 14 13 59 51 4 $GNGGA,115720.00,4333.68826,N,00128.73568,E,1,05,1.72,148.2,M,53.8,M,,*43
118 11 57 21 4333.6907500128.73566148.9ó 00128.73566 148.9 1101101000 1100001010 1100101100 10000001000 10000110100 1100100010 1101010100 1111101110 1100000011 1101110000 1011010001 1100000010 10000010011 10000111100 1101100011 1100100101 1110100010 1011100101 26.313 52.956 1000.2 120864 16 15 15 59 51 3 $GNGGA,115721.00,4333.69075,N,00128.73566,E,1,05,1.72,148.9,M,53.8,M,,*48
119 11 57 22 4333.6914800128.73563148.7ó 00128.73563 148.7 1101100111 1100001001 1100101000 10000000110 10000110000 1100100011 1101010001 1111110001 1100001010 1101110000 1011001110 1100000001 10000001110 10000111010 1101101100 1100100101 1110101111 1011101011 26.250 52.964 1000.2 121864 17 15 13 59 51 4 $GNGGA,115722.00,4333.69148,N,00128.73563,E,1,05,1.72,148.7,M,53.8,M,,*4F
120 11 57 23 4333.6922100128.73633148.4ó 00128.73633 148.4 1101100111 1100001001 1100101100 10000000001 10000101111 1100100000 1101001111 1111100010 1011111111 1101110000 1011010000 1100000001 10000000110 10000111000 1101101011 1100101010 1110101011 1011110100 26.250 52.857 1000.2 122862 18 14 13 59 51 4 $GNGGA,115723.00,4333.69221,N,00128.73633,E,1,05,1.72,148.4,M,53.8,M,,*47
121 11 57 24 4333.6923800128.73630148.1ó 00128.73630 148.1 1101100111 1100001010 1100101100 10000000101 10000110010 1100011100 1101010011 1111100101 1011110011 1101110000 1011001011 1100000000 1111111100 10000110111 1101100011 1100100011 1110101010 1011101110 26.250 52.773 1000.2 123862 16 16 15 59 51 3 $GNGGA,115724.00,4333.69238,N,00128.73630,E,1,05,1.72,148.1,M,53.8,M,,*4E
122 11 57 25 4333.6930100128.73653147.8ó 00128.73653 147.8 1101100111 1100001101 1100101011 1111110101 10000100100 1100100000 1101010101 1111100011 1011110000 1101110000 1011010001 1100000011 1111101110 10000110001 1101100000 1100100000 1110100111 1011110000 26.250 52.689 1000.2 124861 17 15 14 60 51 3 $GNGGA,115725.00,4333.69301,N,00128.73653,E,1,05,1.72,147.8,M,53.8,M,,*47
123 11 57 26 4333.6926400128.73655147.8ó 00128.73655 147.8 1101100111 1100000110 1100100011 10000000101 10000110000 1100100000 1101010011 1111101000 1011111110 1101110000 1011001010 1100000000 1111101001 10000101101 1101101001 1100100100 1110100011 1011101011 26.250 52.674 1000.2 125860 16 15 15 59 51 3 $GNGGA,115726.00,4333.69264,N,00128.73655,E,1,05,1.72,147.8,M,53.8,M,,*40
124 11 57 27 4333.6930500128.73674147.7ó 00128.73674 147.7 1101100111 1100001011 1100101100 10000001100 10000110100 1100100001 1101010101 1111100010 1100000010 1101110000 1011001101 1100000010 10000001001 10000111101 1101100110 1100100101 1110100101 1011101100 26.250 52.659 1000.2 126859 16 16 14 59 52 3 $GNGGA,115727.00,4333.69305,N,00128.73674,E,1,05,1.72,147.7,M,53.8,M,,*4B
125 11 57 28 4333.6935600128.73715147.5ó 00128.73715 147.5 1101100111 1100001001 1100101000 10000000100 10000101111 1100011110 1101010011 1111100100 1011110110 1101110000 1011001101 1100000000 10000001010 10000111100 1101101110 1100100111 1110100011 1011100100 26.313 52.674 1000.2 127857 18 14 13 59 51 4 $GNGGA,115728.00,4333.69356,N,00128.73715,E,1,05,1.72,147.5,M,53.8,M,,*46
126 11 57 29 4333.6947600128.73739147.0ó 00128.73739 147.0 1101101000 1100001001 1100101011 1111111011 10000101011 1100011010 1101010001 1111100100 1011110010 1101110000 1011000010 1011110111 10000000010 10000111011 1101101100 1100101101 1110100010 1011101010 26.313 52.750 1000.2 128857 16 16 14 59 51 4 $GNGGA,115729.00,4333.69476,N,00128.73739,E,1,05,1.72,147.0,M,53.8,M,,*49
127 11 57 30 4333.6944200128.73704147.1ó 00128.73704 147.1 1101101000 1100001001 1100101010 10000000001 10000101110 1100100010 1101010011 1111100101 1011111010 1101110000 1011010100 1100000111 1111111111 10000111000 1101101000 1100100010 1110100011 1011101011 26.250 52.811 1000.2 129857 17 15 14 60 51 3 $GNGGA,115730.00,4333.69442,N,00128.73704,E,1,05,1.72,147.1,M,53.8,M,,*49
128 11 57 31 4333.6945000128.73747147.4ó 00128.73747 147.4 1101100111 1100001000 1100101010 10000000011 10000110001 1100100001 1101010101 1111101101 1100000011 1101110000 1011000110 1011111011 1111110010 10000111000 1101101001 1100100100 1110011011 1011100110 26.250 52.804 1000.2 130854 16 15 15 59 51 3 $GNGGA,115731.00,4333.69450,N,00128.73747,E,1,05,1.72,147.4,M,53.8,M,,*49
129 11 57 32 4333.6950500128.73797147.2ó 00128.73797 147.2 1101100111 1100001011 1100101101 1111111110 10000110000 1100100000 1101010100 1111100010 1011111100 1101110000 1011010100 1100000100 1111100001 10000101101 1101101010 1100100100 1110101000 1011110110 26.313 52.842 1000.2 131854 18 14 13 60 50 4 $GNGGA,115732.00,4333.69505,N,00128.73797,E,1,05,1.72,147.2,M,53.8,M,,*40
130 11 57 33 4333.6946900128.73795147.6ó 00128.73795 147.6 1101100111 1100001001 1100101010 10000000100 10000110100 1100100000 1101010010 1111101100 1100000110 1101110000 1011010001 1100000010 1111111011 10000110111 1101100101 1100011111 1110011110 1011101000 26.250 52.910 1000.2 132853 16 15 15 59 51 3 $GNGGA,115733.00,4333.69469,N,00128.73795,E,1,05,1.72,147.6,M,53.8,M,,*4C
131 11 57 34 4333.6951500128.73819147.8ó 00128.73819 147.8 1101100111 1100001010 1100101011 10000000110 10000110001 1100011100 1101001100 1111101000 1011110111 1101110000 1011010000 1100000000 10000001100 10000111011 1101101011 1100100101 1110011101 1011011001 26.250 53.017 1000.2 133852 17 16 14 59 52 3 $GNGGA,115734.00,4333.69515,N,00128.73819,E,1,05,1.72,147.8,M,53.8,M,,*44
132 11 57 35 4333.6951900128.73843147.7ó 00128.73843 147.7 1101100111 1100001010 1100101100 10000000110 10000110011 1100100110 1101010101 1111101011 1011111100 1101110000 1011001011 1011111100 10000001001 10000111000 1101101110 1100101001 1110011001 1011011011 26.250 53.086 1000.2 134851 17 15 14 60 51 3 $GNGGA,115735.00,4333.69519,N,00128.73843,E,1,05,1.72,147.7,M,53.8,M,,*49
133 11 57 36 4333.6948600128.73824147.7ó 00128.73824 147.7 1101100111 1100000111 1100100111 10000001000 10000110010 1100100001 1101010100 1111101000 1100000101 1101110000 1011001110 1011111111 10000000000 10000110111 1101100001 1100011110 1110011111 1011100001 26.250 53.032 1000.2 135851 17 15 14 58 51 4 $GNGGA,115736.00,4333.69486,N,00128.73824,E,1,05,1.72,147.7,M,53.8,M,,*4C
134 11 57 37 4333.6951500128.73826147.7ó 00128.73826 147.7 1101100111 1100001011 1100101011 1111111111 10000110001 1100011110 1101010010 1111101110 1100001000 1101110000 1011001101 1011111111 1111101101 10000110000 1101101010 1100101001 1110101001 1011100110 26.250 52.979 1000.2 136851 18 15 13 60 50 4 $GNGGA,115737.00,4333.69515,N,00128.73826,E,1,05,1.72,147.7,M,53.8,M,,*44
135 11 57 38 4333.6952700128.73755147.8ó 00128.73755 147.8 1101100111 1100001001 1100101001 10000000010 10000110000 1100100011 1101010101 1111101111 1100000011 1101110000 1011001101 1100000001 10000001011 10000111010 1101100011 1100100011 1110100000 1011100101 26.250 52.956 1000.2 137848 16 15 15 59 51 3 $GNGGA,115738.00,4333.69527,N,00128.73755,E,1,06,1.57,147.8,M,53.8,M,,*4A
136 11 57 39 4333.6952200128.73725147.8ó 00128.73725 147.8 1101100111 1100000101 1100100110 10000000001 10000101100 1100011000 1101010000 1111101100 1100000110 1101110000 1011000110 1011111011 10000010010 10000111001 1101101110 1100101100 1110011001 1011100000 26.250 52.971 1000.2 138848 16 16 14 59 52 3 $GNGGA,115739.00,4333.69522,N,00128.73725,E,1,05,1.72,147.8,M,53.8,M,,*4D
137 11 57 40 4333.6945400128.73678147.9ó 00128.73678 147.9 1101100111 1100001011 1100101011 10000000010 10000110010 1100100111 1101010111 1111100101 1100000011 1101110000 1011001110 1100000001 10000001000 10000111000 1101101011 1100101001 1110011100 1011100100 26.250 53.040 1000.2 139846 18 14 13 60 50 4 $GNGGA,115740.00,4333.69454,N,00128.73678,E,1,06,1.57,147.9,M,53.8,M,,*4F
138 11 57 41 4333.6943300128.73607148.1ó 00128.73607 148.1 1101100111 1100001100 1100101110 1111111110 10000101101 1100100011 1101011001 1111011100 1011111000 1101110000 1011001100 1011111110 10000010010 10000111010 1101100001 1100011101 1110100001 1011101010 26.250 53.063 1000.2 140848 16 16 14 59 51 4 $GNGGA,115741.00,4333.69433,N,00128.73607,E,1,06,1.56,148.1,M,53.8,M,,*41
139 11 57 42 4333.6937600128.73542148.3ó 00128.73542 148.3 1101100111 1100001001 1100101010 10000000100 10000110001 1100011100 1101001010 1111100110 1100000011 1101110000 1011010000 1011111111 10000011000 10000111100 1101100111 1100100011 1110100001 1011100010 26.250 53.078 1000.2 141844 18 15 13 60 50 4 $GNGGA,115742.00,4333.69376,N,00128.73542,E,1,06,1.56,148.3,M,53.8,M,,*44
140 11 57 43 4333.6944200128.73509148.5ó 00128.73509 148.5 1101100111 1100001011 1100101101 10000001001 10000110100 1100100011 1101010110 1111100000 1011111010 1101110000 1011010010 1100000001 10000011011 10000111110 1101101001 1100100101 1110100000 1011101011 26.250 53.101 1000.2 142843 17 14 14 59 50 4 $GNGGA,115743.00,4333.69442,N,00128.73509,E,1,06,1.56,148.5,M,53.8,M,,*4C
141 11 57 44 4333.6941000128.73501148.5ó 00128.73501 148.5 1101100111 1100001011 1100101101 10000001000 10000110011 1100011110 1101001110 1111101001 1100000011 1101110000 1011010010 1100000001 10000011010 10000111101 1101101110 1100101101 1110011100 1011100000 26.250 53.124 1000.2 143842 17 15 13 58 52 4 $GNGGA,115744.00,4333.69410,N,00128.73501,E,1,05,2.08,148.5,M,53.8,M,,*4F
142 11 57 45 4333.6935300128.73473148.7ó 00128.73473 148.7 1101100111 1100001001 1100101010 10000001011 10000110010 1100011101 1101010011 1111100011 1011111101 1101110000 1011001111 1011111110 10000001010 10000111001 1101101011 1100100110 1110100101 1011100101 26.250 53.147 1000.2 144840 18 14 13 60 50 4 $GNGGA,115745.00,4333.69353,N,00128.73473,E,1,05,2.08,148.7,M,53.8,M,,*48
143 11 57 46 4333.6938200128.73459148.9ó 00128.73459 148.9 1101100111 1100001000 1100101001 10000000100 10000110010 1100100100 1101011001 1111100011 1011111111 1101110000 1011001011 1011111101 10000001110 10000111000 1101100111 1100100111 1110011001 1011011110 26.250 53.139 1000.2 145841 16 16 14 59 52 3 $GNGGA,115746.00,4333.69382,N,00128.73459,E,1,05,2.08,148.9,M,53.8,M,,*41
144 11 57 47 4333.6941200128.73427149.3ó 00128.73427 149.3 1101100111 1100001001 1100101010 1111111010 10000110001 1100100010 1101010010 1111100111 1100001100 1101110000 1011010001 1100000010 10000001110 10000111001 1101100011 1100100100 1110100010 1011101110 26.250 53.124 1000.2 146840 18 15 13 60 50 4 $GNGGA,115747.00,4333.69412,N,00128.73427,E,1,06,1.56,149.3,M,53.8,M,,*47
145 11 57 48 4333.6924400128.73341149.2ó 00128.73341 149.2 1101100111 1100001001 1100101010 10000001000 10000110011 1100100001 1101001110 1111100000 1011111011 1101110000 1011010100 1100000010 10000010000 10000111011 1101101000 1100101011 1110101010 1011101011 26.250 53.155 1000.2 147838 17 14 14 59 50 4 $GNGGA,115748.00,4333.69244,N,00128.73341,E,1,06,1.56,149.2,M,53.8,M,,*4B
146 11 57 49 4333.6924200128.73351149.2ó 00128.73351 149.2 1101100111 1100001010 1100101010 10000001001 10000110100 1100011010 1101001110 1111101001 1011111111 1101110000 1011000111 1011111011 10000001000 10000111000 1101101001 1100100111 1110100010 1011100111 26.250 53.185 1000.2 148836 18 14 13 60 50 4 $GNGGA,115749.00,4333.69242,N,00128.73351,E,1,06,1.56,149.2,M,53.8,M,,*4D
147 11 57 50 4333.6921600128.73221149.3ó 00128.73221 149.3 1101101000 1100001100 1100101011 10000001000 10000110101 1100100000 1101010110 1111110001 1100000100 1101110000 1011001110 1011111111 10000001110 10000111010 1101100100 1100100110 1110100001 1011101010 26.250 53.231 1000.2 149836 17 14 14 59 50 4 $GNGGA,115750.00,4333.69216,N,00128.73221,E,1,06,1.56,149.3,M,53.8,M,,*43
148 11 57 51 4333.6915700128.73239149.1ó 00128.73239 149.1 1101100111 1100001101 1100101101 10000001001 10000110100 1100100010 1101010010 1111101010 1100000001 1101110000 1011001010 1011111001 10000001000 10000110110 1101100101 1100100100 1110100110 1011110001 26.250 53.330 1000.2 150837 16 16 14 59 52 3 $GNGGA,115751.00,4333.69157,N,00128.73239,E,1,06,1.56,149.1,M,53.8,M,,*4F
149 11 57 52 4333.6911800128.73273149.3ó 00128.73273 149.3 1101100111 1100001100 1100101101 10000000000 10000101110 1100010110 1101001011 1111101010 1011111110 1101110000 1011001101 1011111110 10000010111 10001000000 1101100100 1100011110 1110011111 1011100001 26.250 53.299 1000.2 151834 18 14 13 60 50 4 $GNGGA,115752.00,4333.69118,N,00128.73273,E,1,05,2.08,149.3,M,53.8,M,,*40
150 11 57 53 4333.6913200128.73282149.1ó 00128.73282 149.1 1101101000 1100001011 1100101011 10000000110 10000110100 1100011110 1101011000 1111101001 1100000010 1101110000 1011010011 1100000011 10000010000 10000111100 1101100011 1100100100 1110101000 1011100110 26.250 53.368 1000.2 152834 16 16 15 59 51 3 $GNGGA,115753.00,4333.69132,N,00128.73282,E,1,05,2.07,149.1,M,53.8,M,,*4A
151 11 57 54 4333.6910200128.73322149.0ó 00128.73322 149.0 1101100111 1100001111 1100101111 10000010001 10000110101 1100100000 1101010001 1111101001 1100000001 1101110000 1011001100 1011111101 10000010010 10000111010 1101100110 1100100101 1110101011 1011101110 26.250 53.338 1000.2 153832 18 14 13 60 50 4 $GNGGA,115754.00,4333.69102,N,00128.73322,E,1,06,1.56,149.0,M,53.8,M,,*40
152 11 57 55 4333.6912400128.73284149.0ó 00128.73284 149.0 1101100111 1100010011 1100110011 10000001111 10000111000 1100100101 1101010110 1111100011 1011111111 1101110000 1011001111 1100000100 10000001110 10000111101 1101101011 1100100111 1110101011 1011101100 26.250 53.284 1000.2 154831 17 14 14 58 51 4 $GNGGA,115755.00,4333.69124,N,00128.73284,E,1,06,1.56,149.0,M,53.8,M,,*48
153 11 57 56 4333.6898500128.73228149.1ó 00128.73228 149.1 1101100111 1100001001 1100101010 10000000010 10000101110 1100011010 1101001110 1111101110 1011111111 1101110000 1011010010 1100000001 10000001100 10000110110 1101100111 1100101000 1110100011 1011101011 26.250 53.238 1000.2 155831 17 16 14 59 52 3 $GNGGA,115756.00,4333.68985,N,00128.73228,E,1,06,1.56,149.1,M,53.8,M,,*4E
154 11 57 57 4333.6896900128.73226149.1ó 00128.73226 149.1 1101100111 1100000100 1100100110 10000000101 10000101111 1100011101 1101010100 1111100110 1011111001 1101110000 1011001010 1011111011 10000010000 10000111000 1101100111 1100100111 1110011110 1011100100 26.250 53.185 1000.2 156831 16 15 15 59 50 4 $GNGGA,115757.00,4333.68969,N,00128.73226,E,1,06,1.56,149.1,M,53.8,M,,*43
155 11 57 58 4333.6887900128.73246149.0ó 00128.73246 149.0 1101100111 1100001000 1100101000 10000000111 10000101111 1100011011 1101010101 1111101100 1100000010 1101110000 1011001000 1011111011 10000010011 10000110111 1101100010 1100100110 1110100111 1011100110 26.250 53.193 1000.2 157829 17 15 13 59 50 5 $GNGGA,115758.00,4333.68879,N,00128.73246,E,1,06,1.56,149.0,M,53.8,M,,*4B
156 11 57 59 4333.6885700128.73206148.7ó 00128.73206 148.7 1101100111 1100001011 1100101011 10000001001 10000110011 1100100000 1101010110 1111101101 1100000100 1101110000 1011001110 1011111101 10000100010 10000111101 1101100010 1100100001 1110100000 1011101110 26.250 53.223 1000.2 158828 17 15 14 60 50 4 $GNGGA,115759.00,4333.68857,N,00128.73206,E,1,05,2.07,148.7,M,53.8,M,,*40
