id HH MM SS longitude latitude altitude adc_1_ch0_Temperature adc_1_ch1 adc_1_ch2 adc_1_ch3 adc_1_ch4 adc_1_ch5 adc_1_ch6 adc_1_ch7 adc_1_ch8 adc_2_ch0_Temperature adc_2_ch1 adc_2_ch2 adc_2_ch3 adc_2_ch4 adc_2_ch5 adc_2_ch6 adc_2_ch7 adc_2_ch8 temp hum pres t_prog t_gps t_split t_adc t_temp t_hum t_pres trame_gga
1 08 10 12 Nan Nan Nan 1101100011 11 1101011 11 1100111 111111111111 1101001 111111111111 111111111111 1101101011 11 1101011 11 1100110 111111111111 111111111111 111111111111 1101100 24.500 56.870 795.83 3758 16 8 13 59 51 4 $GNGGA,081012.00,,,,,0,00,99.9,,,,,,*4B
2 08 10 13 Nan Nan Nan 1101100011 11 1101011 11 1100101 111111111111 1101000 111111111111 111111111111 1101101011 11 1101011 10110101 1100100 111111111111 111111111111 111111111111 1101101 24.500 56.634 1002.7 4595 18 7 12 60 50 4 $GNGGA,081013.00,,,,,0,00,99.9,,,,,,*4A
3 08 10 13 Nan Nan Nan 1101100011 11 1101011 100 1100100 111111111111 1101000 111111111111 111111111111 1101101010 11 1101011 100100000 10010011 111111111111 111111111111 111111111111 1101101 24.500 56.542 1002.7 5105 17 7 13 60 51 3 $GNGGA,081013.50,,,,,0,00,6.94,,,,,,*4D
4 08 10 14 Nan Nan Nan 1101100011 11 1101010 10000100 1100011 111111111111 1101000 111111111111 111111111111 1101101010 11 1101011 101110101 100000001 111111111111 111111111111 111111111111 1101101 24.563 56.473 1002.7 5604 16 7 12 60 51 4 $GNGGA,081014.00,,,,,0,00,6.94,,,,,,*4F
5 08 10 15 Nan Nan Nan 1101100100 11 1101010 101010101 10110010 111111111111 1100111 111111111111 111111111111 1101101011 11 1101010 111111000 110111010 111111111111 111111111111 111111111111 1101101 24.500 56.313 1002.7 6602 18 7 12 59 51 3 $GNGGA,081015.00,,,,,0,00,6.94,,,,,,*4E
6 08 10 16 Nan Nan Nan 1101100011 11 1101010 111100000 101000000 111111111111 1100110 111111111111 111111111111 1101101010 100 1101011 1001010100 1000111100 111111111111 111111111111 111111111111 1101100 24.500 56.168 1002.7 7596 17 7 13 59 50 4 $GNGGA,081016.00,,,,,0,00,6.94,,,,,,*4D
7 08 10 17 Nan Nan Nan 1101100011 11 1101001 1001001001 110110110 111111111111 1100101 111111111111 111111111111 1101101011 11 1101010 1010010011 1010010110 111111111111 111111111111 111111111111 1101101 24.500 56.069 1002.8 8607 17 7 12 58 51 4 $GNGGA,081017.00,,,,,0,00,2.16,,,,,,*42
8 08 10 18 Nan Nan Nan 1101100100 11 1100111 1010001110 1000000011 111111111111 1100100 111111111111 111111111111 1101101010 11 1101001 1011010101 1011011001 111111111111 111111111111 111111111111 1101101 24.563 56.016 1002.7 9597 16 7 13 59 51 4 $GNGGA,081018.00,,,,,0,00,1.85,,,,,,*44
9 08 10 19 Nan Nan Nan 1101100011 11 1100110 1011010010 1001000100 111111111111 1100011 111111111111 111111111111 1101101011 11 1101000 1011111111 1100001010 111111111111 111111111111 111111111111 1101101 24.500 55.977 1002.7 10595 16 7 13 59 52 3 $GNGGA,081019.00,,,,,0,00,2.16,,,,,,*4C
10 08 10 20 Nan Nan Nan 1101100011 11 1100101 1100000010 1001110111 111111111111 1100011 111111111111 111111111111 1101101011 11 1100111 1100001011 1100101100 111111111111 111111111111 111111111111 1101101 24.500 55.939 1002.7 11592 17 7 12 60 50 4 $GNGGA,081020.00,,,,,0,00,2.16,,,,,,*46
11 08 10 21 Nan Nan Nan 1101100011 1001000 1100100 1100101001 1010100010 111111111111 1100101 111111111111 111111111111 1101101011 11 1100110 1100100000 1101001010 111111111111 111111111111 111111111111 1101101 24.563 55.893 1002.7 12595 17 7 12 59 51 4 $GNGGA,081021.00,,,,,0,00,2.16,,,,,,*47
12 08 10 22 Nan Nan Nan 1101100100 10010001 1100011 1101001101 1011001001 111111111111 1110111 111111111111 111111111111 1101101010 11 1100110 1100110001 1101011111 111111111111 111111111111 111111111111 1101101 24.500 55.886 1002.7 13592 18 7 12 60 51 3 $GNGGA,081022.00,,,,,0,00,2.16,,,,,,*44
13 08 10 23 Nan Nan Nan 1101100011 11010010 1101001 1101011110 1011101000 111111111111 10100101 111111111111 111111111111 1101101011 100 1100101 1101000110 1101110001 111111111111 111111111111 111111111111 1101101 24.500 55.871 1002.7 14594 16 8 14 59 51 3 $GNGGA,081023.00,,,,,0,00,2.16,,,,,,*45
14 08 10 24 Nan Nan Nan 1101100011 100000100 10001100 1101110100 1011111111 111111111111 11010100 111111111111 111111111111 1101101010 10010 1100100 1101010110 1110000001 111111111111 111111111111 111111111111 1101101 24.563 55.817 1002.7 15592 18 6 12 60 50 4 $GNGGA,081024.00,,,,,0,00,2.16,,,,,,*42
15 08 10 25 Nan Nan Nan 1101100100 100110010 11000000 1110000111 1100011000 111111111111 100010001 111111111111 111111111111 1101101010 1010011 1100100 1101100100 1110001111 111111111111 111111111111 111111111111 1101100 24.563 55.817 1002.7 16591 16 7 14 59 51 3 $GNGGA,081025.00,,,,,0,00,2.16,,,,,,*43
16 08 10 26 Nan Nan Nan 1101100011 101010111 11110000 1110010001 1100100110 111111111111 101001011 111111111111 111111111111 1101101010 1111010 1100100 1101110001 1110010111 111111111111 111111111111 111111111111 1101100 24.563 55.840 1002.7 17590 17 7 12 58 52 4 $GNGGA,081026.00,,,,,0,00,1.98,,,,,,*45
17 08 10 27 Nan Nan Nan 1101100011 101111110 100011011 1110100001 1100111000 111111111111 101111010 111111111111 111111111111 1101101010 10100010 1100111 1101111110 1110100010 111111111111 111111111111 111111111111 1101100 24.563 55.863 1002.7 18591 18 7 12 58 51 4 $GNGGA,081027.00,,,,,0,00,1.98,,,,,,*44
18 08 10 28 Nan Nan Nan 1101100011 110011111 101000010 1110110011 1101001001 111111111111 110100010 111111111111 111111111111 1101101010 11001000 1101111 1110000001 1110101001 111111111111 111111111111 111111111111 1101100 24.500 55.901 1002.7 19590 17 8 12 59 50 5 $GNGGA,081028.00,,,,,0,00,1.98,,,,,,*4B
19 08 10 29 Nan Nan Nan 1101100011 110111101 101100011 1110111110 1101011000 111111111111 111001001 111111111111 111111111111 1101101010 11100010 1111110 1110001001 1110110010 111111111111 111111111111 111111111111 1101100 24.500 55.924 1002.7 20588 17 7 13 60 51 3 $GNGGA,081029.00,,,,,0,00,1.98,,,,,,*4A
20 08 10 30 Nan Nan Nan 1101100011 111010011 110000000 1111000101 1101100100 111111111111 111101000 111111111111 111111111111 1101101010 11111000 10010000 1110010011 1110111010 111111111111 111111111111 111111111111 1101100 24.563 55.909 1002.7 21585 17 6 13 59 50 4 $GNGGA,081030.00,,,,,0,00,1.98,,,,,,*42
21 08 10 31 Nan Nan Nan 1101100011 111101000 110011010 1111010011 1101101111 111111111111 1000000001 111111111111 111111111111 1101101010 100010110 10101001 1110011100 1111000010 111111111111 111111111111 111111111111 1101100 24.563 55.901 1002.7 22582 17 6 12 59 51 4 $GNGGA,081031.00,,,,,0,00,1.98,,,,,,*43
22 08 10 32 4333.6943600128.74670113.2 00128.74670 113.2 1101100100 111111100 110110010 1111011001 1101111001 111111111111 1000100111 111111111111 111111111111 1101101010 100101111 11000011 1110100011 1111000110 111111111111 111111111111 111111111111 1101101 24.500 55.886 1002.7 23595 17 16 16 59 51 3 $GNGGA,081032.00,4333.69436,N,00128.74670,E,1,06,1.49,113.2,M,53.8,M,,*4F
23 08 10 33 4333.6933100128.74702121.9 00128.74702 121.9 1101100011 1000001001 111000101 1111011110 1110000001 111111111111 1000111010 111111111111 111111111111 1101101010 101000000 11010101 1110101011 1111001011 111111111111 111111111111 111111111111 1101101 24.563 55.848 1002.7 24591 17 14 15 59 51 4 $GNGGA,081033.00,4333.69331,N,00128.74702,E,1,06,1.49,121.9,M,53.8,M,,*40
24 08 10 34 4333.6930700128.74636123.4 00128.74636 123.4 1101100011 1000010111 111010111 1111100111 1110001100 111111111111 1001001111 111111111111 111111111111 1101101010 101010011 11101001 1110110010 1111010010 111111111111 111111111111 111111111111 1101101 24.563 55.832 1002.7 25591 17 15 16 59 51 3 $GNGGA,081034.00,4333.69307,N,00128.74636,E,1,07,1.21,123.4,M,53.8,M,,*44
25 08 10 35 4333.6933200128.74532122.9 00128.74532 122.9 1101100011 1000100000 111100101 1111101100 1110010110 111111111111 1001101100 111111111111 111111111111 1101101010 101100010 11111110 1110111010 1111011001 111111111111 111111111111 111111111111 1101100 24.563 55.855 1002.7 26590 17 15 15 58 52 4 $GNGGA,081035.00,4333.69332,N,00128.74532,E,1,07,1.21,122.9,M,53.8,M,,*48
26 08 10 36 4333.6938400128.74474122.9 00128.74474 122.9 1101100011 1000110010 111110110 1111110011 1110011011 111111111111 1001110111 111111111111 111111111111 1101101011 101110100 100010001 1110111111 1111011011 111111111111 111111111111 111111111111 1101100 24.500 55.962 1002.7 27592 17 14 16 60 50 4 $GNGGA,081036.00,4333.69384,N,00128.74474,E,1,07,1.64,122.9,M,53.8,M,,*44
27 08 10 37 4333.6940600128.74386122.9 00128.74386 122.9 1101100011 1001000001 1000000011 1111111001 1110100010 111111111111 1010001010 111111111111 111111111111 1101101010 110000100 100100011 1111001011 1111100010 111111111111 111111111111 111111111111 1101100 24.563 56.023 1002.7 28589 17 16 16 59 51 3 $GNGGA,081037.00,4333.69406,N,00128.74386,E,1,07,1.21,122.9,M,53.8,M,,*43
28 08 10 38 4333.6945000128.74270123.6 00128.74270 123.6 1101100011 1001001111 1000001101 1111111111 1110101011 111111111111 1010010100 111111111111 111111111111 1101101010 110010011 100110010 1111010101 1111100110 111111111111 111111111111 111111111111 1101100 24.563 56.038 1002.7 29591 17 15 15 60 51 4 $GNGGA,081038.00,4333.69450,N,00128.74270,E,1,08,1.10,123.6,M,53.8,M,,*44
29 08 10 39 4333.6941000128.74185125.9 00128.74185 125.9 1101100100 1001011000 1000010111 10000000011 1110101010 111111111111 1010100110 111111111111 111111111111 1101101010 110100011 101000100 1111011110 1111101011 111111111111 111111111111 111111111111 1101100 24.563 56.016 1002.7 30590 17 15 16 59 50 4 $GNGGA,081039.00,4333.69410,N,00128.74185,E,1,08,1.10,125.9,M,53.8,M,,*41
30 08 10 40 4333.6935000128.74147130.3 00128.74147 130.3 1101100011 1001100111 1000100011 10000010101 1110110111 111111111111 1010111011 111111111111 111111111111 1101101010 110101101 101010010 1111011100 1111101010 111111111111 111111111111 111111111111 1101100 24.563 56.077 1002.7 31589 18 15 15 60 50 4 $GNGGA,081040.00,4333.69350,N,00128.74147,E,1,07,1.37,130.3,M,53.8,M,,*46
31 08 10 41 4333.6932600128.74194132.5 00128.74194 132.5 1101100011 1001110010 1000101001 10000010101 1110111001 111111111111 1011000000 111111111111 111111111111 1101101010 110110111 101100100 1111100010 1111110010 111111111111 111111111111 111111111111 1101100 24.563 56.191 1002.7 32587 17 14 16 59 50 4 $GNGGA,081041.00,4333.69326,N,00128.74194,E,1,06,1.85,132.5,M,53.8,M,,*44
32 08 10 42 4333.6929600128.74232134.3 00128.74232 134.3 1101100011 1001111011 1000110100 10000011011 1111000001 111111111111 1011001010 111111111111 111111111111 1101101010 111001000 101110011 1111101000 1111111000 111111111111 111111111111 111111111111 1101100 24.500 56.366 1002.7 33584 17 15 15 58 51 5 $GNGGA,081042.00,4333.69296,N,00128.74232,E,1,06,1.85,134.3,M,53.8,M,,*42
33 08 10 43 4333.6928700128.74246135.9 00128.74246 135.9 1101100011 1010000010 1000111010 10000011011 1111000011 111111111111 1011011100 111111111111 111111111111 1101101010 111010101 101111100 1111101111 1111111010 111111111111 111111111111 111111111111 1101100 24.563 56.557 1002.7 34585 17 15 16 60 51 3 $GNGGA,081043.00,4333.69287,N,00128.74246,E,1,06,1.85,135.9,M,53.8,M,,*4B
34 08 10 44 4333.6922900128.74243139.1 00128.74243 139.1 1101100011 1010001010 1001000010 10000100001 1111001001 111111111111 1011011110 111111111111 111111111111 1101101010 111010111 110000110 1111101111 1111111010 111111111111 111111111111 111111111111 1101100 24.563 56.756 1002.7 35584 17 15 16 59 50 4 $GNGGA,081044.00,4333.69229,N,00128.74243,E,1,07,1.37,139.1,M,53.8,M,,*41
35 08 10 45 4333.6922300128.74262138.1 00128.74262 138.1 1101100011 1010010100 1001001000 10000100100 1111001110 111111111111 1011101000 111111111111 111111111111 1101101010 111100001 110011000 1111101110 10000000001 111111111111 111111111111 111111111111 1101100 24.563 56.977 1002.7 36583 18 15 15 60 51 3 $GNGGA,081045.00,4333.69223,N,00128.74262,E,1,06,1.85,138.1,M,53.8,M,,*40
36 08 10 46 4333.6924400128.74279138.5 00128.74279 138.5 1101100011 1010100001 1001001110 10000100100 1111001111 111111111111 1011110011 111111111111 111111111111 1101101010 111100111 110100000 1111101011 10000000000 111111111111 111111111111 111111111111 1101100 24.563 57.175 1002.7 37581 17 15 16 59 51 3 $GNGGA,081046.00,4333.69244,N,00128.74279,E,1,06,1.85,138.5,M,53.8,M,,*4C
37 08 10 47 4333.6922700128.74302138.4 00128.74302 138.4 1101100011 1101110011 1001010101 10001010101 1111010100 111111111111 1011110011 111111111111 111111111111 1101101010 111101011 110101010 1111101111 10000000100 111111111111 111111111111 111111111111 1101100 24.563 57.335 1002.7 38581 17 16 16 59 52 3 $GNGGA,081047.00,4333.69227,N,00128.74302,E,1,06,1.85,138.4,M,53.8,M,,*44
38 08 10 48 4333.6923300128.74318137.6 00128.74318 137.6 1101100100 1101010010 1001011001 10011110110 1111011010 111111111111 1011110101 111111111111 111111111111 1101101010 111110100 110110110 1111110011 10000000100 111111111111 111111111111 111111111111 1101100 24.563 57.465 1002.7 39580 18 14 15 59 51 4 $GNGGA,081048.00,4333.69233,N,00128.74318,E,1,06,1.85,137.6,M,53.8,M,,*48
39 08 10 49 4333.6920200128.74326138.8 00128.74326 138.8 1101100011 1110100111 1001100000 10011000111 1111011011 111111111111 1011110101 111111111111 111111111111 1101101010 1000000100 111000000 10000000111 10000001011 111111111111 111111111111 111111111111 1101100 24.563 57.587 1002.7 40578 17 16 16 59 50 4 $GNGGA,081049.00,4333.69202,N,00128.74326,E,1,07,1.37,138.8,M,53.8,M,,*4F
40 08 10 50 4333.6917400128.74394139.2 00128.74394 139.2 1101100100 1101100101 1001100101 10010010001 1111011110 111111111111 1100000000 111111111111 111111111111 1101101010 1000001111 111001011 10000001001 10000001000 111111111111 111111111111 111111111111 1101100 24.563 57.648 1002.7 41579 18 15 15 60 51 3 $GNGGA,081050.00,4333.69174,N,00128.74394,E,1,07,1.37,139.2,M,53.8,M,,*47
41 08 10 51 4333.6918000128.74381139.1 00128.74381 139.1 1101100011 1100011100 1001101000 10010010000 1111011100 111111111111 1100001000 111111111111 111111111111 1101101010 1000011001 111010110 10000001010 10000000111 111111111111 111111111111 111111111111 1101100 24.563 57.602 1002.7 42579 17 15 16 59 51 3 $GNGGA,081051.00,4333.69180,N,00128.74381,E,1,07,1.37,139.1,M,53.8,M,,*4A
42 08 10 52 4333.6916100128.74366138.6 00128.74366 138.6 1101100100 1100101101 1001101110 10010001000 1111100111 111111111111 1100010100 111111111111 111111111111 1101101010 1001001110 111011100 10010111110 10000001111 111111111111 111111111111 111111111111 1101100 24.563 57.671 1002.7 43576 18 15 15 60 50 4 $GNGGA,081052.00,4333.69161,N,00128.74366,E,1,07,1.37,138.6,M,53.8,M,,*49
43 08 10 53 4333.6913300128.74319138.8 00128.74319 138.8 1101100011 1100110111 1001110101 10001111100 1111100010 111111111111 1100011000 111111111111 111111111111 1101101010 1001110111 111100111 10011001001 10000010000 111111111111 111111111111 111111111111 1101100 24.563 57.824 1002.7 44575 17 15 16 59 51 3 $GNGGA,081053.00,4333.69133,N,00128.74319,E,1,07,1.37,138.8,M,53.8,M,,*49
44 08 10 54 4333.6912700128.74289136.9 00128.74289 136.9 1101100100 1100011000 1001111000 10001101100 1111100110 111111111111 1100101000 111111111111 111111111111 1101101010 1001110011 111110000 10001111000 10000010001 111111111111 111111111111 111111111111 1101100 24.625 58.022 1002.7 45576 17 16 15 59 52 4 $GNGGA,081054.00,4333.69127,N,00128.74289,E,1,07,1.37,136.9,M,53.8,M,,*4C
45 08 10 55 4333.6912500128.74302136.7 00128.74302 136.7 1101100100 1011000010 1001111001 10000110111 1111101001 111111111111 1100110000 111111111111 111111001001 1101101010 1001100100 111111000 10001011011 10000010100 111111111111 111111111111 111111111111 1101100 24.563 58.022 1002.7 46574 18 14 15 60 50 4 $GNGGA,081055.00,4333.69125,N,00128.74302,E,1,06,1.85,136.7,M,53.8,M,,*4B
46 08 10 56 4333.6913000128.74253135.9 00128.74253 135.9 1101100100 1010101011 1001111011 10000100101 1111100111 111111111111 1100101011 111111111111 110111011101 1101101010 1001011010 1000000010 10001001011 10000010011 111111111111 111111111111 111111111111 1101100 24.563 57.900 1002.7 47574 17 16 16 59 51 3 $GNGGA,081056.00,4333.69130,N,00128.74253,E,1,06,1.85,135.9,M,53.8,M,,*44
47 08 10 57 4333.6912300128.74221136.3 00128.74221 136.3 1101100100 1010110101 1001111110 10000101100 1111101101 111111111111 1100101011 111111111111 110001011000 1101101010 1001010110 1000000010 10000110111 10000010110 111111111111 111111111111 111111111111 1101100 24.625 57.725 1002.7 48572 18 14 15 60 51 4 $GNGGA,081057.00,4333.69123,N,00128.74221,E,1,06,1.85,136.3,M,53.8,M,,*4B
48 08 10 58 4333.6913000128.74218135.1 00128.74218 135.1 1101100011 1010111000 1001111111 10000111010 1111101110 111111111111 1100101011 111111111111 101100100101 1101101010 1001011010 1000010000 10000101111 10000011000 111111111111 111111111111 111111111111 1101100 24.563 57.549 1002.7 49570 17 14 16 58 51 4 $GNGGA,081058.00,4333.69130,N,00128.74218,E,1,06,1.85,135.1,M,53.8,M,,*4D
49 08 10 59 4333.6913900128.74197133.4 00128.74197 133.4 1101100100 1011001011 1010000011 10001010111 1111110100 111111111111 1100101000 111111111111 101000111110 1101101010 1001110001 1000011000 10010100111 10000011100 111111111111 111111111111 111111111111 1101100 24.563 57.374 1002.7 50572 18 16 15 59 52 4 $GNGGA,081059.00,4333.69139,N,00128.74197,E,1,07,1.70,133.4,M,53.8,M,,*49
50 08 11 00 4333.6914200128.74160132.1 00128.74160 132.1 1101100100 10001111101 1100100111 10001101011 1111111011 111111111111 1100011111 111111111111 100101011110 1101101010 1010000100 1000011101 10010010011 10000011101 111111111111 111111111111 111111111111 1101100 24.563 57.229 1002.7 51567 18 15 15 60 50 4 $GNGGA,081100.00,4333.69142,N,00128.74160,E,1,07,1.70,132.1,M,53.8,M,,*44
51 08 11 01 4333.6914700128.74170132.2 00128.74170 132.2 1101100100 10101100011 1011000111 10011101000 1111101111 111111111111 1100011101 111111111111 100000111110 1101101010 1001110001 1000100010 10001100000 10000011111 111111111111 111111111111 111111111111 1101100 24.563 57.168 1002.7 52568 17 15 15 59 50 5 $GNGGA,081101.00,4333.69147,N,00128.74170,E,1,06,1.85,132.2,M,53.8,M,,*49
52 08 11 02 4333.6914200128.74171132.1 00128.74171 132.1 1101100100 10011100010 1010010000 10100001000 1111111001 111111111111 1100011010 111111111111 111111111111 1101101010 1001101010 1000101000 10001000100 10000011111 111111111111 111111111111 111111111111 1101100 24.563 57.160 1002.7 53568 18 14 15 59 51 4 $GNGGA,081102.00,4333.69142,N,00128.74171,E,1,06,1.85,132.1,M,53.8,M,,*4D
53 08 11 03 4333.6914300128.74129131.5 00128.74129 131.5 1101100100 10001010100 1010001111 10100011111 1111111100 111111111111 1100010101 111111111111 111111111111 1101101010 1001101010 1000110000 10000110100 10000100001 111111111111 111111111111 111111111111 1101011 24.625 57.541 1002.7 54567 17 15 17 59 51 3 $GNGGA,081103.00,4333.69143,N,00128.74129,E,1,07,1.71,131.5,M,53.8,M,,*4D
54 08 11 04 4333.6913300128.74122132.0 00128.74122 132.0 1101100100 10001000011 1010011001 10100010101 1111111000 111111111111 1100010001 111111111111 111011011101 1101101010 1001011111 1000110111 10000001000 10000100100 111111111111 111111111111 111111111111 1101010 24.625 57.419 1002.7 55567 18 15 15 60 50 4 $GNGGA,081104.00,4333.69133,N,00128.74122,E,1,07,1.71,132.0,M,53.8,M,,*40
55 08 11 05 4333.6912800128.74096131.4 00128.74096 131.4 1101100100 10000100000 1010010011 10100000100 1111110011 111111111111 1100010011 111111111111 110100101111 1101101010 1001010000 1000111011 1111110101 10000100011 111111111111 111111111111 111111111111 1101010 24.563 57.389 1002.7 56565 17 14 16 59 50 4 $GNGGA,081105.00,4333.69128,N,00128.74096,E,1,07,1.71,131.4,M,53.8,M,,*42
56 08 11 06 4333.6912800128.74140131.4 00128.74140 131.4 1101100110 10010111001 1010001110 10100000001 10000000000 111111111111 1100000011 111111111111 101111110000 1101101010 1001001101 1001000000 1111110101 10000100111 111111111111 111111111111 111111111111 1101010 24.625 57.328 1002.7 57564 17 16 15 59 50 5 $GNGGA,081106.00,4333.69128,N,00128.74140,E,1,07,1.71,131.4,M,53.8,M,,*4B
57 08 11 07 4333.6916200128.74146129.3 00128.74146 129.3 1101100111 100101110010 1011110010 11100101111 1111111011 111111111111 1100000111 111111111111 11011101000 1101101010 1001010111 1001000111 1111111110 10000101000 111111111111 111111111111 111111111111 1101010 24.563 57.244 1002.7 58562 18 15 15 60 51 4 $GNGGA,081107.00,4333.69162,N,00128.74146,E,1,07,1.65,129.3,M,53.8,M,,*49
58 08 11 08 4333.6919900128.74149128.2 00128.74149 128.2 1101100111 100000010110 1010010011 11110001110 10000001001 111111111111 111111111111 111111111111 11001101110 1101101010 1001101110 1001001100 10000110011 10000100110 111111111111 111111111111 111111111111 1101010 24.563 56.969 1002.7 59566 17 15 15 58 51 5 $GNGGA,081108.00,4333.69199,N,00128.74149,E,1,07,1.65,128.2,M,53.8,M,,*4D
59 08 11 09 4333.6918300128.74184127.9 00128.74184 127.9 1101100111 10101001101 1010100011 11011101111 10000000111 111111111111 100011110011 111111111111 11001011000 1101101010 1001101011 1001010000 10000110000 10000101000 111111111111 111111111111 111111111111 1101010 24.625 56.656 1002.7 60561 18 15 15 60 51 4 $GNGGA,081109.00,4333.69183,N,00128.74184,E,1,07,1.71,127.9,M,53.8,M,,*47
60 08 11 10 4333.6920500128.74141126.3 00128.74141 126.3 1101100111 1011110001 1010100011 10111100011 10000000010 111111111111 110100010000 111111111111 11001000110 1101101010 1001110001 1001011010 10000100100 10000101010 111111111111 111111111111 111111111111 1101010 24.563 56.428 1002.7 61560 17 15 16 59 51 3 $GNGGA,081110.00,4333.69205,N,00128.74141,E,1,08,1.49,126.3,M,53.8,M,,*44
61 08 11 11 4333.6922100128.74138125.2 00128.74138 125.2 1101100110 111001111 1010100011 10010101000 10000000011 111111111111 100100000011 111111111111 11001101101 1101101010 1001101010 1001011010 10000100011 10000101100 111111111111 111111111111 111111111111 1101010 24.563 56.260 1002.7 62556 17 15 15 58 52 4 $GNGGA,081111.00,4333.69221,N,00128.74138,E,1,08,1.49,125.2,M,53.8,M,,*4F
62 08 11 12 4333.6924100128.74141124.5 00128.74141 124.5 1101100110 101001110 1010100110 10000000110 10000000110 111111111111 11101110001 111111111111 11010110111 1101101010 1001110000 1001100011 10000111100 10000101100 111111111111 111111111111 111111111111 1101010 24.563 56.138 1002.7 63558 19 15 15 60 51 3 $GNGGA,081112.00,4333.69241,N,00128.74141,E,1,08,1.49,124.5,M,53.8,M,,*42
63 08 11 13 4333.6924900128.74173124.9 00128.74173 124.9 1101100110 100001100 1010100110 1101110101 10000000001 111111111111 11110010110 111111111111 11010111101 1101101010 1001111010 1001100100 10000111000 10000101100 111111111111 111111111111 111111111111 1101010 24.563 56.046 1002.7 64557 17 15 15 59 50 5 $GNGGA,081113.00,4333.69249,N,00128.74173,E,1,08,1.49,124.9,M,53.8,M,,*46
64 08 11 14 4333.6927600128.74157124.0 00128.74157 124.0 1101100101 100010111 1010100111 1101100011 10000000101 111111111111 11000100100 111111111111 11010001101 1101101010 1001111010 1001101000 10000100101 10000101110 111111111111 111111111111 111111111111 1101010 24.563 55.962 1002.7 65557 18 14 15 59 51 4 $GNGGA,081114.00,4333.69276,N,00128.74157,E,1,08,1.49,124.0,M,53.8,M,,*42
65 08 11 15 4333.6930200128.74208122.7 00128.74208 122.7 1101100101 100010110 1010101000 1101001001 10000000111 111111111111 11000011110 111111111111 11000011011 1101101010 1001110111 1001101101 10000001010 10000101100 111111111111 111111111111 111111111111 1101010 24.563 55.878 1002.7 66555 17 15 16 59 51 4 $GNGGA,081115.00,4333.69302,N,00128.74208,E,1,08,1.49,122.7,M,53.8,M,,*49
66 08 11 16 4333.6933400128.74202121.3 00128.74202 121.3 1101100101 101101010 1010101010 1110100110 10000000110 111111111111 11011110111 111111111111 11000111100 1101101010 1001101110 1001101101 1111111100 10000101110 111111111111 111111111111 111111111111 1101010 24.563 55.840 1002.7 67552 17 16 15 59 51 4 $GNGGA,081116.00,4333.69334,N,00128.74202,E,1,08,1.50,121.3,M,53.8,M,,*4A
67 08 11 17 4333.6935700128.74193120.9 00128.74193 120.9 1101100101 111000011 1010101010 1110111110 10000001001 111111111111 11000100011 111111111111 11000110000 1101101010 1001111111 1001101010 10010110000 10000011010 111111111111 111111111111 111111111111 1101010 24.625 55.878 1002.7 68551 18 15 15 60 51 3 $GNGGA,081117.00,4333.69357,N,00128.74193,E,1,08,1.50,120.9,M,53.8,M,,*4E
68 08 11 18 4333.6939800128.74194119.2 00128.74194 119.2 1101100101 1000010101 1010101010 1110101111 10000001000 111111111111 11000110101 111111111111 11001001010 1101101010 10010101110 1001110110 101001110110 10000101101 111111111111 111111111111 111111111111 1101010 24.563 55.924 1002.7 69550 17 16 16 59 51 4 $GNGGA,081118.00,4333.69398,N,00128.74194,E,1,07,1.65,119.2,M,53.8,M,,*4D
69 08 11 19 4333.6943500128.74164116.7 00128.74164 116.7 1101100101 1000011110 1010101001 1110111000 10000001000 111111111111 100001011100 111111111111 11001000011 1101101011 10110001111 1010000110 101010010110 10000111110 111111111111 111111111111 111111111111 1101010 24.625 55.970 1002.7 70548 18 14 15 59 51 4 $GNGGA,081119.00,4333.69435,N,00128.74164,E,1,07,1.65,116.7,M,53.8,M,,*49
70 08 11 20 4333.6940500128.74167118.2 00128.74167 118.2 1101100101 1000000010 1010101001 1110100010 10000001011 111111111111 11101110001 111111111111 11001101111 1101101011 10100011111 1010000110 11101111111 10000111011 111111111111 111111111111 111111111111 1101010 24.625 56.016 1002.7 71546 17 14 16 58 51 4 $GNGGA,081120.00,4333.69405,N,00128.74167,E,1,07,1.28,118.2,M,53.8,M,,*41
71 08 11 21 4333.6941400128.74155118.0 00128.74155 118.0 1101100101 1000011110 1010101100 1110100000 10000001000 111111111111 1101001110 111111111111 11000010110 1101101011 10001000100 1010000110 10111100110 10000111011 111111111111 111111111111 111111111111 1101010 24.563 56.061 1002.7 72547 18 15 15 58 52 4 $GNGGA,081121.00,4333.69414,N,00128.74155,E,1,08,1.03,118.0,M,53.8,M,,*45
72 08 11 22 4333.6943400128.74133116.9 00128.74133 116.9 1101100101 1000110010 1010101011 1111001110 10000001000 111111111111 1100101000 111111111111 10111010100 1101101011 1110011100 1010000101 10011100001 10000111001 111111111111 111111111111 111111111111 1101010 24.563 56.092 1002.7 73543 18 14 15 59 51 4 $GNGGA,081122.00,4333.69434,N,00128.74133,E,1,08,1.03,116.9,M,53.8,M,,*43
73 08 11 23 4333.6946800128.74121116.7 00128.74121 116.7 1101100101 1000110001 1010101111 1110111111 10000001000 111111111111 1100001110 111111111111 10111111101 1101101011 1100010101 1010001001 1101110100 10000111010 111111111111 111111111111 111111111111 1101010 24.563 56.092 1002.7 74545 17 15 15 59 51 4 $GNGGA,081123.00,4333.69468,N,00128.74121,E,1,08,1.03,116.7,M,53.8,M,,*46
74 08 11 24 4333.6951100128.74029113.7 00128.74029 113.7 1101100101 1000111010 1010110000 1111010001 10000000111 111111111111 1011001011 111111111111 10110001001 1101101011 1010001001 1010001111 1011101010 10000111011 111111111111 111111110001 111111111111 1101010 24.625 56.077 1002.7 75547 18 14 15 60 50 4 $GNGGA,081124.00,4333.69511,N,00128.74029,E,1,09,0.96,113.7,M,53.8,M,,*4E
75 08 11 25 4333.6953200128.73920112.1 00128.73920 112.1 1101100101 1010100011 1010110010 10000000011 10000001001 111111111111 1010110000 111111111111 10101011100 1101101010 1000011110 1010001111 1101000001 10000111000 111111111111 111110011101 111111111111 1101010 24.563 56.077 1002.7 76548 17 16 15 59 51 4 $GNGGA,081125.00,4333.69532,N,00128.73920,E,1,09,0.96,112.1,M,53.8,M,,*4E
76 08 11 26 4333.6954800128.73798110.5 00128.73798 110.5 1101100101 1010010100 1010110000 10000001011 10000000111 111111111111 1010011110 111111111111 10011111001 1101101011 111100110 1010010110 1100010111 10000111000 111111111111 111101011000 111111111111 1101010 24.563 56.122 1002.7 77546 18 15 15 60 51 3 $GNGGA,081126.00,4333.69548,N,00128.73798,E,1,09,0.96,110.5,M,53.8,M,,*4B
77 08 11 27 4333.6955000128.73730109.3 00128.73730 109.3 1101100101 1010011001 1010110010 10000001011 10000001011 111111111111 1010010110 111111111111 10011011101 1101101011 111001110 1010010100 1100110100 10000110101 111111111111 111100010111 111111111111 1101010 24.625 56.191 1002.7 78546 17 15 16 59 51 4 $GNGGA,081127.00,4333.69550,N,00128.73730,E,1,09,0.96,109.3,M,53.8,M,,*4F
78 08 11 28 4333.6955800128.73683108.0 00128.73683 108.0 1101100101 1010011101 1010110110 10000001001 10000001110 111111111111 1010000110 111111111111 10011010100 1101101011 111100001 1010010111 1101100100 10000111000 111111111111 111011010101 111111111111 1101010 24.625 56.160 1002.7 79545 18 14 15 60 50 4 $GNGGA,081128.00,4333.69558,N,00128.73683,E,1,09,0.96,108.0,M,53.8,M,,*43
79 08 11 29 4333.6959300128.73633106.2 00128.73633 106.2 1101100101 1010100101 1010110110 10000001001 10000001111 111111111111 1010000011 111111111111 10011001011 1101101011 111111101 1010011010 1110001000 10000111001 111111111111 111010010111 111111111111 1101010 24.625 56.099 1002.7 80540 18 14 15 60 50 4 $GNGGA,081129.00,4333.69593,N,00128.73633,E,1,09,0.96,106.2,M,53.8,M,,*42
80 08 11 30 4333.6962900128.73620103.9 00128.73620 103.9 1101100101 1010101100 1010110101 10000001111 10000001110 111111111111 1010000001 111011010111 10011010111 1101101011 1000011100 1010100000 1110010111 10000110110 111111111111 111001100101 111111111111 1101010 24.625 56.038 1002.7 81543 17 15 15 58 52 4 $GNGGA,081130.00,4333.69629,N,00128.73620,E,1,09,0.96,103.9,M,53.8,M,,*44
81 08 11 31 4333.6965900128.73535102.3 00128.73535 102.3 1101100101 1010101100 1010110101 10000011000 10000010001 111111111111 1001111000 110110101110 10010111000 1101101011 1000101111 1010011111 1110010111 10000110111 111111111111 111000101110 111111111111 1101010 24.563 55.985 1002.7 82542 18 15 15 60 51 4 $GNGGA,081131.00,4333.69659,N,00128.73535,E,1,09,0.96,102.3,M,53.8,M,,*4E
82 08 11 32 4333.6967700128.73480101.0 00128.73480 101.0 1101100101 1010100100 1010110111 10000100000 10000001110 111111111111 1010000010 110011001010 10010111111 1101101011 1001000010 1010100011 1110101010 10000111001 111111111111 110111111001 111111111111 1101010 24.625 56.038 1002.7 83542 17 16 16 59 51 3 $GNGGA,081132.00,4333.69677,N,00128.73480,E,1,09,0.96,101.0,M,53.8,M,,*4E
83 08 11 33 4333.6968800128.73442100.2 00128.73442 100.2 1101100101 1011000101 1010111000 10000101000 10000001110 111111111111 1001111100 101111110011 10010110101 1101101011 1001001001 1010100111 1110110000 10000111011 111111111111 110111001010 111111111111 1101010 24.563 56.214 1002.7 84541 17 15 16 60 51 3 $GNGGA,081133.00,4333.69688,N,00128.73442,E,1,09,0.96,100.2,M,53.8,M,,*42
84 08 11 34 4333.6969600128.7339598.8 00128.73395 98.8  1101100101 1011000110 1010111001 10000101001 10000010001 111111111111 1001110101 101101010000 10010111000 1101101010 1001001111 1010100111 1110100111 10000110111 111111111111 110110010001 111111111111 1101010 24.625 56.397 1002.7 85537 17 14 16 58 51 4 $GNGGA,081134.00,4333.69696,N,00128.73395,E,1,09,0.96,98.8,M,53.8,M,,*7D
85 08 11 35 4333.6971600128.7341698.4 00128.73416 98.4  1101100100 1010110110 1010111011 10000100010 10000001100 111111111111 1001111111 101010110001 10010101110 1101101010 1001010110 1010101100 1110110001 10000111001 111111001111 110101110010 111111111111 1101010 24.625 56.496 1002.7 86537 17 15 15 59 52 3 $GNGGA,081135.00,4333.69716,N,00128.73416,E,1,09,0.96,98.4,M,53.8,M,,*75
86 08 11 36 4333.6973200128.7337897.9 00128.73378 97.9  1101100101 1010101010 1010111101 10000100101 10000010000 111111111111 1010000011 101000110101 10010101101 1101101010 1001100000 1010101111 1110111111 10000111001 111110010011 110101000001 111111111111 1101010 24.625 56.519 1002.7 87537 18 15 15 60 51 3 $GNGGA,081136.00,4333.69732,N,00128.73378,E,1,09,0.96,97.9,M,53.8,M,,*7D
87 08 11 37 4333.6973700128.7333196.8 00128.73331 96.8  1101100100 1010100100 1010111001 10000100101 10000010000 111111111111 1010001101 100111000010 10010101011 1101101010 1001100101 1010101110 1111011100 10000111011 111101001110 110100011000 111111111111 1101010 24.625 56.534 1002.7 88537 17 15 15 58 51 5 $GNGGA,081137.00,4333.69737,N,00128.73331,E,1,09,0.96,96.8,M,53.8,M,,*74
88 08 11 38 4333.6973800128.7328496.3 00128.73284 96.3  1101100101 1011000111 1010111100 10000100110 10000001111 111111111111 1010001110 100101011101 10010101010 1101101010 1001110110 1010110011 1111111101 10000111010 111100011001 110011101101 111111111111 1101010 24.563 56.572 1002.7 89535 18 14 15 60 51 4 $GNGGA,081138.00,4333.69738,N,00128.73284,E,1,09,0.96,96.3,M,53.8,M,,*70
89 08 11 39 4333.6974700128.7325794.8 00128.73257 94.8  1101100100 1011001010 1010111110 10000111001 10000010000 111111111111 1010011010 100100000011 10010011001 1101101010 1010000001 1010110001 1111110101 10000111000 111011101011 110011001000 111111111111 1101010 24.625 56.672 1002.7 90535 17 14 16 59 51 4 $GNGGA,081139.00,4333.69747,N,00128.73257,E,1,09,0.96,94.8,M,53.8,M,,*7E
90 08 11 40 4333.6974000128.7324694.4 00128.73246 94.4  1101100101 1011010111 1010111101 10000110111 10000010000 111111111111 1010100001 100011000011 10010011001 1101101010 1010001000 1010110100 1111110100 10000111011 111010111010 110010100111 111111111111 1101010 24.625 56.992 1002.7 91530 17 16 15 59 52 3 $GNGGA,081140.00,4333.69740,N,00128.73246,E,1,09,0.96,94.4,M,53.8,M,,*7B
91 08 11 41 4333.6976400128.7321393.7 00128.73213 93.7  1101100101 1011001011 1010111101 10000111100 10000010001 111111111111 1010101000 100001111110 10010011110 1101101010 1010001100 1010111000 1111110001 10000111010 111010010010 110010000000 111111111111 1101010 24.625 57.496 1002.8 92532 17 15 16 59 50 4 $GNGGA,081141.00,4333.69764,N,00128.73213,E,1,09,0.96,93.7,M,53.8,M,,*78
92 08 11 42 4333.6976500128.7316793.0 00128.73167 93.0  1101100101 1010111001 1010111101 10000111000 10000001111 111111111111 1010110110 100000111100 10010010101 1101101010 1010001100 1010111000 1111100110 10000111100 111001101000 110001011101 111111111111 1101001 24.563 57.938 1002.8 93531 17 15 15 59 50 5 $GNGGA,081142.00,4333.69765,N,00128.73167,E,1,09,0.96,93.0,M,53.8,M,,*7D
93 08 11 43 4333.6976900128.7314092.1 00128.73140 92.1  1101100100 1011000111 1011000010 10000110011 10000010001 111111111111 1010111011 100000010100 10010010110 1101101010 1010001110 1010111001 1111100011 10000111101 111000111010 110000111101 111111111111 1101010 24.563 58.075 1002.8 94530 18 14 15 59 51 4 $GNGGA,081143.00,4333.69769,N,00128.73140,E,1,09,0.96,92.1,M,53.8,M,,*75
94 08 11 44 4333.6977900128.7316191.6 00128.73161 91.6  1101100100 1010111111 1010111111 10000110111 10000001100 111111111111 1011000111 11111010111 10010010000 1101101010 1010010010 1010111000 1111100101 10000111001 111000010000 110000011011 111111111111 1101010 24.625 57.976 1002.8 95529 17 15 16 59 50 4 $GNGGA,081144.00,4333.69779,N,00128.73161,E,1,09,1.07,91.6,M,53.8,M,,*7D
95 08 11 45 4333.6979200128.7319891.4 00128.73198 91.4  1101100101 1010101100 1011000000 10000110110 10000010001 111111111111 1011010000 11110101001 10010000100 1101101010 1010011001 1011000000 1111101100 10000111011 110111101100 110000000001 111111111111 1101001 24.563 57.900 1002.8 96529 18 15 15 60 50 4 $GNGGA,081145.00,4333.69792,N,00128.73198,E,1,09,1.07,91.4,M,53.8,M,,*7D
96 08 11 46 4333.6980700128.7317090.5 00128.73170 90.5  1101100101 1011001000 1011000001 10001100100 10000010100 111111111111 1011010110 11110001000 10010000101 1101101010 1010100001 1011000010 10000001001 10000111011 110110101101 101111100011 111111111111 1101001 24.625 57.786 1002.8 97527 18 14 15 59 51 4 $GNGGA,081146.00,4333.69807,N,00128.73170,E,1,09,0.96,90.5,M,53.8,M,,*72
97 08 11 47 4333.6980600128.7314590.4 00128.73145 90.4  1101100101 1011111000 1011000000 10001101001 10000010100 111111111111 1011011111 11101100110 10010000100 1101101010 1010110001 1011000110 10001000011 10000111100 110110000010 101111000100 111111111111 1101001 24.625 57.702 1002.8 98527 17 15 15 58 52 4 $GNGGA,081147.00,4333.69806,N,00128.73145,E,1,10,0.90,90.4,M,53.8,M,,*7B
98 08 11 48 4333.6979400128.7310389.9 00128.73103 89.9  1101100101 1011101000 1011000011 10001011110 10000010000 111111111111 1011101001 11101001010 10010000000 1101101010 1011000001 1011000000 10000110110 10000111100 110101101010 101110101111 111111111111 1101001 24.625 57.694 1002.8 99525 18 14 15 60 50 4 $GNGGA,081148.00,4333.69794,N,00128.73103,E,1,10,0.90,89.9,M,53.8,M,,*77
99 08 11 49 4333.6979100128.7312289.8 00128.73122 89.8  1101100101 1011010100 1011000011 10001001111 10000010100 111111111111 1011011110 11100110000 10010000100 1101101010 1011000110 1011000110 10000100100 10000111011 110101010111 101110010001 111111111111 1101001 24.625 57.702 1002.8 100526 17 15 15 59 50 5 $GNGGA,081149.00,4333.69791,N,00128.73122,E,1,10,0.90,89.8,M,53.8,M,,*71
100 08 11 50 4333.6978300128.7312490.1 00128.73124 90.1  1101100101 1011001101 1011000010 10001001000 10000001110 111111111111 1011101100 11100010011 10001111110 1101101101 1011000000 1011000100 10000100010 10000111011 110100111001 101101110110 111111111111 1101001 24.625 57.686 1002.8 101523 18 14 15 59 51 4 $GNGGA,081150.00,4333.69783,N,00128.73124,E,1,09,0.96,90.1,M,53.8,M,,*73
101 08 11 51 4333.6975400128.7308690.3 00128.73086 90.3  1101100100 1011001101 1011000011 10001000110 10000001111 111111111111 1011110111 11011110111 10001101101 1101101010 1010111011 1011000110 10000011010 10000111100 110100100011 101101100001 111111111111 1101001 24.625 57.709 1002.8 102519 18 14 16 59 51 3 $GNGGA,081151.00,4333.69754,N,00128.73086,E,1,10,0.90,90.3,M,53.8,M,,*7D
102 08 11 52 4333.6974800128.7307590.3 00128.73075 90.3  1101100101 1011001010 1011000011 10001001000 10000001110 111111111111 1011111100 11011100000 10001110000 1101101010 1010110110 1011000111 10000000111 10000111111 110011111110 101101000011 111111111111 1101000 24.625 57.763 1002.8 103522 18 16 15 59 52 3 $GNGGA,081152.00,4333.69748,N,00128.73075,E,1,10,0.90,90.3,M,53.8,M,,*7F
103 08 11 53 4333.6974800128.7307390.2 00128.73073 90.2  1101100101 1011000010 1011000010 10000110101 10000001101 111111111111 1100000111 11011001111 10001110001 1101101011 1010110100 1011000111 10000011001 10000111110 110011011010 101100101111 111111111111 1100101 24.625 57.816 1002.8 104520 17 14 16 60 50 4 $GNGGA,081153.00,4333.69748,N,00128.73073,E,1,10,0.90,90.2,M,53.8,M,,*79
104 08 11 54 4333.6968600128.7298891.3 00128.72988 91.3  1101100101 1011000010 1011000011 10000111010 10000010001 111111111111 1100001101 11010110111 10001101011 1101101010 1011001010 1011001011 10000111100 10000111110 110010100011 101100001111 111111111111 1101001 24.625 57.808 1002.8 105520 17 15 15 59 51 4 $GNGGA,081154.00,4333.69686,N,00128.72988,E,1,10,0.90,91.3,M,53.8,M,,*71
105 08 11 55 4333.6969700128.7297191.1 00128.72971 91.1  1101100100 1010111110 1011000110 10000111111 10000010100 111111111111 1100010101 11010101110 10001110010 1101101010 10101011110 10011010010 10111001000 10011100000 110100011110 101110100001 111111111111 1101000 24.625 57.763 1002.8 106518 18 14 15 60 50 4 $GNGGA,081155.00,4333.69697,N,00128.72971,E,1,09,1.07,91.1,M,53.8,M,,*73
106 08 11 56 4333.6971000128.7294490.6 00128.72944 90.6  1101100101 1010111101 1011001000 10000111011 10000001111 111111111111 1100011111 11010100001 10001101011 1101101010 10011101101 1010101000 101110011011 10001001011 101110100010 101101100100 111111111111 1101000 24.625 57.671 1002.8 107516 17 15 16 59 50 4 $GNGGA,081156.00,4333.69710,N,00128.72944,E,1,09,1.07,90.6,M,53.8,M,,*7E
107 08 11 57 4333.6971700128.7292390.2 00128.72923 90.2  1101100101 1010111101 1011000111 10000111100 10000010001 111111111111 1100010110 11010000110 10001011110 1101101110 10110100111 1011011111 101100111100 10001000101 101011001001 101011001001 111111111111 1101000 24.625 57.526 1002.8 108515 18 16 15 59 51 4 $GNGGA,081157.00,4333.69717,N,00128.72923,E,1,09,1.07,90.2,M,53.8,M,,*7D
108 08 11 58 4333.6972700128.7293290.0 00128.72932 90.0  1101100101 1010111111 1011000111 10000111101 10000010000 111111111111 1100011001 11001110110 10001100000 1101101101 10111001100 1101010101 100011110010 10001010010 110110101001 110011100001 111111111111 1101000 24.625 57.496 1002.8 109508 19 14 15 60 51 3 $GNGGA,081158.00,4333.69727,N,00128.72932,E,1,09,1.07,90.0,M,53.8,M,,*73
109 08 11 59 4333.6972600128.7292590.0 00128.72925 90.0  1101100100 1011000110 1011001000 10001000000 10000010010 111111111111 1100100000 11001101010 10001011101 1101100010 10000001100 1010010111 11011101011 10001001011 101101001110 101000110110 111111111111 1100111 24.625 57.564 1002.8 110510 17 15 15 59 50 5 $GNGGA,081159.00,4333.69726,N,00128.72925,E,1,08,1.50,90.0,M,53.8,M,,*76
110 08 12 00 4333.6973100128.7290589.9 00128.72905 89.9  1101100101 1011000110 1011001000 10001000010 10000010011 111111111111 1100100010 11001011000 10001010011 1101101101 1111000011 1011001111 11000110100 10001001111 101110010101 101001101010 111111111111 1100111 24.625 57.633 1002.8 111508 18 14 15 60 50 4 $GNGGA,081200.00,4333.69731,N,00128.72905,E,1,09,1.07,89.9,M,53.8,M,,*7F
111 08 12 01 4333.6974000128.7292889.7 00128.72928 89.7  1101100100 1011000110 1011000111 10000111111 10000010000 111111111111 1100100100 11001001011 10001010011 1101101101 1110101111 1011010011 10111111101 10001000100 101111110100 101010010001 111111111111 1100111 24.625 57.671 1002.8 112508 17 14 16 59 51 3 $GNGGA,081201.00,4333.69740,N,00128.72928,E,1,09,1.07,89.7,M,53.8,M,,*79
112 08 12 02 4333.6973900128.7295389.8 00128.72953 89.8  1101100100 1011000011 1011001000 10001000010 10000010011 111111111111 1100101000 11000111100 10001001101 1101101101 1100011110 1011000101 11000010101 10001001100 111111111111 111111111111 111111111111 1100111 24.625 57.679 1002.8 113507 18 15 15 59 52 3 $GNGGA,081202.00,4333.69739,N,00128.72953,E,1,09,1.07,89.8,M,53.8,M,,*77
113 08 12 03 4333.6973700128.7290390.1 00128.72903 90.1  1101100101 1011000101 1011001000 10001000010 10000010010 111111111111 1100101011 11000101111 10001001001 1101101101 1011011101 1011100111 10001010111 10001000111 111111111111 111111111111 111111111111 1100111 24.625 57.679 1002.8 114506 17 14 16 59 50 4 $GNGGA,081203.00,4333.69737,N,00128.72903,E,1,09,1.07,90.1,M,53.8,M,,*7C
114 08 12 04 4333.6973600128.7288590.2 00128.72885 90.2  1101100101 1011001101 1011001010 10001000111 10000010000 111111111111 1100101010 11000100011 10001001100 1101101101 1001101001 1011100111 1101010111 10000001000 11001101101 10010011010 111111111111 1100111 24.625 57.663 1002.8 115506 17 15 15 59 52 3 $GNGGA,081204.00,4333.69736,N,00128.72885,E,1,09,1.07,90.2,M,53.8,M,,*76
115 08 12 05 4333.6974600128.7286089.7 00128.72860 89.7  1101100101 1011010011 1011001001 10001001000 10000010011 111111111111 1100101010 11000010100 10000111111 1101101100 1011011010 1100100 1111001011 10001000000 11100100100 10111011001 111111111111 1100111 24.625 57.641 1002.8 116510 17 15 16 60 51 3 $GNGGA,081205.00,4333.69746,N,00128.72860,E,1,10,0.90,89.7,M,53.8,M,,*71
116 08 12 06 4333.6978100128.7282889.4 00128.72828 89.4  1101100101 1011011000 1011001001 10001000111 10000010001 111111111111 1100101000 11000010100 10001000101 1101110100 1011100011 1100100 1111101010 1110100101 100011011001 11101111001 111111111111 1100111 24.625 57.564 1002.8 117508 16 15 15 59 51 5 $GNGGA,081206.00,4333.69781,N,00128.72828,E,1,09,0.94,89.4,M,53.8,M,,*7A
117 08 12 07 4333.6979600128.7281889.4 00128.72818 89.4  1101100101 1011011111 1011001101 10001001100 10000010010 111111111111 1100101001 11000001011 10001000110 1101110110 1100010111 10010011 10000101101 1100100101 111111111111 111111111111 111111111111 1100111 24.625 57.442 1002.8 118507 18 14 15 60 51 3 $GNGGA,081207.00,4333.69796,N,00128.72818,E,1,09,0.94,89.4,M,53.8,M,,*7E
118 08 12 08 4333.6982700128.7280990.0 00128.72809 90.0  1101100101 1011011010 1011001001 10001001111 10000010011 111111111111 1100100101 10111110100 10000111000 1101110100 1100110110 101111110 1111110011 1111011111 111111111111 111111111111 111111111111 1100111 24.625 57.313 1002.8 119510 17 15 16 59 51 4 $GNGGA,081208.00,4333.69827,N,00128.72809,E,1,09,0.94,90.0,M,53.8,M,,*78
119 08 12 09 4333.6983300128.7270989.7 00128.72709 89.7  1101100100 1011011111 1011001010 10001001101 10000010001 111111111111 1100100110 10111101110 10000110111 1101110000 1111011100 1000000100 100000000000 1111111011 111111111111 111111111111 111111111111 1100110 24.625 57.190 1002.8 120497 17 16 15 59 50 5 $GNGGA,081209.00,4333.69833,N,00128.72709,E,1,08,0.94,89.7,M,53.8,M,,*7D
120 08 12 10 4333.6985700128.7272490.0 00128.72724 90.0  1101100101 1011100101 1011001101 10001010000 10000010110 111111111111 1100100111 10111100111 10000111010 1101101001 1110011100 111001011 11100000000 1111110100 111111111111 111111111111 111111111111 1100110 24.625 57.107 1002.8 121498 18 14 15 60 51 3 $GNGGA,081210.00,4333.69857,N,00128.72724,E,1,07,1.03,90.0,M,53.8,M,,*77
121 08 12 11 4333.6992300128.7270690.2 00128.72706 90.2  1101100101 1011011110 1011001011 10001010000 10000010101 111111111111 1100101100 10111011101 10000111000 1101101111 1100001010 101100101 11000000000 1111000111 111111111111 111111111111 111111111111 1100111 24.625 57.038 1002.8 122502 17 16 15 59 52 3 $GNGGA,081211.00,4333.69923,N,00128.72706,E,1,08,1.03,90.2,M,53.8,M,,*79
122 08 12 12 4333.6997800128.7274589.0 00128.72745 89.0  1101100101 1011101110 1011001000 10001010010 10000010011 111111111111 1100101001 10111001110 10000110101 1101111010 1101001100 1001000101 10110100110 10000100100 11 1101010 111111111111 1100110 24.625 56.954 1002.8 123500 17 14 15 59 51 4 $GNGGA,081212.00,4333.69978,N,00128.72745,E,1,08,1.03,89.0,M,53.8,M,,*79
123 08 12 13 4333.7000500128.7277488.9 00128.72774 88.9  1101100100 1100110101 1011001011 10010010001 10000010001 111111111111 1100101011 10111000000 10000101010 1101111001 1100100000 1010011010 10100011110 10000111010 11 1101010 111111111111 1100110 24.625 56.817 1002.8 124499 17 15 16 59 51 3 $GNGGA,081213.00,4333.70005,N,00128.72774,E,1,07,1.66,88.9,M,53.8,M,,*75
124 08 12 14 4333.7001900128.7279989.0 00128.72799 89.0  1101100101 1101111010 1011001101 10010101101 10000011000 111111111111 1100101000 10110111100 10000101011 1101101110 1110110010 1010111100 10110100111 10000111011 11 1101011 111111111111 1100110 24.625 56.626 1002.8 125498 18 15 15 60 50 4 $GNGGA,081214.00,4333.70019,N,00128.72799,E,1,07,1.66,89.0,M,53.8,M,,*74
125 08 12 15 4333.7005600128.7274688.8 00128.72746 88.8  1101100100 1101110101 1011001100 10010110101 10000010110 111111111111 1100100001 10110101110 10000100000 1101101110 10000001010 1011001101 10010001011 10001000000 11 1100111 111111111111 1100111 24.625 56.473 1002.8 126496 17 14 16 58 51 4 $GNGGA,081215.00,4333.70056,N,00128.72746,E,1,07,1.66,88.8,M,53.8,M,,*75
126 08 12 16 4333.7008900128.7278089.0 00128.72780 89.0  1101100101 1101000011 1011010001 10010010100 10000010100 111111111111 1100100110 10110101011 10000100101 1101101110 1110110000 1011010011 1101000101 10000111101 10101101111 10010000110 111111111111 1100110 24.625 56.412 1002.8 127498 16 15 15 59 52 4 $GNGGA,081216.00,4333.70089,N,00128.72780,E,1,09,0.96,89.0,M,53.8,M,,*77
127 08 12 17 4333.7015100128.7281488.5 00128.72814 88.5  1101100101 1100101100 1011010000 10001111100 10000010110 111111111111 1100100011 10110100011 10000101000 1101101110 1100100101 1011011111 1011100001 10001001001 10011110101 1111000111 111111111111 1100110 24.625 56.412 1002.8 128496 18 14 15 59 51 4 $GNGGA,081217.00,4333.70151,N,00128.72814,E,1,09,0.96,88.5,M,53.8,M,,*74
128 08 12 18 4333.7019300128.7283487.8 00128.72834 87.8  1101100101 1100011110 1011001110 10001101101 10000010100 111111111111 1100100000 10110100000 10000100000 1101101101 1011000010 1011101000 1011010011 10001000000 10011000111 1101100001 111111111111 1100111 24.625 56.443 1002.8 129496 17 15 15 59 51 5 $GNGGA,081218.00,4333.70193,N,00128.72834,E,1,09,0.96,87.8,M,53.8,M,,*75
129 08 12 19 4333.7018400128.7279387.5 00128.72793 87.5  1101100100 1011001100 1011001101 10001000000 10000010110 111111111111 1100101000 10110010101 10000100001 1101101101 1001111010 1011011110 1011100001 10001000101 10001011001 1101110101 111111111111 1100110 24.625 56.550 1002.8 130488 18 15 15 59 52 4 $GNGGA,081219.00,4333.70184,N,00128.72793,E,1,08,0.96,87.5,M,53.8,M,,*7C
130 08 12 20 4333.7020000128.7281387.2 00128.72813 87.2  1101100100 1011000110 1011001011 10000101110 10000010100 111111111111 1100100101 10110010000 10000011000 1101101101 1010110110 1100001111 1010100100 10001010001 100110000010 11110110011 111111111111 1100110 24.625 56.740 1002.8 131485 18 15 15 60 50 4 $GNGGA,081220.00,4333.70200,N,00128.72813,E,1,08,0.96,87.2,M,53.8,M,,*79
131 08 12 21 4333.7021600128.7283187.8 00128.72831 87.8  1101100101 1011010100 1011001110 10001000010 10000010011 111111111111 1100100000 10110001001 10000011001 1101101101 1000110011 1000100010 110010100 10000110100 10001011111 1101010101 111111111111 1100110 24.625 56.885 1002.8 132485 17 15 15 59 50 5 $GNGGA,081221.00,4333.70216,N,00128.72831,E,1,07,1.57,87.8,M,53.8,M,,*76
132 08 12 22 4333.7022200128.7285587.8 00128.72855 87.8  1101100101 1011001101 1011010010 10001000101 10000011110 111111111111 1100011100 10101101100 1111111101 1101101101 1001100100 1011001110 1001000001 10000100011 10000000111 1011010101 111111111111 1100111 24.625 56.962 1002.8 133484 18 14 15 59 51 4 $GNGGA,081222.00,4333.70222,N,00128.72855,E,1,07,1.57,87.8,M,53.8,M,,*70
133 08 12 23 4333.7024300128.7286388.1 00128.72863 88.1  1101100100 1011000100 1011001110 10000111110 10000011000 111111111111 1100010110 10101101101 1111111101 1101101101 1100110001 1011011111 1011010101 10000101000 11111101110 11010111110 111111111111 1100111 24.625 57.015 1002.8 134484 17 15 16 59 51 3 $GNGGA,081223.00,4333.70243,N,00128.72863,E,1,08,0.96,88.1,M,53.8,M,,*76
134 08 12 24 4333.7023500128.7292488.0 00128.72924 88.0  1101100100 1011011100 1011010000 10001001010 10000011000 111111111111 1100100100 10110000100 10000101100 1101101101 1010100010 1011100100 1100100110 10000111000 100010111000 11110000100 111111111111 1100111 24.625 57.000 1002.8 135483 18 15 15 60 51 3 $GNGGA,081224.00,4333.70235,N,00128.72924,E,1,07,1.57,88.0,M,53.8,M,,*70
135 08 12 25 4333.7025900128.7296888.4 00128.72968 88.4  1101100101 1011101110 1011010000 10001011110 10000010011 111111111111 1100010011 10101111111 10000101110 1101101101 1001110110 1011101111 1100111101 10000111011 100101011101 100000011000 111111111111 1100111 24.625 56.893 1002.8 136481 17 14 16 59 50 4 $GNGGA,081225.00,4333.70259,N,00128.72968,E,1,07,1.57,88.4,M,53.8,M,,*77
136 08 12 26 4333.7026200128.7301888.7 00128.73018 88.7  1101100101 1011110110 1011001110 10001011101 10000010001 111111111111 1100011010 10101110000 10000100010 1101101101 1001101100 1011101101 1101010101 10000111011 100110111011 100001101110 111111111111 1100111 24.625 56.748 1002.8 137481 17 16 15 59 51 4 $GNGGA,081226.00,4333.70262,N,00128.73018,E,1,07,1.57,88.7,M,53.8,M,,*70
137 08 12 27 4333.7025000128.7308788.3 00128.73087 88.3  1101100100 1011100111 1011010001 10001011010 10000010101 111111111111 1100011010 10101101010 10000011111 1101101100 1001111000 1011101010 1110001110 10001000000 100111101001 100010011101 111111111111 1100111 24.625 56.687 1002.8 138478 18 15 15 60 51 3 $GNGGA,081227.00,4333.70250,N,00128.73087,E,1,07,1.57,88.3,M,53.8,M,,*72
138 08 12 28 4333.7027000128.7321787.6 00128.73217 87.6  1101100100 1011010011 1011010000 10001010111 10000010111 111111111111 1100010101 10101011010 10000010011 1101101100 1001110111 1011101011 1110000011 10001000010 101000010100 100011000111 111111111111 1100111 24.625 56.565 1002.8 139478 17 15 16 58 51 4 $GNGGA,081228.00,4333.70270,N,00128.73217,E,1,06,1.81,87.6,M,53.8,M,,*74
139 08 12 29 4333.7027000128.7323988.1 00128.73239 88.1  1101100101 1011000010 1011010000 10001000110 10000010000 111111111111 1100011000 10101010000 10000001110 1101101100 1010000010 1011110010 1101110100 10001000011 101000111010 100011011011 111111111111 1100111 24.625 56.290 1002.8 140477 18 14 15 59 51 4 $GNGGA,081229.00,4333.70270,N,00128.73239,E,1,07,1.57,88.1,M,53.8,M,,*7B
140 08 12 30 4333.7028600128.7328788.5 00128.73287 88.5  1101100100 1010111011 1011010110 10001000011 10000010101 111111111111 1100010101 10101010001 10000001111 1101101100 1010000000 1011101111 1101011111 10001000100 101001000111 100011100011 111111111111 1100111 24.625 56.046 1002.8 141476 17 15 16 59 51 3 $GNGGA,081230.00,4333.70286,N,00128.73287,E,1,07,1.57,88.5,M,53.8,M,,*7B
141 08 12 31 4333.7028900128.7327989.3 00128.73279 89.3  1101100100 1011000010 1011010000 10001000011 10000010111 111111111111 1100010100 10101001011 10000000101 1101101100 1001111111 1011110100 1101100011 10001000001 101001001010 100011101110 111111111111 1100111 24.625 55.901 1002.8 142474 17 15 15 58 52 4 $GNGGA,081231.00,4333.70289,N,00128.73279,E,1,07,1.57,89.3,M,53.8,M,,*73
142 08 12 32 4333.7030800128.7333489.8 00128.73334 89.8  1101100100 1011010001 1011010011 10001000001 10000010100 111111111111 1100010010 10100111111 1111111111 1101101100 1010000010 1011110010 1101100110 10001000010 101000111110 100011100110 111111111111 1100111 24.625 55.817 1002.8 143474 18 14 15 60 51 3 $GNGGA,081232.00,4333.70308,N,00128.73334,E,1,07,1.57,89.8,M,53.8,M,,*7B
143 08 12 33 4333.7031600128.7337390.3 00128.73373 90.3  1101100101 1011010101 1011010011 10001001010 10000011000 111111111111 1100001100 10101000100 10000000011 1101101100 1010000110 1011110001 1101111111 10000111111 101000110010 100011100100 111111111111 1100111 24.625 55.756 1002.8 144473 17 15 15 58 51 5 $GNGGA,081233.00,4333.70316,N,00128.73373,E,1,06,1.69,90.3,M,53.8,M,,*79
144 08 12 34 4333.7030100128.7339189.7 00128.73391 89.7  1101100100 1011010101 1011010011 10001000111 10000010100 111111111111 1100001100 10100111011 1111111101 1101101100 1010001001 1011110000 1110001011 10000111100 101000101010 100011011110 111111111111 1100111 24.625 55.733 1002.8 145471 18 14 15 60 50 4 $GNGGA,081234.00,4333.70301,N,00128.73391,E,1,05,1.95,89.7,M,53.8,M,,*78
145 08 12 35 4333.7030600128.7337090.1 00128.73370 90.1  1101100101 1011011001 1011010100 10001001010 10000010111 111111111111 1100000111 10100110100 1111110110 1101101100 1010010011 1011101110 1110011110 10001000000 101000011111 100011011101 111111111111 1100111 24.625 55.703 1002.8 146471 17 15 16 59 50 4 $GNGGA,081235.00,4333.70306,N,00128.73370,E,1,06,1.69,90.1,M,53.8,M,,*7F
146 08 12 36 4333.7031200128.7335591.0 00128.73355 91.0  1101100101 1011011010 1011010100 10001001010 10000010101 111111111111 1100000000 10100110000 1111111101 1101101100 1010010101 1011110011 1110101111 10001000011 101000010100 100011001111 111111111111 1100111 24.625 55.703 1002.8 147470 18 14 15 60 50 4 $GNGGA,081236.00,4333.70312,N,00128.73355,E,1,07,1.57,91.0,M,53.8,M,,*72
147 08 12 37 4333.7024400128.7326993.5 00128.73269 93.5  1101100101 1011011100 1011010100 10001001100 10000010011 111111111111 1100000100 10100101100 1111111001 1101101100 1010011111 1011101111 1110100010 10000111101 101000010100 100011001010 111111111111 1100111 24.625 55.726 1002.8 148471 17 14 16 58 51 4 $GNGGA,081237.00,4333.70244,N,00128.73269,E,1,08,1.08,93.5,M,53.8,M,,*7D
148 08 12 38 4333.7026000128.7330594.3 00128.73305 94.3  1101100101 1011011000 1011010001 10001001100 10000010100 111111111111 1011110010 10100101010 1111110110 1101101100 1010011111 1011110001 1110011010 10001000001 101000000111 100011000011 111111111111 1100111 24.625 55.718 1002.8 149467 17 15 15 59 51 4 $GNGGA,081238.00,4333.70260,N,00128.73305,E,1,06,1.69,94.3,M,53.8,M,,*77
149 08 12 39 4333.7027400128.7336793.7 00128.73367 93.7  1101100101 1011011100 1011010011 10001001101 10000010110 111111111111 1011110111 10100100100 1111111001 1101101100 1010100011 1011110010 1110011010 10000111100 100111111010 100010111001 111111111111 1100110 24.625 55.687 1002.8 150466 18 14 15 60 50 4 $GNGGA,081239.00,4333.70274,N,00128.73367,E,1,05,1.95,93.7,M,53.8,M,,*74
150 08 12 40 4333.7029500128.7339893.9 00128.73398 93.9  1101100101 1011011110 1011010100 10001001100 10000010011 111111111111 1011111000 10100010111 1111101011 1101101100 1010100110 1011110101 1110100011 10000111110 100111110100 100010110010 111111111111 1100110 24.625 55.649 1002.8 151465 17 14 16 59 50 4 $GNGGA,081240.00,4333.70295,N,00128.73398,E,1,06,1.82,93.9,M,53.8,M,,*7E
151 08 12 41 4333.7031000128.7340594.0 00128.73405 94.0  1101100101 1011011111 1011010010 10001001111 10000010101 111111111111 1011111110 10100010110 1111110100 1101101100 1010101000 1011110110 1110100111 10001000001 100111101011 100010101011 111111111111 1100110 24.625 55.626 1002.8 152465 18 14 15 60 50 4 $GNGGA,081241.00,4333.70310,N,00128.73405,E,1,06,1.82,94.0,M,53.8,M,,*7E
152 08 12 42 4333.7030000128.7337593.8 00128.73375 93.8  1101100100 1011011111 1011010010 10001010011 10000011000 111111111111 1011111110 10100010111 1111110010 1101101100 1010101110 1011110111 1110101011 10000111111 100111011101 100010100000 111111111111 1100110 24.625 55.596 1002.8 153464 17 14 16 59 51 4 $GNGGA,081242.00,4333.70300,N,00128.73375,E,1,06,1.82,93.8,M,53.8,M,,*73
153 08 12 43 4333.7027400128.7334293.2 00128.73342 93.2  1101100101 1011100010 1011010100 10001010001 10000010101 111111111111 1011110101 10100001001 1111110011 1101101011 1010111100 1011110101 1111000000 10001000010 100111010111 100010011010 111111111111 1100110 24.625 55.565 1002.8 154463 17 16 15 59 51 4 $GNGGA,081243.00,4333.70274,N,00128.73342,E,1,06,1.82,93.2,M,53.8,M,,*7E
154 08 12 44 4333.7027600128.7335593.0 00128.73355 93.0  1101100100 1011101010 1011010011 10001010110 10000011010 111111111111 1011110111 10100001011 1111110000 1101101100 1011000100 1011110110 1111010100 10001000010 100111001000 100010010110 111111111111 1100101 24.625 55.558 1002.8 155462 18 15 15 60 51 3 $GNGGA,081244.00,4333.70276,N,00128.73355,E,1,05,1.96,93.0,M,53.8,M,,*79
155 08 12 45 4333.7028300128.7338792.4 00128.73387 92.4  1101100011 1011110100 1011010000 10001011110 10000011001 111111111111 1011101010 10100000011 1111101011 1101101011 1011000110 1011110111 1111010111 10001000001 100110111100 100010001110 111111111111 1100101 24.625 55.565 1002.8 156461 17 15 15 58 51 5 $GNGGA,081245.00,4333.70283,N,00128.73387,E,1,05,1.96,92.4,M,53.8,M,,*78
156 08 12 46 4333.7028000128.7334892.2 00128.73348 92.2  1101100101 1011110101 1011010101 10001011011 10000010110 111111111111 1011100100 10011111101 1111101101 1101101011 1011000111 1011111000 1111100011 10001000000 100110110011 100010000101 111111111111 1100101 24.625 55.558 1002.8 157459 18 14 15 59 51 4 $GNGGA,081246.00,4333.70280,N,00128.73348,E,1,05,1.96,92.2,M,53.8,M,,*7D
157 08 12 47 4333.7029400128.7337891.8 00128.73378 91.8  1101100101 1011110000 1011010100 10001011000 10000010100 111111111111 1011011011 10011111101 1111101011 1101101011 1011001010 1011110010 1111100100 10000111110 100110100111 100001111010 111111111111 1100101 24.625 55.565 1002.8 158458 17 15 16 59 51 3 $GNGGA,081247.00,4333.70294,N,00128.73378,E,1,05,1.96,91.8,M,53.8,M,,*73
158 08 12 48 4333.7028300128.7340091.0 00128.73400 91.0  1101100100 1011101100 1011010011 10001011011 10000011000 111111111111 1011001011 10011101111 1111100010 1101101100 1011001001 1011110100 1111100110 10001000001 100110011111 100001101111 111111111111 1100101 24.625 55.581 1002.8 159457 18 15 15 59 51 4 $GNGGA,081248.00,4333.70283,N,00128.73400,E,1,05,1.96,91.0,M,53.8,M,,*7A
159 08 12 49 4333.7030800128.7350390.4 00128.73503 90.4  1101100100 1011100110 1011010110 10001011000 10000011010 111111111111 1010110110 10011101111 1111100001 1101101011 1011000100 1011110101 1111100111 10001000011 100110011100 100001110010 111111111111 1100101 24.625 55.604 1002.8 160454 18 14 15 59 51 4 $GNGGA,081249.00,4333.70308,N,00128.73503,E,1,05,1.96,90.4,M,53.8,M,,*7E
