id HH MM SS longitude latitude altitude adc_1_ch0_Temperature adc_1_ch1 adc_1_ch2 adc_1_ch3 adc_1_ch4 adc_1_ch5 adc_1_ch6 adc_1_ch7 adc_1_ch8 adc_2_ch0_Temperature adc_2_ch1 adc_2_ch2 adc_2_ch3 adc_2_ch4 adc_2_ch5 adc_2_ch6 adc_2_ch7 adc_2_ch8 temp hum pres t_prog t_gps t_split t_adc t_temp t_hum t_pres trame_gga
1 08 13 53 Nan Nan Nan 1101100101 11 1101010 11 1100100 111111111111 100110100011 101011011001 101000111010 1101101100 11 1101000 11 1101000 111111111111 111111111111 111111111111 1101011 24.625 56.069 795.83 4136 16 7 13 59 50 4 $GNGGA,081353.00,,,,,0,00,99.9,,,,,,*4D
2 08 13 54 Nan Nan Nan 1101100101 11 1101001 100100110 1101000 111111111111 100011000001 100110011010 100010000001 1101101100 10011 1100101 11 1100100 111111111111 111111111111 111111111111 1101011 24.625 55.909 1002.8 5288 17 6 13 59 50 4 $GNGGA,081354.00,,,,,0,00,99.9,,,,,,*4A
3 08 13 55 Nan Nan Nan 1101100101 11 1101000 111001110 11100001 111111111111 100000100100 100011010110 11110010001 1101101100 10110000 1100101 1110110 1111110 111111111111 111111111111 111111111111 1101011 24.625 55.810 1002.7 6135 17 7 13 58 51 4 $GNGGA,081355.00,,,,,0,00,99.9,,,,,,*4B
4 08 13 56 Nan Nan Nan 1101100101 100 1100110 1001010001 101111011 111111111111 11110000010 100000000111 11010100111 1101101100 100100111 10011011 100101001 100111111 111111111111 111111111111 111111111111 1101011 24.625 55.764 1002.7 7134 17 6 12 59 51 4 $GNGGA,081356.00,,,,,0,00,99.9,,,,,,*48
5 08 13 57 Nan Nan Nan 1101100101 1111000 1100101 1010101100 111101010 111111111111 11011110100 11101101110 10111111100 1101101100 101111001 100000010 110100011 111010111 111111111111 111111111111 111111111111 1101011 24.625 55.802 1002.8 8133 17 7 13 60 51 3 $GNGGA,081357.00,,,,,0,00,99.9,,,,,,*49
6 08 13 58 Nan Nan Nan 1101100100 11100111 1100100 1011101100 1000111110 111111111111 11001110101 11011100011 10101111111 1101101100 110110011 101010010 1000001101 1001000110 111111111111 111111111111 111111111111 1101011 24.625 55.916 1002.7 9133 17 8 12 59 50 5 $GNGGA,081358.00,,,,,0,00,99.9,,,,,,*46
7 08 13 59 Nan Nan Nan 1101100101 100110101 1100100 1100100011 1001111110 111111111111 11000000110 11001111011 10100010000 1101101100 111011101 110001101 1001011110 1010010100 111111111111 111111111111 111111111111 1101010 24.625 56.046 1002.7 10133 17 7 13 60 51 3 $GNGGA,081359.00,,,,,0,00,99.9,,,,,,*47
8 08 14 00 Nan Nan Nan 1101100100 101110100 10001111 1101001010 1010111000 111111111111 10110100010 11000001001 10010110010 1101101100 1000000100 111000010 1010100010 1011011000 111111111111 111111111111 111111111111 1101011 24.625 56.145 1002.7 11293 18 7 12 60 51 4 $GNGGA,081400.00,,,,,0,00,99.9,,,,,,*4C
9 08 14 01 Nan Nan Nan 1101100101 110011111 11000111 1101101000 1011011010 111111111111 10101001111 10111010000 10010000000 1101101100 1000011101 111011111 1011011101 1011111110 111111111111 111111111111 111111111111 1101011 24.625 56.191 1002.7 12133 18 7 12 60 51 4 $GNGGA,081401.00,,,,,0,00,99.9,,,,,,*4D
10 08 14 02 Nan Nan Nan 1101100101 111011010 100001011 1110001110 1011111101 111111111111 10100010100 10101111111 10001000100 1101101100 1000111001 111111010 1100000001 1100100000 111111111111 111110110110 111111111111 1101010 24.625 56.237 1002.7 13131 16 7 14 59 51 3 $GNGGA,081402.00,,,,,0,00,99.9,,,,,,*4E
11 08 14 03 Nan Nan Nan 1101100101 111111000 101000101 1110100001 1100010011 111111111111 10011000111 10101010010 10000101001 1101101100 1001001001 1000010001 1100011101 1100111111 111101001110 110110010001 111111111111 1101011 24.625 56.252 1002.7 14137 17 7 12 60 50 4 $GNGGA,081403.00,,,,,0,00,5.93,,,,,,*49
12 08 14 04 Nan Nan Nan 1101100101 1000001011 101110110 1110101110 1100101000 111111111111 10010000100 10100100011 10000001101 1101101100 1001010110 1000100110 1100110010 1101010100 110110101100 110000100010 111111111111 1101010 24.625 56.260 1002.7 15131 17 7 13 60 51 3 $GNGGA,081404.00,,,,,0,00,5.93,,,,,,*4E
13 08 14 05 Nan Nan Nan 1101100100 1000100111 110011100 1110111101 1101000001 111111111111 10001010010 10011111010 1111110001 1101101100 1001100111 1000111001 1101001111 1101100111 110010000111 101100100000 111111111111 1101011 24.625 56.260 1002.7 16137 16 7 13 59 52 3 $GNGGA,081405.00,,,,,0,00,5.93,,,,,,*4F
14 08 14 06 Nan Nan Nan 1101100101 1000111101 111000000 1111001100 1101001111 111111111111 10000101100 10011100011 1111100100 1101101100 1001101110 1001000110 1101100111 1101110111 101110111110 101001110010 111111111111 1101010 24.688 56.267 1002.7 17130 18 7 12 60 50 4 $GNGGA,081406.00,,,,,0,00,5.93,,,,,,*4C
15 08 14 07 Nan Nan Nan 1101100101 1001010011 111011110 1111100001 1101100101 111111111111 10000000100 10011000000 1111010010 1101101101 1001111010 1001010010 1101111100 1110001000 101100011110 100111100001 111111111111 1101010 24.625 56.244 1002.7 18132 16 7 14 59 51 3 $GNGGA,081407.00,,,,,0,00,5.92,,,,,,*4C
16 08 14 08 Nan Nan Nan 1101100101 1001101101 111110110 1111101100 1101110000 111111111111 1111100011 10010101011 1111001000 1101101100 1010000100 1001011110 1110001100 1110010110 101010101110 100101111010 111111111111 1101010 24.625 56.206 1002.8 19145 18 6 12 59 50 4 $GNGGA,081408.00,,,,,0,00,4.96,,,,,,*46
17 08 14 09 Nan Nan Nan 1101100101 1001110001 1000001000 1111110010 1101111101 111111111111 1110111110 10010011010 1111000000 1101101100 1010001010 1001101001 1110010111 1110011011 101001010011 100100101010 111111111111 1101010 24.688 56.138 1002.7 20132 17 7 13 59 50 4 $GNGGA,081409.00,,,,,0,00,4.79,,,,,,*46
18 08 14 10 Nan Nan Nan 1101100101 1001110111 1000011110 1111110111 1110000100 111111111111 1110100011 10010000110 1110110101 1101101100 1010001100 1001101011 1110100011 1110100110 101000000100 100011100111 111111111111 1101010 24.625 56.038 1002.7 21130 16 7 13 59 52 3 $GNGGA,081410.00,,,,,0,00,4.96,,,,,,*4F
19 08 14 11 Nan Nan Nan 1101100101 1001111111 1000110000 10000000010 1110010011 111111111111 1110001100 10001111011 1110101111 1101101100 1010011000 1001111000 1110110100 1110110010 100111001010 100010110001 111111111111 1101010 24.625 55.932 1002.7 22128 17 7 13 60 51 3 $GNGGA,081411.00,,,,,0,00,4.96,,,,,,*4E
20 08 14 12 Nan Nan Nan 1101100101 1010001000 1000111101 10000000011 1110011001 111111111111 1101101111 10001101010 1110100101 1101101100 1010100000 1010000000 1110111111 1110111011 100110011001 100010000110 111111111111 1101010 24.688 55.832 1002.7 23128 17 8 12 58 51 5 $GNGGA,081412.00,,,,,0,00,4.96,,,,,,*4D
21 08 14 13 Nan Nan Nan 1101100101 1010010100 1001001010 10000000111 1110011111 111111111111 1101100010 10001100001 1110101001 1101101100 1010110101 1010010001 10000010110 1111010010 100101100001 100001101101 111111111111 1101010 24.688 55.771 1002.7 24127 18 7 12 60 51 4 $GNGGA,081413.00,,,,,0,00,4.96,,,,,,*4C
22 08 14 14 Nan Nan Nan 1101100010 1011001000 1001010100 10000010101 1110101100 111111111111 1101010000 10001011101 1110100010 1101101100 1011111110 1010000000 10011011001 1111010100 100100000110 100000010010 111111111111 1101010 24.625 55.741 1002.7 25125 16 7 14 59 51 3 $GNGGA,081414.00,,,,,0,00,4.96,,,,,,*4B
23 08 14 15 Nan Nan Nan 1101100100 1010111010 1001011110 10000010101 1110110000 111111111111 1101000000 10001010000 1110011010 1101101101 10000011001 1010100110 100011011100 1110111000 100001110101 100001111001 111111111111 1101001 24.625 55.764 1002.7 26120 17 7 12 58 52 4 $GNGGA,081415.00,,,,,0,00,6.75,,,,,,*45
24 08 14 16 Nan Nan Nan 1101100101 1010100101 1001100101 10000011001 1110110111 111111001101 1100111101 10001001100 1110100001 1101110000 10011101111 1010001000 101101001000 1111101011 11100010110 100000011110 111111111111 1101001 24.625 55.878 1002.7 27119 18 7 12 60 50 4 $GNGGA,081416.00,,,,,0,00,6.75,,,,,,*46
25 08 14 17 Nan Nan Nan 1101100101 1010100110 1001101110 10000011001 1110111101 111101000111 1100101010 10001000001 1110011100 1101110000 10010100101 1010100010 100010011001 1111101011 11101010101 11111100001 111111111111 1101001 24.625 56.168 1002.7 28121 16 8 13 59 51 4 $GNGGA,081417.00,,,,,0,00,6.75,,,,,,*47
26 08 14 18 Nan Nan Nan 1101100101 1010110000 1001110100 10000100101 1111000010 111011100001 1100100111 10000111101 1110010111 1101110000 10000100000 1010101011 11011000111 1111101100 11110011011 11110001100 111111111111 1101000 24.625 56.481 1002.7 29122 18 7 12 59 51 4 $GNGGA,081418.00,,,,,0,00,6.75,,,,,,*48
27 08 14 19 Nan Nan Nan 1101100100 1011010001 1001111010 10000110010 1111001010 111001111000 1100011100 10000111011 1110011101 1101110000 10001111000 1011000000 100100001101 1111101010 11111100000 11110100001 111111111111 1101000 24.625 56.534 1002.7 30121 17 7 13 59 51 4 $GNGGA,081419.00,,,,,0,00,6.75,,,,,,*49
28 08 14 20 Nan Nan Nan 1101100101 1011010011 1001111111 10000101111 1111001010 111000010110 1100011001 10000110110 1110011110 1101110010 10011100100 1010000001 101001100110 10000000000 11110100010 11110110000 111111111111 1100100 24.625 56.344 1002.7 31116 17 7 12 58 52 4 $GNGGA,081420.00,,,,,0,00,6.75,,,,,,*43
29 08 14 21 Nan Nan Nan 1101100100 1011000110 1010000101 10000101011 1111001110 110111001000 1100010001 10000110100 1110010000 1101110010 10011100001 1010111110 100010100010 10000000011 11111001110 11101111010 111111111111 1100110 24.625 56.222 1002.7 32115 18 7 13 60 51 3 $GNGGA,081421.00,,,,,0,00,4.96,,,,,,*4D
30 08 14 22 Nan Nan Nan 1101100100 1010110110 1010001010 10000101001 1111010101 110101101110 1100000111 10000110111 1110010110 1101110010 10001011110 1010110111 11100010000 10000000110 100001001000 11110001100 111111111111 1101010 24.625 56.145 1002.7 33115 17 8 12 58 51 5 $GNGGA,081422.00,,,,,0,00,4.96,,,,,,*4E
31 08 14 23 Nan Nan Nan 1101100100 1010110011 1010001111 10000101000 1111011001 110100100111 1100001001 10000110010 1110011100 1101110010 1111000110 1010111101 10110010111 1111111111 100001110111 11110011011 111111111111 10001010 24.625 56.069 1002.7 34114 18 7 12 59 51 4 $GNGGA,081423.00,,,,,0,00,4.95,,,,,,*4C
32 08 14 24 Nan Nan Nan 1101100101 1010111001 1010001111 10000101000 1111011101 110011100110 1011111010 10000101001 1110010001 1101110010 1100010000 1010111011 10001011101 10000001101 100001110100 11101110001 111111111111 10110110 24.625 55.993 1002.7 35113 17 7 14 59 51 3 $GNGGA,081424.00,,,,,0,00,4.95,,,,,,*4B
33 08 14 25 Nan Nan Nan 1101100101 1011000100 1010010110 10000101111 1111100000 110010100010 1011111001 10000100011 1110010010 1101110010 1011010011 1010111110 1111010000 10000001010 100010010111 11101111111 111111111111 11101001 24.625 55.939 1002.7 36112 18 7 12 59 51 4 $GNGGA,081425.00,,,,,0,00,4.95,,,,,,*4A
34 08 14 26 Nan Nan Nan 1101100101 1011000111 1010011010 10000101101 1111100010 110001011111 1011101101 10000100010 1110001011 1101110001 1010111001 1010111110 1110110000 10000001101 100010011111 11101110001 111111111111 100001111 24.625 55.932 1002.7 37110 17 7 13 59 50 4 $GNGGA,081426.00,,,,,0,00,4.95,,,,,,*49
35 08 14 27 Nan Nan Nan 1101100100 1011000101 1010011011 10000110000 1111100110 110000101001 1011110101 10000101010 1110001100 1101110001 1010101111 1011000101 1110011011 10000001111 100010100110 11101101101 111111111111 100110111 24.625 55.947 1002.7 38114 16 7 13 59 52 3 $GNGGA,081427.00,,,,,0,00,2.21,,,,,,*41
36 08 14 28 Nan Nan Nan 1101100100 1011001011 1010011111 10000110101 1111101001 101111111101 1011110001 10000100100 1110001011 1101110001 1011111101 1011000110 1101111101 10000010010 100010100100 11101001011 111111111111 101010111 24.625 56.046 1002.7 39110 18 7 12 60 50 4 $GNGGA,081428.00,,,,,0,00,2.21,,,,,,*4E
37 08 14 29 4333.6907100128.74061148.1 00128.74061 148.1 1101100101 1011001010 1010100001 10000110111 1111101000 101111001111 1011101011 10000011100 1110001011 1101110001 1011101010 1011001010 1011011001 10000001110 100011010000 11101010001 111111111111 101111001 24.625 56.191 1002.7 40122 18 14 15 60 50 4 $GNGGA,081429.00,4333.69071,N,00128.74061,E,1,05,2.21,148.1,M,53.8,M,,*43
38 08 14 30 4333.6905200128.74042146.2 00128.74042 146.2 1101100100 1011001101 1010100001 10000111001 1111101110 101110100001 1011101000 10000011110 1110001011 1101110000 1011110011 1011001011 1010011100 10000010000 100011001110 11101000010 111111111111 110011010 24.625 56.298 1002.7 41122 17 15 16 59 51 3 $GNGGA,081430.00,4333.69052,N,00128.74042,E,1,05,2.21,146.2,M,53.8,M,,*46
39 08 14 31 4333.6905000128.74111146.7 00128.74111 146.7 1101100100 1011010011 1010100101 10000111010 1111101110 101101111010 1011101110 10000011011 1110000111 1101101111 1100111000 1011001111 1001010000 10000010100 100010110010 11100110100 111111111111 110101011 24.625 56.374 1002.7 42123 17 15 15 59 51 4 $GNGGA,081431.00,4333.69050,N,00128.74111,E,1,05,2.21,146.7,M,53.8,M,,*47
40 08 14 32 4333.6905200128.74145147.3 00128.74145 147.3 1101100100 1011010010 1010101001 10001000000 1111110000 101101010010 1011100110 10000100000 1110001111 1101110000 1101010000 1011001111 1011011111 10000010111 100010100000 11100111000 111111111111 111000110 24.625 56.412 1002.7 43124 17 15 16 59 51 3 $GNGGA,081432.00,4333.69052,N,00128.74145,E,1,05,2.21,147.3,M,53.8,M,,*42
41 08 14 33 4333.6907300128.74171147.0 00128.74171 147.0 1101100101 1011010111 1010101010 10001000000 1111110101 101100101011 1011011111 10000010111 1110001001 1101110000 1101100000 1011001111 1111100111 10000011110 100110101000 11011011001 111111111111 111100110 24.625 56.420 1002.7 44121 17 16 15 59 51 4 $GNGGA,081433.00,4333.69073,N,00128.74171,E,1,05,2.21,147.0,M,53.8,M,,*44
42 08 14 34 4333.6907800128.74247146.6 00128.74247 146.6 1101100100 1011101101 1010101110 10001001001 1111110011 101100000101 1011011010 10000010100 1110000101 1101110011 1010100111 1011011001 10011001000 10000101001 101000011011 11100101010 111111111111 111110101 24.625 56.428 1002.7 45119 18 15 15 60 51 3 $GNGGA,081434.00,4333.69078,N,00128.74247,E,1,05,2.21,146.6,M,53.8,M,,*49
43 08 14 35 4333.6907900128.74308145.0 00128.74308 145.0 1101100101 1011101111 1010101101 10001010000 1111110111 101011100001 1011011110 10000010010 1110000100 1101110100 1100101000 1010111011 100001011111 10000010000 100100001001 11100101111 111111111111 111110111 24.688 56.428 1002.7 46117 17 14 16 58 51 4 $GNGGA,081435.00,4333.69079,N,00128.74308,E,1,06,2.07,145.0,M,53.8,M,,*41
44 08 14 36 4333.6912200128.74154144.2 00128.74154 144.2 1101100101 1011101110 1010110001 10001010001 1111111011 101011010011 1011101010 10000001101 1110000000 1101111000 1100110001 1011011111 11000111011 1101100000 100010011010 11100010001 111111111111 1000010010 24.625 56.382 1002.7 47117 18 15 15 59 51 4 $GNGGA,081436.00,4333.69122,N,00128.74154,E,1,06,2.07,144.2,M,53.8,M,,*45
45 08 14 37 4333.6913600128.74438140.2 00128.74438 140.2 1101100100 1011110001 1010110100 10001010001 1111111101 101010110011 1011100010 10000000110 1101111011 1101110011 1100001110 1011011001 10001001101 1101101011 100001010110 11011011101 111111111111 1000101110 24.625 56.283 1002.7 48118 17 14 16 58 51 4 $GNGGA,081437.00,4333.69136,N,00128.74438,E,1,07,1.75,140.2,M,53.8,M,,*4D
46 08 14 38 4333.6909800128.74433139.5 00128.74433 139.5 1101100100 1011101111 1010110010 10001010001 1111111011 101010011010 1011100111 10000001010 1110000101 1101110001 1010110100 1011100000 1010011011 1011101110 100010011001 11011110010 111111111111 1000111111 24.625 56.160 1002.7 49117 16 16 16 59 52 3 $GNGGA,081438.00,4333.69098,N,00128.74433,E,1,06,2.07,139.5,M,53.8,M,,*42
47 08 14 39 4333.6915000128.74534136.4 00128.74534 136.4 1101100101 1011101011 1010110110 10001001110 1111111100 101010000101 1011100110 10000001101 1110001000 1101110010 1001111010 1011011010 1101110000 1010101010 100110001111 11101011011 111111111111 1001001100 24.688 56.107 1002.7 50112 18 14 15 59 51 4 $GNGGA,081439.00,4333.69150,N,00128.74534,E,1,07,1.75,136.4,M,53.8,M,,*49
48 08 14 40 4333.6915000128.74582136.4 00128.74582 136.4 1101100100 1011011101 1010110111 10001000110 1111111100 101001101101 1011101000 10000001100 1110000011 1101111010 1010101000 1011011100 1110100000 1000101011 101110100100 11101111111 111111111111 1001011110 24.688 56.038 1002.7 51110 17 14 16 58 51 4 $GNGGA,081440.00,4333.69150,N,00128.74582,E,1,06,2.07,136.4,M,53.8,M,,*4D
49 08 14 41 4333.6915800128.74626135.6 00128.74626 135.6 1101100100 1011011110 1010111010 10001000001 1111111101 101001010011 1011100011 10000000110 1101111011 1101110011 1010111111 1011011011 10001011001 1010011010 101101011010 11110000100 111111111111 1001110100 24.625 56.000 1002.7 52110 18 14 15 59 52 4 $GNGGA,081441.00,4333.69158,N,00128.74626,E,1,06,2.07,135.6,M,53.8,M,,*48
50 08 14 42 4333.6914300128.74610135.2 00128.74610 135.2 1101100100 1011011111 1010111010 10001000000 1111111101 101001000001 1011100100 10000000100 1101111111 1101110011 1011110011 1011100010 10001000101 1001001001 101110000111 11101101110 111111111111 1001111100 24.688 56.016 1002.7 53109 17 14 16 58 51 4 $GNGGA,081442.00,4333.69143,N,00128.74610,E,1,06,2.07,135.2,M,53.8,M,,*40
51 08 14 43 4333.6918500128.74547134.9 00128.74547 134.9 1101100100 1011011110 1010111010 10001001001 10000000110 101000101000 1011011101 10000000111 1110000110 1101110010 1100001000 1011101001 10010110000 1111110010 111111111111 111111111111 111111111111 1001111111 24.625 56.237 1002.7 54106 17 16 15 59 51 5 $GNGGA,081443.00,4333.69185,N,00128.74547,E,1,06,2.07,134.9,M,53.8,M,,*40
52 08 14 44 4333.6918500128.74598134.7 00128.74598 134.7 1101100100 1011100011 1010111100 10001000101 10000000000 101000010111 1011100000 10000000011 1110000100 1101110011 1011110101 1011100010 1110100001 1110001110 111111111111 111111111111 111111111111 1010000111 24.625 56.435 1002.7 55106 18 14 15 60 50 4 $GNGGA,081444.00,4333.69185,N,00128.74598,E,1,06,2.07,134.7,M,53.8,M,,*4B
53 08 14 45 4333.6924200128.74560133.1 00128.74560 133.1 1101100100 1011100100 1010111110 10001001011 10000000010 101000000000 1011100001 10000001000 1110000100 1101110010 1011011011 1011100100 10010100011 1111001101 11 1101001 111111111111 1010011000 24.625 56.496 1002.7 56105 17 14 16 59 50 4 $GNGGA,081445.00,4333.69242,N,00128.74560,E,1,06,2.07,133.1,M,53.8,M,,*44
54 08 14 46 4333.6927800128.74532132.4 00128.74532 132.4 1101100100 1011011110 1010111110 10001001011 10000000110 100111110001 1011100000 10000000101 1110000010 1101110001 1100010111 1011101001 10100101001 1111101011 110000 1100101 111111111111 1010011100 24.688 56.611 1002.7 57103 18 14 15 60 50 4 $GNGGA,081446.00,4333.69278,N,00128.74532,E,1,06,2.07,132.4,M,53.8,M,,*4D
55 08 14 47 4333.6928100128.74545132.5 00128.74545 132.5 1101100100 1011100000 1010111100 10001001000 10000000100 100111011100 1011100001 10000000101 1110000000 1101110001 1011001110 1011100100 10100001100 10000100100 1101000110 1010101101 111111111111 1010100011 24.688 56.687 1002.7 58104 16 14 16 59 51 4 $GNGGA,081447.00,4333.69281,N,00128.74545,E,1,06,2.07,132.5,M,53.8,M,,*4B
56 08 14 48 4333.6925600128.74571133.8 00128.74571 133.8 1101100100 1011101010 1011000000 10001001001 10000000100 100111010011 1011100110 10000000010 1110000001 1101110110 1010011011 1011101001 10001111000 10000001100 10011000100 10000111110 111111111111 1001100010 24.688 56.740 1002.7 59106 18 16 15 59 51 4 $GNGGA,081448.00,4333.69256,N,00128.74571,E,1,07,1.83,133.8,M,53.8,M,,*4B
57 08 14 49 4333.6923700128.74743134.1 00128.74743 134.1 1101100100 1011101010 1011000000 10001001101 10000000110 100111000110 1011100101 10000000010 1101111111 1110001111 10001110000 1011011110 101001001010 10000111100 10010011011 10101100011 111111111111 1011010111 24.625 56.710 1002.7 60109 17 15 16 59 51 4 $GNGGA,081449.00,4333.69237,N,00128.74743,E,1,07,1.83,134.1,M,53.8,M,,*40
58 08 14 50 4333.6896800128.74673146.6 00128.74673 146.6 1101100100 1011101010 1011000000 10001001000 10000000100 100110111000 1011100110 10000001000 1101111110 1101100011 10100000010 1010110110 101001111111 10000100000 10100101101 10111110111 111111111111 1100000010 24.625 56.695 1002.7 61104 17 15 15 58 51 5 $GNGGA,081450.00,4333.68968,N,00128.74673,E,1,08,1.15,146.6,M,53.8,M,,*48
59 08 14 51 4333.6887000128.74486152.6 00128.74486 152.6 1101100100 1011101100 1011000010 10001001001 10000000101 100110101110 1011101010 1111111101 1101111011 1110010000 10011111000 1011111110 11110010011 10000110111 11000010100 11000101111 111111111111 1011010101 24.688 56.695 1002.7 62102 18 14 15 59 51 4 $GNGGA,081451.00,4333.68870,N,00128.74486,E,1,07,1.50,152.6,M,53.8,M,,*42
60 08 14 52 4333.6888000128.74438152.5 00128.74438 152.5 1101100100 1011110010 1011000010 10001010000 10000001001 100110010000 1011100100 1111111010 1110000010 1110010100 10001011011 1011111000 11000110001 10000100000 11011100101 11001110001 111111111111 1011001101 24.688 56.656 1002.7 63100 17 14 16 58 51 4 $GNGGA,081452.00,4333.68880,N,00128.74438,E,1,07,1.50,152.5,M,53.8,M,,*48
61 08 14 53 4333.6889500128.74412152.5 00128.74412 152.5 1101100100 1011100100 1011000100 10001001110 10000001010 100110001110 1011101000 1111111000 1101111100 1110000010 1110100011 1011101111 10011011000 10000011111 11101001010 11010010111 111111111111 1011000100 24.625 56.603 1002.7 64100 18 14 15 59 51 4 $GNGGA,081453.00,4333.68895,N,00128.74412,E,1,08,1.15,152.5,M,53.8,M,,*4B
62 08 14 54 4333.6886400128.74391151.8 00128.74391 151.8 1101100101 1011100101 1011000011 10001001011 10000000111 100101110111 1011100010 1111111010 1101110110 1110001001 1100111011 1011110110 10001000000 10000001110 11110000010 11010101010 111111111111 1011001111 24.625 56.542 1002.7 65099 17 15 16 59 51 3 $GNGGA,081454.00,4333.68864,N,00128.74391,E,1,08,1.15,151.8,M,53.8,M,,*40
63 08 14 55 4333.6879700128.74554153.0 00128.74554 153.0 1101100100 1011100010 1011000100 10001001110 10000001101 100101110100 1011100111 1111110110 1101110110 1110000001 1100000100 1011110000 10010100111 10000011111 11110000011 11010101110 111111111111 1011001000 24.625 56.466 1002.7 66098 17 16 15 59 52 3 $GNGGA,081455.00,4333.68797,N,00128.74554,E,1,08,1.15,153.0,M,53.8,M,,*47
64 08 14 56 4333.6871400128.74744154.6 00128.74744 154.6 1101100100 1011100110 1011000101 10001001010 10000001010 100101100101 1011101100 1111110110 1101111010 1101111111 1001010000 1011110000 1101111001 10000011001 11110001100 11010110001 111111111111 1011000110 24.625 56.405 1002.7 67098 18 14 15 60 51 4 $GNGGA,081456.00,4333.68714,N,00128.74744,E,1,08,1.15,154.6,M,53.8,M,,*4D
65 08 14 57 4333.6872800128.74713154.5 00128.74713 154.5 1101100100 1011101011 1011001000 10001001101 10000001011 100101011101 1011100100 1111110011 1101111100 1110000110 1000011010 1011110011 1110001110 10000110001 11110001010 11010110001 111111111111 1011000111 24.625 56.321 1002.7 68091 17 14 16 58 51 4 $GNGGA,081457.00,4333.68728,N,00128.74713,E,1,07,1.83,154.5,M,53.8,M,,*42
66 08 14 58 4333.6872400128.74751154.3 00128.74751 154.3 1101100101 1011101001 1011001000 10001001010 10000000111 100101010001 1011100011 1111110011 1101111000 1101101110 1000100000 1011110011 1101001111 10000010111 11110011110 11010111000 111111111111 1010111010 24.625 56.260 1002.7 69095 18 14 15 60 50 4 $GNGGA,081458.00,4333.68724,N,00128.74751,E,1,07,1.83,154.3,M,53.8,M,,*41
67 08 14 59 4333.6875500128.74722154.0 00128.74722 154.0 1101100100 1011101101 1011001000 10001010001 10000001010 100101010000 1011101010 1111110011 1101110011 1110000001 1000000011 1011110111 1001111000 10000001011 11111100010 11011000000 111111111111 1010111111 24.625 56.214 1002.7 70094 17 14 16 59 50 4 $GNGGA,081459.00,4333.68755,N,00128.74722,E,1,07,1.83,154.0,M,53.8,M,,*41
68 08 15 00 4333.6877300128.74813153.1 00128.74813 153.1 1101100100 1011101110 1011001010 10001010001 10000010000 100101000000 1011101000 1111101101 1101110110 1110000111 1001001100 1011110101 1101001010 10000010101 11111010100 11010110110 111111111111 1010101010 24.625 56.176 1002.7 71095 18 15 15 59 51 4 $GNGGA,081500.00,4333.68773,N,00128.74813,E,1,08,1.15,153.1,M,53.8,M,,*43
69 08 15 01 4333.6878600128.74801152.4 00128.74801 152.4 1101100100 1011101001 1011001000 10001010011 10000001101 100100111011 1011101011 1111111001 1101111000 1110001110 1000111100 1011110101 1100100001 10000010011 11110100111 11010111101 111111111111 1010101001 24.625 56.183 1002.7 72092 18 14 15 59 51 4 $GNGGA,081501.00,4333.68786,N,00128.74801,E,1,07,1.83,152.4,M,53.8,M,,*4F
70 08 15 02 4333.6872100128.74924152.9 00128.74924 152.9 1101100100 1011101011 1011001011 10001010110 10000010000 100100110001 1011101100 1111110001 1101110110 1110000001 1000101100 1011111110 1001101011 1111110000 11110110000 11010110000 111111111111 1010011100 24.625 56.206 1002.7 73092 17 16 15 59 51 4 $GNGGA,081502.00,4333.68721,N,00128.74924,E,1,07,1.83,152.9,M,53.8,M,,*4A
71 08 15 03 4333.6873900128.74946154.1 00128.74946 154.1 1101100101 1111101100 1011001011 10011111001 10000100000 100100011110 1011100011 1111111110 1110000000 1101111011 1000110011 1011110000 1101100000 10000100110 11111011010 11010011111 111111111111 1010010111 24.625 56.222 1002.7 74091 18 14 15 59 51 4 $GNGGA,081503.00,4333.68739,N,00128.74946,E,1,08,1.15,154.1,M,53.8,M,,*48
72 08 15 04 4333.6873200128.74955153.3 00128.74955 153.3 1101100100 10000111110 10000100101 11101101111 10000110011 100100100101 1011101100 1111010100 1101011001 1101110010 111000101 1011110100 1110010011 10000100111 11110101000 11010100100 111111111111 1010011101 24.625 56.191 1002.7 75091 17 15 16 59 50 4 $GNGGA,081504.00,4333.68732,N,00128.74955,E,1,08,1.15,153.3,M,53.8,M,,*43
73 08 15 05 4333.6869800128.75005153.7 00128.75005 153.7 1101100100 10011011000 1011100001 10110000111 10000101001 100100011110 1011110100 1111000011 100001000101 1101110010 100110000 1011100011 10101101001 10000101001 11110011011 11010110100 111111111111 1010011000 24.625 56.168 1002.7 76092 18 15 15 60 51 3 $GNGGA,081505.00,4333.68698,N,00128.75005,E,1,09,0.96,153.7,M,53.8,M,,*41
74 08 15 06 4333.6866300128.75051154.1 00128.75051 154.1 1101100100 10010111010 1011101101 10110011011 10000110000 100100010010 1011101000 1011110010 10011100111 1101110010 1100000011 1011110101 11001011010 10001000010 11110001110 11010110011 111111111111 1010010001 24.625 56.153 1002.7 77089 17 14 16 59 50 4 $GNGGA,081506.00,4333.68663,N,00128.75051,E,1,09,0.96,154.1,M,53.8,M,,*46
75 08 15 07 4333.6863800128.75176152.5 00128.75176 152.5 1101100101 10010010100 10111111001 10011100101 10000011000 100100001100 1011101010 1110000011 1110000101 1101110011 1101010000 1100000011 11011001100 10000110101 11101110101 11010100101 111111111111 1010001100 24.625 56.176 1002.7 78089 17 16 15 59 52 3 $GNGGA,081507.00,4333.68638,N,00128.75176,E,1,09,0.96,152.5,M,53.8,M,,*4F
76 08 15 08 4333.6863300128.75288151.5 00128.75288 151.5 1101100100 10010001000 11000101101 10011101100 10000011110 100100010100 1011110110 1101111010 1100001111 1101110011 1011111110 1011011011 10111100100 10001000111 11110000111 11010100100 111111111111 1010011010 24.625 56.244 1002.7 79083 18 14 15 59 51 4 $GNGGA,081508.00,4333.68633,N,00128.75288,E,1,09,0.96,151.5,M,53.8,M,,*4A
77 08 15 09 4333.6866400128.75289150.6 00128.75289 150.6 1101100100 10100110100 1011101100 10100001001 10000010110 100100000000 1011100010 1101101011 1011101101 1101110011 1011101110 1011110110 1101111111 10000111100 11111000101 11010000100 111111111111 1010010100 24.625 56.351 1002.7 80087 17 16 16 59 51 3 $GNGGA,081509.00,4333.68664,N,00128.75289,E,1,08,1.15,150.6,M,53.8,M,,*41
78 08 15 10 4333.6870100128.75183150.2 00128.75183 150.2 1101100100 10011110111 1011100110 10101100010 10000011011 100011000111 1010110001 1110001000 1100010010 1101110010 1010100011 1011111101 1010101101 10000110111 11111000101 11010001010 111111111111 1010011010 24.625 56.473 1002.7 81085 18 15 15 60 51 3 $GNGGA,081510.00,4333.68701,N,00128.75183,E,1,08,1.15,150.2,M,53.8,M,,*46
79 08 15 11 4333.6867500128.75172151.1 00128.75172 151.1 1101100101 1100000100 1011100000 10100111100 10000010110 100011110100 1100001111 1110100110 1101000101 1101110010 1001000111 1011111111 111101000 10000111101 11111001111 11010010001 111111111111 1010100101 24.625 56.588 1002.7 82084 17 15 16 59 51 3 $GNGGA,081511.00,4333.68675,N,00128.75172,E,1,09,0.96,151.1,M,53.8,M,,*42
80 08 15 12 4333.6871700128.75147150.0 00128.75147 150.0 1101100101 1010010111 1011100000 10101000010 10000011111 100011101010 1100010001 1110010101 1101100110 1101110001 1000100000 1011111011 111110010 10000111000 11111001010 11010010111 111111111111 1010100000 24.625 56.664 1002.7 83082 17 16 15 59 51 4 $GNGGA,081512.00,4333.68717,N,00128.75147,E,1,08,0.97,150.0,M,53.8,M,,*42
81 08 15 13 4333.6873700128.75145149.9 00128.75145 149.9 1101100101 1100011010 1011010110 10100000001 10000010111 100011001011 1100010110 1110000110 1101011100 1101110001 1000101010 1100000001 111111100 10000111001 11110111010 11010001110 111111111111 1010101000 24.625 56.717 1002.7 84082 17 14 16 60 50 4 $GNGGA,081513.00,4333.68737,N,00128.75145,E,1,09,0.96,149.9,M,53.8,M,,*42
82 08 15 14 4333.6875400128.75179150.0 00128.75179 150.0 1101100101 1100001001 1011100000 10010000110 10000011111 100011011000 1100111000 1111001111 1110101001 1101110001 1000111101 1011111011 1000101111 10000110101 11110111101 11010010101 111111111111 1010011100 24.688 56.679 1002.7 85082 17 15 15 58 51 5 $GNGGA,081514.00,4333.68754,N,00128.75179,E,1,09,0.96,150.0,M,53.8,M,,*4E
