id HH MM SS longitude latitude altitude adc_1_ch0_Temperature adc_1_ch1 adc_1_ch2 adc_1_ch3 adc_1_ch4 adc_1_ch5 adc_1_ch6 adc_1_ch7 adc_1_ch8 adc_2_ch0_Temperature adc_2_ch1 adc_2_ch2 adc_2_ch3 adc_2_ch4 adc_2_ch5 adc_2_ch6 adc_2_ch7 adc_2_ch8 temp hum pres t_prog t_gps t_split t_adc t_temp t_hum t_pres trame_gga
1 08 15 33 Nan Nan Nan 1101100101 11 1101010 11 1100110 111111111111 111111111111 111111111111 1101011 1101101111 11 1101001 11 1101010 111111111111 111111111111 111111111111 101001010000 24.625 55.512 795.83 3722 17 7 12 59 51 4 $GNGGA,081533.00,,,,,0,00,99.9,,,,,,*4D
2 08 15 34 Nan Nan Nan 1101100101 11 1101010 11001 1100011 111111111111 111111111111 111111111111 1101010 1101101111 11 1100111 11 1100111 111111111111 111111111111 111111111111 100101110001 24.625 55.527 1002.6 4718 17 7 13 60 51 3 $GNGGA,081534.00,,,,,0,00,99.9,,,,,,*4A
3 08 15 34 Nan Nan Nan 1101100101 11 1101001 11011101 1101100 111111011111 111010011 111111111111 1101010 1101101111 11 1100101 11 1100101 111111111111 111111111111 111111111111 100100010100 24.625 55.527 1002.6 5228 17 7 12 60 50 4 $GNGGA,081534.50,,,,,0,00,5.13,,,,,,*41
4 08 15 35 Nan Nan Nan 1101100101 11 1101001 101100010 10111001 111111111111 1110001000 111111111111 1101011 1101101111 1101001 1100101 11 1100100 111111111111 111111111111 111111111111 100010101111 24.625 55.558 1002.6 5724 16 8 12 59 52 4 $GNGGA,081535.00,,,,,0,00,5.10,,,,,,*46
5 08 15 36 Nan Nan Nan 1101100110 111110000 1100111 1111100000 101110010 111110100110 111011101 111111111111 1101010 1101101111 100010100 10000111 1100011 11110101 111111111111 111111111111 111111111111 100000000000 24.688 55.611 1002.7 6728 17 7 12 60 51 4 $GNGGA,081536.00,,,,,0,00,5.13,,,,,,*46
6 08 15 37 Nan Nan Nan 1101100110 1011000000 1100110 10011000011 111111010 111111111111 111111111111 111111111111 1101010 1101101110 110100011 11111110 110101110 110111001 111111111111 111111111111 111111111111 11101110011 24.688 55.695 1002.7 7718 17 7 13 59 51 3 $GNGGA,081537.00,,,,,0,00,99.9,,,,,,*49
7 08 15 38 Nan Nan Nan 1101100110 101010101 1100100 1111001000 1001010111 111110101101 1110111011 111111111111 1101001 1101101110 1000010110 101100010 1000100111 1001000011 111111111111 111111111111 111111111111 11011101000 24.688 55.779 1002.7 8721 18 7 12 60 51 4 $GNGGA,081538.00,,,,,0,00,99.9,,,,,,*46
8 08 15 39 Nan Nan Nan 1101100110 100111100 1100100 1101110101 1010100011 111010011000 1110011100 111111111111 1101001 1101101110 1000110101 110101000 1001101011 1010100010 111111111111 111111111111 111111111111 11001110111 24.688 55.871 1002.7 9723 17 7 13 59 51 3 $GNGGA,081539.00,,,,,0,00,12.2,,,,,,*4F
9 08 15 40 Nan Nan Nan 1101100111 1111100011 1110101 10100001110 1011011001 110111011011 110100101 111111111111 1101001 1101101110 1001001000 111100000 1010001001 1011101000 111111111111 111111111111 111111111111 11000001001 24.625 55.939 1002.7 10723 17 7 12 58 52 4 $GNGGA,081540.00,,,,,0,00,12.2,,,,,,*41
10 08 15 41 Nan Nan Nan 1101100110 1011101101 11000100 10011110001 1100000111 111000100010 100001111111 111111111111 1101010 1101101110 1001100001 1000000111 1010101101 1100100000 111111111111 111111111111 111111111111 10110100100 24.688 55.947 1002.7 11721 17 7 13 60 51 3 $GNGGA,081541.00,,,,,0,00,12.2,,,,,,*40
11 08 15 42 Nan Nan Nan 1101100110 111011000 100001110 1111000011 1100100011 110110011100 10110111110 111111111111 1101010 1101101110 1001101100 1000101011 1011010010 1101000011 111111111111 111011111000 111111111111 10101100001 24.625 55.932 1002.7 12736 18 7 13 60 51 3 $GNGGA,081542.00,,,,,0,00,4.53,,,,,,*40
12 08 15 43 Nan Nan Nan 1101100110 111111101 101001001 1110111000 1100111101 110100101100 10101101101 111111111111 1101010 1101101110 1001011100 1000111101 1011011000 1101100101 111000110101 110010011001 111111111111 10100001101 24.625 55.893 1002.7 13720 18 6 12 60 50 4 $GNGGA,081543.00,,,,,0,00,3.08,,,,,,*48
13 08 15 44 Nan Nan Nan 1101100110 111001100 101111111 1111001011 1101010000 110010011100 10011111000 111111111111 1101011 1101101110 1001100010 1001010101 1011101000 1110000001 110001100111 101011111101 111111111111 10011001011 24.625 55.840 1002.7 14722 16 8 14 59 51 3 $GNGGA,081544.00,,,,,0,00,4.53,,,,,,*46
14 08 15 45 Nan Nan Nan 1101100110 111000001 110101110 1110100100 1101101101 110000011101 10010100000 111111111111 1101010 1101101110 1001101110 1001100011 1100100110 1110001100 101100010101 101000111100 111111111111 10010011101 24.625 55.779 1002.7 15718 18 6 12 60 50 4 $GNGGA,081545.00,,,,,0,00,2.09,,,,,,*4E
15 08 15 46 Nan Nan Nan 1101100110 1000011110 111010011 1110011111 1101111011 101110101100 10001011001 111111111111 1101110 1101101110 1010110101 1010000010 1111100001 1110100100 101100100110 100111001000 111111111111 10001010101 24.625 55.687 1002.7 16717 17 7 13 59 50 4 $GNGGA,081546.00,,,,,0,00,1.76,,,,,,*46
16 08 15 47 Nan Nan Nan 1101100110 1010101101 111110110 1111100011 1110001000 101100111111 10000010101 111111111111 1101110 1101101110 1010101001 1010001001 1101101101 1110101110 100001100010 11110100001 111111111111 1100001010 24.625 55.611 1002.7 17716 17 7 12 58 52 4 $GNGGA,081547.00,,,,,0,00,1.76,,,,,,*47
17 08 15 48 Nan Nan Nan 1101100110 11001001111 1000001111 10011011001 1110011111 101011011100 1111010011 111111111111 1101011 1101101110 1100000111 1010000110 10111000100 1110110111 11110110100 11110111001 111111111111 1010001001 24.688 55.626 1002.7 18716 18 7 12 60 51 4 $GNGGA,081548.00,,,,,0,00,1.76,,,,,,*48
18 08 15 49 4333.7022400128.75065137.9 00128.75065 137.9 1101100110 11100110011 1000100110 10111000001 1110011100 101010011011 1110010100 111111111011 1110111101 1101101110 1101000100 1001111101 11001100100 1110111101 101001100000 101011111001 111111111111 1000110010 24.625 55.626 1002.7 19726 18 16 15 59 51 4 $GNGGA,081549.00,4333.70224,N,00128.75065,E,1,06,1.76,137.9,M,53.8,M,,*49
19 08 15 50 4333.7027800128.75138135.5 00128.75138 135.5 1101100110 1111101111 1000111111 10010101111 1110110111 101001010010 1101100111 111011111101 1101001 1101101110 1101010011 1010011101 10100110000 1111001110 11110101000 11110000001 111111111111 110000011 24.688 55.543 1002.7 20725 16 15 17 59 51 3 $GNGGA,081550.00,4333.70278,N,00128.75138,E,1,06,1.76,135.5,M,53.8,M,,*4F
20 08 15 51 4333.7023100128.75216137.0 00128.75216 137.0 1101100110 111010101 1001001010 1110001001 1110110011 101000011011 1101001010 111010100010 1101001 1101101110 1100010000 1010100101 10011101100 1111011010 11100101111 11010011100 111111111111 110010001 24.688 55.520 1002.7 21724 16 15 15 58 52 4 $GNGGA,081551.00,4333.70231,N,00128.75216,E,1,06,1.76,137.0,M,53.8,M,,*4B
21 08 15 52 4333.7024100128.75282137.2 00128.75282 137.2 1101100110 100010101 1001011100 1100110010 1110110110 100111001101 1100011010 110111100110 1101010 1101101110 1010011110 1010101011 1101010111 1111011101 11111000101 11011001101 111111111111 110110011 24.688 55.497 1002.7 22722 17 14 15 59 51 4 $GNGGA,081552.00,4333.70241,N,00128.75282,E,1,06,1.76,137.2,M,53.8,M,,*40
22 08 15 53 4333.7022500128.75151133.2 00128.75151 133.2 1101101001 101010110 1001100101 1100101011 1111000000 100110010011 1011111110 110110010101 1101010 1101101110 1001111101 1010110011 1100000000 1111100110 100000010010 11011100000 111111111111 111100001 24.625 55.489 1002.7 23723 17 16 16 59 51 3 $GNGGA,081553.00,4333.70225,N,00128.75151,E,1,07,1.64,133.2,M,53.8,M,,*48
23 08 15 54 4333.7020800128.75163131.8 00128.75163 131.8 1101100110 1000000101 1001101111 1111001100 1111000001 100101010011 1011011011 110011111111 1101001 1101101110 1010001000 1010110100 1100101000 1111101001 100000000010 11011100011 111111111111 111111111 24.625 55.459 1002.7 24720 18 14 15 60 50 4 $GNGGA,081554.00,4333.70208,N,00128.75163,E,1,07,1.64,131.8,M,53.8,M,,*49
24 08 15 55 4333.7015100128.75042129.9 00128.75042 129.9 1101100110 1000111110 1001111000 10000001110 1111001011 100100011110 1011000001 110010000100 1101001 1101101110 1010001110 1010111000 1100110111 1111110000 11111111001 11011100010 111111111111 1000000101 24.625 55.382 1002.7 25719 16 14 16 59 51 4 $GNGGA,081555.00,4333.70151,N,00128.75042,E,1,07,1.64,129.9,M,53.8,M,,*4D
25 08 15 56 4333.7013900128.74970127.8 00128.74970 127.8 1101100110 1000101110 1010000001 10000001110 1111010111 100011100110 1010101000 110000011010 1101000 1101101110 1010010101 1010111110 1101001011 1111110101 11111101101 11011010111 111111111111 1000010101 24.688 55.306 1002.7 26715 17 16 15 59 51 4 $GNGGA,081556.00,4333.70139,N,00128.74970,E,1,07,1.64,127.8,M,53.8,M,,*46
26 08 15 57 4333.7015300128.74884125.4 00128.74884 125.4 1101100110 1000011001 1010000111 1111110111 1111010111 100010101101 1010010010 101111000100 1101000 1101101110 1010010110 1011000011 1101011000 1111111010 11111100000 11011001001 111111111111 1000100000 24.688 55.275 1002.7 27716 18 14 15 60 50 4 $GNGGA,081557.00,4333.70153,N,00128.74884,E,1,07,1.64,125.4,M,53.8,M,,*4F
27 08 15 58 4333.7013100128.74886124.2 00128.74886 124.2 1101100110 1000101101 1010001100 1111101010 1111011011 100010001010 1010001100 101101101011 1101000 1101101110 1010011010 1011000011 1101101000 1111111101 11111010111 11011000011 111111111111 1000110101 24.625 55.291 1002.7 28716 17 16 16 59 51 3 $GNGGA,081558.00,4333.70131,N,00128.74886,E,1,07,1.64,124.2,M,53.8,M,,*41
28 08 15 59 4333.7011600128.74815124.6 00128.74815 124.6 1101100110 1000111111 1010010011 1111100001 1111011100 100001100001 1001110001 101100100110 1100111 1101101110 1010100100 1011000101 1101101100 10000000000 11111001101 11010111001 111111111111 1000101111 24.688 55.390 1002.7 29714 18 14 15 60 50 4 $GNGGA,081559.00,4333.70116,N,00128.74815,E,1,07,1.64,124.6,M,53.8,M,,*4B
29 08 16 00 4333.7016700128.74781118.9 00128.74781 118.9 1101100110 1000011000 1010011001 1111011111 1111100100 100001000110 1001101010 101011010101 1100111 1101101110 1010100111 1011001001 1110001010 10000000100 11110111010 11010100110 111111111111 1000110001 24.688 55.596 1002.7 30715 16 14 16 58 51 4 $GNGGA,081600.00,4333.70167,N,00128.74781,E,1,08,1.52,118.9,M,53.8,M,,*4A
30 08 16 01 4333.7018900128.74812115.2 00128.74812 115.2 1101100101 1000101101 1010011100 1111011110 1111100110 100000100111 1001100010 101010011011 1100111 1101101110 1010110000 1011001000 1110001111 10000001000 11110101010 11010011111 111111111111 1000110111 24.688 55.718 1002.7 31708 17 15 15 59 51 4 $GNGGA,081601.00,4333.70189,N,00128.74812,E,1,08,1.52,115.2,M,53.8,M,,*48
31 08 16 02 4333.7016900128.74775115.2 00128.74775 115.2 1101100110 1000111001 1010100001 1111100010 1111101001 100000001110 1001010111 101001100000 1100110 1101101110 1010111010 1011001111 1110100101 10000001100 11110010110 11010010010 111111111111 1000110011 24.688 55.703 1002.7 32713 16 15 16 60 51 4 $GNGGA,081602.00,4333.70169,N,00128.74775,E,1,08,1.52,115.2,M,53.8,M,,*4B
32 08 16 03 4333.7015800128.74806112.9 00128.74806 112.9 1101100110 1000111011 1010100100 1111101111 1111101000 11111111111 1001011111 101000101011 1100110 1101101110 1011001000 1011010001 1110110111 10000001010 11110000110 11010001000 111111111111 1000111010 24.688 55.733 1002.7 33707 17 16 16 59 50 4 $GNGGA,081603.00,4333.70158,N,00128.74806,E,1,08,1.52,112.9,M,53.8,M,,*4F
33 08 16 04 4333.7017700128.74801112.3 00128.74801 112.3 1101100110 1001111001 1001110110 10000001111 1111110011 11111101011 1001010011 101000011000 1100101 1101101110 1011100000 1011010111 1111000101 10000010001 11101111010 11010000000 111111111111 1000110101 24.625 55.886 1002.7 34711 18 15 15 60 50 4 $GNGGA,081604.00,4333.70177,N,00128.74801,E,1,08,1.52,112.3,M,53.8,M,,*48
34 08 16 05 4333.7014900128.74821111.2 00128.74821 111.2 1101100110 1101010010 1010101100 10001001000 1111110001 11111010101 1001010100 100111011101 1100101 1101101110 1100001100 1011011000 10000101000 10000010011 11101100010 11001111000 111111111111 1000111101 24.688 56.153 1002.7 35704 17 14 16 59 50 4 $GNGGA,081605.00,4333.70149,N,00128.74821,E,1,08,1.52,111.2,M,53.8,M,,*44
35 08 16 06 4333.7012800128.74819111.3 00128.74819 111.3 1101100110 10010000011 1010101110 10001001000 1111110101 11111010000 1001100111 100110011101 1100101 1101101110 1100001001 1011011001 10000100001 10000011000 11101010011 11001110100 111111111111 1000111100 24.625 56.382 1002.7 36709 18 15 15 60 50 4 $GNGGA,081606.00,4333.70128,N,00128.74819,E,1,08,1.52,111.3,M,53.8,M,,*4A
36 08 16 07 4333.7015400128.74798110.5 00128.74798 110.5 1101100101 1000101111 1001100110 10010100010 1111110100 11111001001 1001110101 100100101100 1100110 1101101110 1011100101 1011011001 1111010010 10000011000 11101011110 11001101001 111111111111 1000111110 24.625 56.504 1002.7 37700 18 14 15 59 51 4 $GNGGA,081607.00,4333.70154,N,00128.74798,E,1,08,1.52,110.5,M,53.8,M,,*41
37 08 16 08 4333.7016500128.74728110.0 00128.74728 110.0 1101100110 10100000100 110010111101 10010111001 1111111000 11111010111 1010011000 100101101000 1100100 1101101110 1011110000 1011011011 1111100011 10000010110 11101011101 11001100101 111111111111 1001000111 24.625 56.611 1002.7 38707 17 15 15 59 52 4 $GNGGA,081608.00,4333.70165,N,00128.74728,E,1,08,1.52,110.0,M,53.8,M,,*42
38 08 16 09 4333.7013600128.74741110.7 00128.74741 110.7 1101100110 10100101101 1001000101 10000000001 1111111111 11111110101 1010000011 100101011100 1100100 1101101110 1011110001 1011011110 1111100101 10000011100 11101000110 11001011000 111111111111 1001000111 24.688 56.702 1002.7 39701 18 15 15 60 51 4 $GNGGA,081609.00,4333.70136,N,00128.74741,E,1,08,1.52,110.7,M,53.8,M,,*4D
39 08 16 10 4333.7012400128.74708110.2 00128.74708 110.2 1101100111 11000101110 100011101101 100001001000 10000000011 100000110011 1001110110 101000000101 1100101 1101101110 1011100001 1011011011 1111101011 10000011110 11100111100 11001011000 111111111111 1001001011 24.688 56.801 1002.7 40705 18 16 16 59 51 3 $GNGGA,081610.00,4333.70124,N,00128.74708,E,1,08,1.52,110.2,M,53.8,M,,*4E
40 08 16 11 4333.7012900128.74743110.3 00128.74743 110.3 1101100111 10100101110 101010110 10011010111 1111111111 100001101010 1010001101 101000010000 1100101 1101101110 1100000000 1011100100 10010000010 10000111110 11100101110 11001011001 111111111111 1001001111 24.625 56.870 1002.7 41699 18 16 15 59 52 4 $GNGGA,081611.00,4333.70129,N,00128.74743,E,1,08,1.52,110.3,M,53.8,M,,*4C
41 08 16 12 4333.7012400128.74759110.5 00128.74759 110.5 1101100111 10000111111 11000101000 10110101110 10000000000 100010000111 1010100011 101000101100 1101001 1101101110 1100100110 1011100001 10001111111 10000100011 11100101101 11001111001 111111111111 1001001000 24.688 56.923 1002.7 42702 17 14 16 58 51 4 $GNGGA,081612.00,4333.70124,N,00128.74759,E,1,08,1.52,110.5,M,53.8,M,,*4F
42 08 16 13 4333.7009900128.74781109.1 00128.74781 109.1 1101100111 1010010100 1000010110 10010011010 10000000001 100010001000 1010101110 101000010011 1101111 1101101101 1100000001 1011100111 10000101011 10000101010 11101000100 11001001101 111111111111 1001011001 24.688 56.916 1002.7 43697 17 15 15 59 51 4 $GNGGA,081613.00,4333.70099,N,00128.74781,E,1,08,1.52,109.1,M,53.8,M,,*40
43 08 16 14 4333.7008600128.74785109.2 00128.74785 109.2 1101100111 10101110010 1010100110 10011111101 10000000110 100010010000 1010111011 101000110000 10011011 1101101110 1011101110 1011100011 1111010111 10000101101 11100101010 11001001000 111111111111 1001100000 24.625 56.862 1002.7 44698 18 15 15 60 50 4 $GNGGA,081614.00,4333.70086,N,00128.74785,E,1,08,1.52,109.2,M,53.8,M,,*4E
44 08 16 15 4333.7010700128.74743109.5 00128.74743 109.5 1101101100 100000100001 101010001 10101111100 10000000111 100011011011 1010110000 101000110100 10100010 1101101110 1011010000 1011100010 1110110011 10000101100 11100110011 11000111101 111111111111 1001011101 24.688 56.855 1002.7 45696 17 16 16 59 50 4 $GNGGA,081615.00,4333.70107,N,00128.74743,E,1,08,1.52,109.5,M,53.8,M,,*4A
45 08 16 16 4333.7011800128.74725110.4 00128.74725 110.4 1101101100 110101100110 1011100000 11101011000 10000001100 100100010011 1010111011 101000101001 10101010 1101101101 1011010100 1011101001 1110111111 10000100010 11100110110 11000111011 111111111111 1001011010 24.688 56.702 1002.7 46699 18 15 15 60 51 3 $GNGGA,081616.00,4333.70118,N,00128.74725,E,1,08,1.52,110.4,M,53.8,M,,*4E
46 08 16 17 4333.7009600128.74682110.4 00128.74682 110.4 1101101011 10110000111 1011110111 11010110111 10000010000 100100100101 1011000101 101000100001 10111101 1101101110 1011011010 1011101101 1111001100 10000101000 11100101011 11000111100 111111111111 1001001111 24.688 56.389 1002.7 47693 17 14 16 58 51 4 $GNGGA,081617.00,4333.70096,N,00128.74682,E,1,08,1.52,110.4,M,53.8,M,,*44
47 08 16 18 4333.7012100128.74580111.0 00128.74580 111.0 1101101010 10101101100 1011110010 10111111101 10000000011 100100101101 1011001110 100111110101 11000000 1101101110 1011010111 1011101110 1111001000 10000101001 11100111010 11001001001 111111111111 1000100000 24.688 56.138 1002.7 48698 18 14 15 60 50 4 $GNGGA,081618.00,4333.70121,N,00128.74580,E,1,08,1.52,111.0,M,53.8,M,,*42
48 08 16 19 4333.7018000128.74500110.5 00128.74500 110.5 1101101010 10101100110 1011100111 10101001000 10000001011 100100011010 1011010101 100111100101 11010001 1101101110 1011001110 1011101010 10000111000 10000110101 11100010000 11000101011 111111111111 1000010110 24.625 55.977 1002.7 49692 18 15 15 60 50 4 $GNGGA,081619.00,4333.70180,N,00128.74500,E,1,08,1.52,110.5,M,53.8,M,,*44
49 08 16 20 4333.7019600128.74514108.8 00128.74514 108.8 1101101001 10011000011 1011011101 10011001110 10000001000 100100000100 1011010001 100111011001 11110110 1101101101 1011011001 1011101111 10000111101 10000101100 11101011111 11010100100 111111111111 1000001100 24.688 55.893 1002.7 50697 17 16 15 59 51 4 $GNGGA,081620.00,4333.70196,N,00128.74514,E,1,08,1.52,108.8,M,53.8,M,,*48
50 08 16 21 4333.7020300128.74507108.9 00128.74507 108.9 1101101001 1011000110 1011011011 10001001011 10000001010 100011100100 1010111110 100111000100 100000011 1101101110 1011011001 1011101011 10000110110 10000110010 11010111001 10110100100 111111111111 111111100 24.688 55.886 1002.7 51690 18 15 15 60 51 4 $GNGGA,081621.00,4333.70203,N,00128.74507,E,1,08,1.52,108.9,M,53.8,M,,*45
51 08 16 22 4333.7022400128.74418108.3 00128.74418 108.3 1101101000 11011011 1011010111 1111011000 10000000110 100010111010 1010110001 100110101100 100011101 1101101110 1011100100 1011101110 10000110011 10000101011 11100010010 11000101001 111111111111 111101100 24.625 55.848 1002.7 52695 17 16 16 59 51 3 $GNGGA,081622.00,4333.70224,N,00128.74418,E,1,08,1.52,108.3,M,53.8,M,,*46
52 08 16 23 4333.7021000128.74375108.5 00128.74375 108.5 1101101000 1101011 1011010011 1110000110 10000001110 100010011001 1010100110 100110010000 100011111 1101101110 1011101100 1011101101 10000010010 10000110000 11100010011 11000101001 111111111111 111110100 24.688 55.687 1002.7 53688 18 16 15 59 52 3 $GNGGA,081623.00,4333.70210,N,00128.74375,E,1,07,1.82,108.5,M,53.8,M,,*48
53 08 16 24 4333.7018700128.74436108.9 00128.74436 108.9 1101101000 1010100 1011010010 1101001000 10000001010 100001111110 1010100001 100101110101 100101010 1101101110 1011101110 1011101110 10000001101 10000110011 11100000111 11000100110 111111111111 111101010 24.688 55.543 1002.7 54692 17 15 16 59 51 3 $GNGGA,081624.00,4333.70187,N,00128.74436,E,1,08,1.52,108.9,M,53.8,M,,*4C
54 08 16 25 4333.7021600128.74387108.2 00128.74387 108.2 1101101000 10000111 1011010001 1100101010 10000001010 100001011100 1010010100 100101101010 100111100 1101101110 1011101110 1011110100 10000000010 10000110101 11100000101 11000100100 111111111111 111110001 24.625 55.466 1002.7 55683 17 15 15 59 50 5 $GNGGA,081625.00,4333.70216,N,00128.74387,E,1,08,1.52,108.2,M,53.8,M,,*40
55 08 16 26 4333.7024300128.74447107.7 00128.74447 107.7 1101101000 11000101 1011001110 1100101011 10000001101 100000111101 1010011000 100101000111 101000000 1101101110 1011101010 1011110101 1111101110 10000110010 11100001000 11000011101 111111111111 111111001 24.688 55.382 1002.7 56689 18 15 15 60 51 3 $GNGGA,081626.00,4333.70243,N,00128.74447,E,1,08,1.52,107.7,M,53.8,M,,*42
56 08 16 27 4333.7024000128.74405107.9 00128.74405 107.9 1101100111 100011000 1011001111 1100110011 10000001110 100000101101 1010001111 100100111000 101000101 1101101110 1011100110 1011110111 1111100100 10000110010 11100001101 11000011101 111111111111 111111100 24.688 55.329 1002.7 57683 17 15 16 59 51 3 $GNGGA,081627.00,4333.70240,N,00128.74405,E,1,08,1.52,107.9,M,53.8,M,,*48
57 08 16 28 4333.7028200128.74388106.3 00128.74388 106.3 1101100111 101110010 1011001111 1101001101 10000001111 100000010100 1010000111 100100101101 101010000 1101101110 1011100110 1011110111 1111100000 10000110000 11100000101 11000010111 111111111111 1000000001 24.688 55.283 1002.7 58687 18 14 15 59 51 4 $GNGGA,081628.00,4333.70282,N,00128.74388,E,1,08,1.52,106.3,M,53.8,M,,*40
58 08 16 29 4333.7026100128.74387107.0 00128.74387 107.0 1101100111 110111010 1011010010 1101101110 10000001111 100000000010 1010000001 100100101001 101011111 1101101110 1011100011 1011110100 1111100111 10000110001 11100000001 11000010111 111111111111 1000010000 24.688 55.245 1002.7 59686 17 14 16 59 50 4 $GNGGA,081629.00,4333.70261,N,00128.74387,E,1,08,1.52,107.0,M,53.8,M,,*41
59 08 16 30 4333.7025200128.74395107.6 00128.74395 107.6 1101100111 111101011 1011001111 1110010101 10000001100 11111111000 1010000010 100100101110 101111011 1101101110 1011011011 1011110010 1111110100 10000110111 11011111100 11000011001 111111111111 1000001110 24.688 55.230 1002.7 60685 18 15 15 58 52 4 $GNGGA,081630.00,4333.70252,N,00128.74395,E,1,08,1.53,107.6,M,53.8,M,,*4D
60 08 16 31 4333.7028100128.74292108.2 00128.74292 108.2 1101100111 1000111001 1011010001 1110111110 10000010011 11111110000 1010000100 100100100010 110000110 1101101110 1011100010 1011110111 1111111000 10000110110 11011101111 11000010001 111111111111 1000011001 24.625 55.214 1002.7 61679 18 14 15 59 51 4 $GNGGA,081631.00,4333.70281,N,00128.74292,E,1,08,1.53,108.2,M,53.8,M,,*4F
61 08 16 32 4333.7027600128.74231109.9 00128.74231 109.9 1101100111 1001000100 1011001110 1110111000 10000010000 11111100100 1010000111 100100010100 110000111 1101101110 1011100110 1011110111 10000000011 10000111010 11011101101 11000001100 111111111111 1000100001 24.688 55.214 1002.7 62684 16 16 16 59 52 3 $GNGGA,081632.00,4333.70276,N,00128.74231,E,1,08,1.53,109.9,M,53.8,M,,*47
62 08 16 33 4333.7027900128.74217109.6 00128.74217 109.6 1101100111 1000111110 1011010011 1110110110 10000001101 11111100110 1010010011 100100010100 110010100 1101101110 1011100001 1011110101 10000000101 10000111000 11011100110 11000001100 111111111111 1000101000 24.688 55.207 1002.7 63677 18 14 15 60 50 4 $GNGGA,081633.00,4333.70279,N,00128.74217,E,1,08,1.53,109.6,M,53.8,M,,*42
63 08 16 34 4333.7029300128.74252109.1 00128.74252 109.1 1101100110 1000100110 1011010010 1111000110 10000010011 11111101110 1010011101 100100010100 110100111 1101101110 1011100000 1011110110 10000001011 10000111001 11011100111 11000010010 111111111111 1000110010 24.688 55.207 1002.7 64681 17 14 16 58 51 4 $GNGGA,081634.00,4333.70293,N,00128.74252,E,1,08,1.53,109.1,M,53.8,M,,*47
64 08 16 35 4333.7028200128.74264108.8 00128.74264 108.8 1101100110 1000100000 1011010001 1111010011 10000010000 11111110010 1010100111 100100001010 110101111 1101101110 1011100101 1011111000 10000010011 10000111000 11011101010 11000001001 111111111111 1000110110 24.688 55.260 1002.7 65676 18 16 15 59 52 4 $GNGGA,081635.00,4333.70282,N,00128.74264,E,1,08,1.53,108.8,M,53.8,M,,*4B
65 08 16 36 4333.7022100128.74268109.7 00128.74268 109.7 1101100111 1000111101 1011010000 1111100001 10000010001 11111110101 1010110011 100100000110 110111110 1101101110 1011100111 1011111010 10000001100 10000111010 11011100000 11000000101 111111111111 1001000001 24.688 55.367 1002.7 66677 17 14 16 58 51 4 $GNGGA,081636.00,4333.70221,N,00128.74268,E,1,08,1.53,109.7,M,53.8,M,,*43
66 08 16 37 4333.7019500128.74332109.4 00128.74332 109.4 1101100111 1001000101 1011010011 1111011100 10000010010 11111110101 1010111000 100100001101 111001100 1101101110 1011100100 1011111001 10000000100 10000111010 11011100001 11000000101 111111111111 1001000101 24.688 55.481 1002.7 67675 17 16 15 59 51 5 $GNGGA,081637.00,4333.70195,N,00128.74332,E,1,08,1.53,109.4,M,53.8,M,,*43
67 08 16 38 4333.7017900128.74347109.4 00128.74347 109.4 1101100110 1000110100 1011010011 1111010100 10000010001 11111111100 1011000100 100100000011 111010100 1101101110 1011100110 1011111010 1111111100 10000111010 11011100010 10111111110 111111111111 1001000111 24.688 55.550 1002.7 68678 18 15 15 60 51 3 $GNGGA,081638.00,4333.70179,N,00128.74347,E,1,08,1.53,109.4,M,53.8,M,,*4C
68 08 16 39 4333.7016100128.74428109.9 00128.74428 109.9 1101100110 1000110111 1011010100 1111010111 10000010000 100000001100 1011010111 100100001100 111101011 1101101110 1011100011 1011111000 1111111101 10000111101 11011011111 11000000000 111111111111 1001010111 24.688 55.565 1002.7 69672 17 15 16 59 51 3 $GNGGA,081639.00,4333.70161,N,00128.74428,E,1,08,1.53,109.9,M,53.8,M,,*47
69 08 16 40 4333.7013200128.74421110.8 00128.74421 110.8 1101100111 1001000100 1011010101 1111100111 10000010000 100000001101 1011011101 100100000110 111110011 1101101110 1011101011 1011111111 10000000000 10000111101 11011010110 10111110111 111111111111 1001010011 24.688 55.543 1002.7 70676 18 14 15 59 51 4 $GNGGA,081640.00,4333.70132,N,00128.74421,E,1,08,1.53,110.8,M,53.8,M,,*4F
70 08 16 41 4333.7013400128.74481110.0 00128.74481 110.0 1101100110 1001011010 1011010110 1111111001 10000010001 100000011100 1011101110 100100000111 111111100 1101101110 1011101101 1011111011 10000000101 10000111101 11011010111 10111111011 111111111111 1001010001 24.688 55.573 1002.7 71670 17 15 17 59 51 3 $GNGGA,081641.00,4333.70134,N,00128.74481,E,1,08,1.53,110.0,M,53.8,M,,*4A
71 08 16 42 4333.7011700128.74537110.3 00128.74537 110.3 1101100110 1001101000 1011010011 1111111101 10000010011 100000100101 1011111000 100100000001 111111010 1101101110 1011110101 1011111101 10000000100 10000111100 11011010010 10111110100 111111111111 1001011011 24.688 55.665 1002.7 72675 18 16 15 59 52 3 $GNGGA,081642.00,4333.70117,N,00128.74537,E,1,08,1.53,110.3,M,53.8,M,,*47
72 08 16 43 4333.7009800128.74607110.6 00128.74607 110.6 1101100110 1010000101 1011010111 10000001001 10000010000 100000110000 1100001110 100100001001 1000001100 1101101110 1011110101 1011111111 10000000111 10000111110 11011001111 10111111010 111111111111 1001101100 24.625 55.733 1002.7 73666 18 14 15 60 51 4 $GNGGA,081643.00,4333.70098,N,00128.74607,E,1,08,1.53,110.6,M,53.8,M,,*45
73 08 16 44 4333.7010100128.74638110.3 00128.74638 110.3 1101100110 1010010110 1011010011 10000010001 10000010010 100000110111 1100010101 100011111010 1000001000 1101101110 1011110010 1011111111 10000000010 10000111110 11011000110 10111101010 111111111111 1001110011 24.688 55.779 1002.7 74673 17 16 15 59 52 4 $GNGGA,081644.00,4333.70101,N,00128.74638,E,1,08,1.53,110.3,M,53.8,M,,*4A
74 08 16 45 4333.7009400128.74633110.0 00128.74633 110.0 1101100110 1010010010 1011011000 10000010000 10000001110 100000111111 1100100010 100011111000 1000010110 1101101110 1011101110 1011111111 10000000010 10000111110 11011001101 10111111010 111111111111 1001110001 24.688 55.779 1002.7 75666 18 15 15 60 51 3 $GNGGA,081645.00,4333.70094,N,00128.74633,E,1,08,1.53,110.0,M,53.8,M,,*4E
75 08 16 46 4333.7007400128.74593110.2 00128.74593 110.2 1101100110 1010010101 1011010100 10000010001 10000010001 100001000011 1100110011 100011111011 1000101010 1101101110 1011101101 1011111110 1111111111 10001000000 11011001101 10111110001 111111111111 1001110100 24.625 55.733 1002.7 76670 17 14 16 58 51 4 $GNGGA,081646.00,4333.70074,N,00128.74593,E,1,08,1.53,110.2,M,53.8,M,,*48
76 08 16 47 4333.7005900128.74567110.6 00128.74567 110.6 1101100110 1010100011 1011010101 10000100001 10000001111 100001001000 1100110011 100011101011 1000100001 1101101110 1011111011 1100000110 101010001000 10001001000 11011000000 10111101010 111111111111 1001110101 24.625 55.687 1002.7 77663 17 16 15 59 52 4 $GNGGA,081647.00,4333.70059,N,00128.74567,E,1,08,1.53,110.6,M,53.8,M,,*49
77 08 16 48 4333.7002100128.74536110.9 00128.74536 110.9 1101100110 1010100010 1011010110 10001010111 10000010010 100001001100 1101000100 100011100100 1000100110 1101101110 1100100011 1100000000 11 10111001 11010111111 10111101010 111111111111 1001111111 24.688 55.649 1002.7 78668 17 15 16 59 50 4 $GNGGA,081648.00,4333.70021,N,00128.74536,E,1,08,1.53,110.9,M,53.8,M,,*42
78 08 16 49 4333.6999400128.74565111.3 00128.74565 111.3 1101100110 1010110011 1011011000 10001010100 10000010000 100001010001 1101001010 100011100101 1000101010 1101101110 1100110010 1100000100 101010011101 110001000000 11010101100 10111100100 111111111111 1010000111 24.625 55.604 1002.7 79662 17 15 15 58 51 5 $GNGGA,081649.00,4333.69994,N,00128.74565,E,1,08,1.53,111.3,M,53.8,M,,*41
79 08 16 50 4333.7001100128.74555111.4 00128.74555 111.4 1101100110 1100100110 1011010110 10000011111 10000010010 100001011011 1101010100 100011100001 1000110010 1101101110 1100000110 1011111111 10001000001 10001010011 11010110101 10111100011 111111111111 1010000000 24.688 55.626 1002.7 80667 18 15 15 60 51 4 $GNGGA,081650.00,4333.70011,N,00128.74555,E,1,08,1.53,111.4,M,53.8,M,,*41
80 08 16 51 4333.6999600128.74569111.3 00128.74569 111.3 1101100110 10111010010 1011101000 10011011100 10010011000 100001010100 1101010101 100011011011 1000110100 1101101110 1100011000 1100001000 10010011100 10001010010 11010010011 10111100100 111111111111 1001111000 24.688 55.703 1002.7 81660 17 14 16 59 50 4 $GNGGA,081651.00,4333.69996,N,00128.74569,E,1,08,1.53,111.3,M,53.8,M,,*46
81 08 16 52 4333.6998100128.74605111.8 00128.74605 111.8 1101100111 10011011110 1011100011 10011100000 10000000101 100001001110 1101100001 100011011100 1000111010 1101101110 1100001101 1011010110 11000000100 10001001110 11001000110 10111101001 111111111111 1001110111 24.625 55.749 1002.7 82664 18 15 15 60 51 4 $GNGGA,081652.00,4333.69981,N,00128.74605,E,1,08,1.53,111.8,M,53.8,M,,*41
82 08 16 53 4333.6992100128.74588113.0 00128.74588 113.0 1101100110 10000110100 1011100001 10100000000 10000010110 100001011000 1101100111 100011001110 1000111001 1101101110 10011000100 1100110110 10110111000 10001100101 11001011100 10111011100 111110001011 111001001 24.688 55.794 1002.6 83658 17 14 16 58 51 4 $GNGGA,081653.00,4333.69921,N,00128.74588,E,1,08,1.53,113.0,M,53.8,M,,*46
83 08 16 54 4333.6993600128.74555112.6 00128.74555 112.6 1101101010 11110101111 1011001001 11011101110 10000000101 100010000001 1111111111 100110110011 10001111000 1101101110 11000010100 1100010111 101001000110 10000101101 11001011100 11011101101 111111001110 1011000001 24.688 55.848 1002.7 84660 17 16 16 59 52 3 $GNGGA,081654.00,4333.69936,N,00128.74555,E,1,08,1.53,112.6,M,53.8,M,,*40
84 08 16 55 4333.6995100128.74522113.0 00128.74522 113.0 1101101001 100110001100 1011101001 100000110110 10000100000 100010100100 1111000101 100100110010 1101011110 1101110001 11010010101 1100110101 101001010110 10001000111 10100011001 10111110000 111101100110 111111100 24.688 55.863 1002.6 85657 18 15 16 60 51 3 $GNGGA,081655.00,4333.69951,N,00128.74522,E,1,08,1.53,113.0,M,53.8,M,,*47
85 08 16 56 4333.6993000128.74519113.3 00128.74519 113.3 1101101001 11001001110 1011101001 11110111111 10000011011 100010111010 1110111000 100011101001 1010110010 1101110001 11001000101 1100111101 11101101000 10001001011 10110111110 10111011000 111110000010 1111001010 24.688 55.848 1002.6 86660 17 15 15 58 51 5 $GNGGA,081656.00,4333.69930,N,00128.74519,E,1,08,1.53,113.3,M,53.8,M,,*48
86 08 16 57 4333.6990600128.74488114.1 00128.74488 114.1 1101101001 10100101111 1011101011 11010110001 10000011100 100011001111 1110101110 100011111011 1010011100 1101110010 10100110000 1101001000 11010011011 10001001111 11000001000 10111010111 111011101010 1010000110 24.625 55.779 1002.6 87654 18 14 15 60 50 4 $GNGGA,081657.00,4333.69906,N,00128.74488,E,1,08,1.53,114.1,M,53.8,M,,*40
87 08 16 58 4333.6991100128.74404114.0 00128.74404 114.0 1101101000 10011001010 1011110110 10110110101 10000011010 100011010100 1110100010 100011111011 1001100111 1101110001 10001110011 1100111101 10111111111 10001001110 11001000100 10111100100 111100000100 1110100011 24.625 55.626 1002.6 88658 17 14 16 58 51 4 $GNGGA,081658.00,4333.69911,N,00128.74404,E,1,08,1.53,114.0,M,53.8,M,,*4C
88 08 16 59 4333.6992200128.74323114.7 00128.74323 114.7 1101101000 10011000000 1011111110 10100011110 10000011001 100011001100 1110010101 100011110010 1001011000 1101110001 1110001001 1101000010 11000010101 10001010000 11001010111 10111110010 111001000111 1000011111 24.625 55.474 1002.6 89653 17 15 15 59 51 4 $GNGGA,081659.00,4333.69922,N,00128.74323,E,1,08,1.53,114.7,M,53.8,M,,*48
89 08 17 00 4333.6988900128.74291116.1 00128.74291 116.1 1101101000 10010111010 1100010101 10010101101 10000010110 100010111100 1110001000 100011101001 1001100000 1101110001 1101101110 1101000110 10100110101 10001001111 11001011101 10111111011 111000101010 1010100101 24.688 55.337 1002.6 90656 17 15 16 59 51 3 $GNGGA,081700.00,4333.69889,N,00128.74291,E,1,07,1.82,116.1,M,53.8,M,,*4A
90 08 17 01 4333.6987400128.74270116.8 00128.74270 116.8 1101101000 10001010111 1100101101 10000110000 10000011011 100010101011 1110000110 100011011011 1001011101 1101110001 1010000010 1100110000 10001110100 10001001100 11010110000 11000000100 110110101011 1001111111 24.688 55.260 1002.6 91650 17 15 15 58 51 5 $GNGGA,081701.00,4333.69874,N,00128.74270,E,1,07,1.82,116.8,M,53.8,M,,*4F
91 08 17 02 4333.6985000128.74231117.5 00128.74231 117.5 1101101000 1110100110 1101000010 1110010001 10000011010 100010011001 1101111101 100011001100 1001011000 1101110001 1100100010 1101001010 10010010111 10001001011 11010110011 11000000011 110101010110 111011000 24.625 55.199 1002.6 92653 18 14 15 59 51 4 $GNGGA,081702.00,4333.69850,N,00128.74231,E,1,07,1.82,117.5,M,53.8,M,,*43
92 08 17 03 4333.6981300128.74234118.5 00128.74234 118.5 1101101000 1100110110 1100110101 1101011100 10000010101 100010001001 1101111101 100010101001 1001000100 1101110001 1010000010 1100100110 10000001101 10001001010 11010011011 10111111011 110100010011 1010001000 24.625 55.169 1002.6 93648 17 15 16 59 51 3 $GNGGA,081703.00,4333.69813,N,00128.74234,E,1,07,1.82,118.5,M,53.8,M,,*4F
93 08 17 04 4333.6978700128.74178119.1 00128.74178 119.1 1101100111 1010010000 1100100101 1101010111 10000011011 100001111011 1110000000 100010100011 1001001110 1101110001 1110001111 1101001001 10001100111 10001001011 11011011111 10111111100 110010110111 110101000 24.625 55.146 1002.6 94652 17 15 15 60 51 4 $GNGGA,081704.00,4333.69787,N,00128.74178,E,1,07,1.82,119.1,M,53.8,M,,*44
94 08 17 05 4333.6975800128.74125119.8 00128.74125 119.8 1101100111 1100110010 1100101110 1110010011 10000011001 100001110001 1101110100 100010010001 1001000100 1101110001 1001001110 1011111010 10010110100 10001001011 11011001001 10111110011 110010111100 1101110011 24.688 55.131 1002.6 95644 18 14 15 59 51 4 $GNGGA,081705.00,4333.69758,N,00128.74125,E,1,07,1.82,119.8,M,53.8,M,,*46
95 08 17 06 4333.6975500128.74148120.2 00128.74148 120.2 1101101000 1101000010 1100111100 1110101101 10000011100 100001100111 1101110110 100001111000 1000111100 1101110001 1101101010 1101001011 10001111000 10001001011 11010100110 10111110011 110000110110 101100100 24.688 55.123 1002.6 96651 17 15 15 59 52 4 $GNGGA,081706.00,4333.69755,N,00128.74148,E,1,08,1.53,120.2,M,53.8,M,,*40
96 08 17 07 4333.6973100128.74216120.9 00128.74216 120.9 1101101000 1101110001 1101001110 1110101010 10000010111 100001011101 1101110001 100001100010 1000110111 1101110001 1001000000 1100000110 10001001010 10001001010 11011001101 10111111001 110000101100 1100001010 24.688 55.115 1002.6 97644 17 15 15 60 51 4 $GNGGA,081707.00,4333.69731,N,00128.74216,E,1,08,1.53,120.9,M,53.8,M,,*40
97 08 17 08 4333.6972300128.74211120.8 00128.74211 120.8 1101100111 1101011110 1100111011 1110111101 10000011100 100001001100 1101101011 100001010100 1000101101 1101110001 1101001101 1100111111 10000110110 10001001010 11010111100 10111110100 101110101000 101001101 24.625 55.092 1002.6 98649 17 16 15 59 51 4 $GNGGA,081708.00,4333.69723,N,00128.74211,E,1,08,1.53,120.8,M,53.8,M,,*4A
98 08 17 09 4333.6970200128.74209121.3 00128.74209 121.3 1101101000 1101101001 1100110011 1111110100 10000011100 100001000101 1101100001 100001001110 1000110101 1101110010 1001010010 1011111001 10011101010 10001001100 11010000001 10111100110 101111001100 1110010011 24.688 55.100 1002.6 99643 18 15 15 60 50 4 $GNGGA,081709.00,4333.69702,N,00128.74209,E,1,08,1.53,121.3,M,53.8,M,,*4B
99 08 17 10 4333.6967200128.74184121.9 00128.74184 121.9 1101101000 1101010110 1100111010 1111101110 10000011100 100000111011 1101100000 100001001000 1000110010 1101110001 1101001111 1100111010 10011110100 10001001011 11010001111 10111101011 101101001010 101100110 24.688 55.108 1002.6 100647 17 15 16 59 51 3 $GNGGA,081710.00,4333.69672,N,00128.74184,E,1,08,1.53,121.9,M,53.8,M,,*49
100 08 17 11 4333.6964200128.74239123.0 00128.74239 123.0 1101101000 1101000100 1101001001 1111110100 10000010100 100000110111 1101100101 100000111011 1000110101 1101110001 1001100101 1011110000 10101101111 10001001100 11001110010 10111101000 101101110001 1110000001 24.688 55.131 1002.6 101642 17 16 15 59 52 3 $GNGGA,081711.00,4333.69642,N,00128.74239,E,1,08,1.53,123.0,M,53.8,M,,*45
101 08 17 12 4333.6963400128.74257123.9 00128.74257 123.9 1101101000 1101100010 1110001101 10101011110 10011110001 11101111001 1100110001 11000010011 100110110 1101110001 10001000010 10000111000 10110001011 10010111011 11001110110 10111010110 101100000111 1001110011 24.688 55.123 1002.6 102643 17 14 16 58 51 4 $GNGGA,081712.00,4333.69634,N,00128.74257,E,1,08,1.53,123.9,M,53.8,M,,*46
102 08 17 13 4333.6962900128.74311124.7 00128.74311 124.7 1101101011 11111111010 1100001111 11101100101 10001001011 100000110100 10001111111 100010101100 10001000101 1101110001 1100100101 1100001000 10111100011 10001100001 11001011011 11001001000 101110100100 10010111110 24.688 55.108 1002.6 103639 18 16 16 59 51 3 $GNGGA,081713.00,4333.69629,N,00128.74311,E,1,08,1.53,124.7,M,53.8,M,,*41
103 08 17 14 4333.6961600128.74351125.0 00128.74351 125.0 1101101010 11110110111 1101011001 100001101010 10010100010 100000111110 10001101000 100000110111 1110100101 1101110001 10010011001 1110011100 11010010100 10010010100 11000110011 11000001011 101011110111 1001010001 24.625 55.131 1002.6 104643 18 14 15 59 51 4 $GNGGA,081714.00,4333.69616,N,00128.74351,E,1,08,1.53,125.0,M,53.8,M,,*48
104 08 17 15 4333.6961300128.74425125.9 00128.74425 125.9 1101101011 11110111101 1011111111 11101111001 10000001111 100011000001 10011011110 100100010011 10001010101 1101110010 1110000010 1011100011 11000011010 10001010010 10111111011 11000000010 101110011100 10100000001 24.625 55.161 1002.6 105636 17 14 16 58 51 4 $GNGGA,081715.00,4333.69613,N,00128.74425,E,1,08,1.53,125.9,M,53.8,M,,*41
105 08 17 16 4333.6960400128.74441126.3 00128.74441 126.3 1101101011 10110101111 1011110110 11001101111 10000011111 100011010101 10011000100 100100011101 10000110101 1101110001 1111101101 1100001000 10111101101 10001001110 11000111010 10111110111 101101010011 1101010101 24.688 55.176 1002.6 106638 18 16 15 59 52 4 $GNGGA,081716.00,4333.69604,N,00128.74441,E,1,07,1.71,126.3,M,53.8,M,,*40
106 08 17 17 4333.6959400128.74482127.2 00128.74482 127.2 1101101010 1110011110 1011111000 10110011000 10000010001 100011100110 10011000100 100100001000 10000101010 1101110010 1110000000 1011111111 10110001000 10001010100 11001110000 10111101111 101101110011 10111001001 24.688 55.192 1002.6 107634 17 15 16 60 51 4 $GNGGA,081717.00,4333.69594,N,00128.74482,E,1,07,1.71,127.2,M,53.8,M,,*44
107 08 17 18 4333.6961300128.74650127.4 00128.74650 127.4 1101101010 1101011111 1100000111 10101010010 10000100111 100011001111 10010001101 100100000100 1111001001 1101110010 1100110001 1100010000 10101111110 10001001110 11001100011 10111101010 101011111001 10001001000 24.625 55.222 1002.6 108639 17 15 15 58 52 4 $GNGGA,081718.00,4333.69613,N,00128.74650,E,1,07,1.71,127.4,M,53.8,M,,*4C
108 08 17 19 4333.6961400128.74748128.1 00128.74748 128.1 1101101001 1110110101 1100000000 10011110100 10000011100 100010110100 10010001110 100011010011 1110101000 1101110001 1011000010 1100001111 10100000110 10001010011 11001110110 10111110101 101101000101 11101100011 24.688 55.298 1002.6 109633 18 14 15 59 51 4 $GNGGA,081719.00,4333.69614,N,00128.74748,E,1,07,1.71,128.1,M,53.8,M,,*48
109 08 17 20 4333.6960300128.74773128.4 00128.74773 128.4 1101101011 1101100101 1011110110 10011010101 10000011010 100010010111 10010000001 100010111101 1110100010 1101110001 1001011100 1100011000 10011110101 10001010010 11010000001 10111101111 101011001000 11000000011 24.688 55.390 1002.6 110638 18 16 15 59 51 4 $GNGGA,081720.00,4333.69603,N,00128.74773,E,1,07,1.82,128.4,M,53.8,M,,*45
110 08 17 21 4333.6959700128.74816129.3 00128.74816 129.3 1101101001 1110000101 1011110001 10011010011 10000010110 100001111000 10001101111 100010110010 1110001100 1101110010 1001111010 1100101100 10010110101 10001010000 11001110100 10111011000 101011111010 11101001101 24.688 55.443 1002.6 111631 18 15 15 60 50 4 $GNGGA,081721.00,4333.69597,N,00128.74816,E,1,08,1.53,129.3,M,53.8,M,,*43
111 08 17 22 4333.6960700128.74988130.6 00128.74988 130.6 1101101001 1100101010 1011110111 10001110010 10000100011 100001011110 10000010000 100010001100 1100101001 1101110001 1000101101 1100011111 10000100000 10001010100 11010001010 10111010011 101010110100 11010010111 24.688 55.497 1002.6 112635 18 15 16 59 51 3 $GNGGA,081722.00,4333.69607,N,00128.74988,E,1,08,1.53,130.6,M,53.8,M,,*41
112 08 17 23 4333.6957300128.74968131.0 00128.74968 131.0 1101101001 1101001011 1011101111 10000100011 10000100010 100001001110 1111111111 100010001010 1100110111 1101110001 1010101000 1100100000 1111000111 10001011100 10100010001 1111110011 110000110000 1101001011 24.625 55.527 1002.6 113627 17 15 15 58 51 5 $GNGGA,081723.00,4333.69573,N,00128.74968,E,1,08,1.53,131.0,M,53.8,M,,*49
113 08 17 24 4333.6955800128.74931131.9 00128.74931 131.9 1101101001 10000010110 1011100111 1111110101 10000011010 100000100101 1101111011 100001110101 1011101101 1101110001 1011110111 1100011101 1100101101 1101101101 11101000110 11101110001 110000001111 1111010111 24.688 55.543 1002.6 114633 17 15 16 60 51 3 $GNGGA,081724.00,4333.69558,N,00128.74931,E,1,08,1.53,131.9,M,53.8,M,,*42
114 08 17 25 4333.6954000128.74920132.3 00128.74920 132.3 1101101000 1101011101 1011101101 1111011100 10000100000 11111111011 1101001111 100000100110 1001001001 1101110001 1011010000 1100011001 1001100001 101111011 111111111111 111111111111 101101100011 1101010100 24.688 55.543 1002.6 115628 17 16 16 59 50 4 $GNGGA,081725.00,4333.69540,N,00128.74920,E,1,08,1.53,132.3,M,53.8,M,,*43
115 08 17 26 4333.6951500128.74892133.4 00128.74892 133.4 1101101010 1001110110 1011101111 10000000100 10000100001 11111011111 1100010101 100000010110 1001001011 1101110001 1010111010 1100010010 1000001110 1100100 111111111111 111111111111 101011111110 1100110100 24.625 55.535 1002.6 116632 18 15 15 60 50 4 $GNGGA,081726.00,4333.69515,N,00128.74892,E,1,08,1.53,133.4,M,53.8,M,,*4E
116 08 17 27 4333.6949300128.74884134.5 00128.74884 134.5 1101100111 111101010 1011101100 1110110110 10000011011 11111001010 1100000010 11111111100 1000101011 1101110001 1011100111 1100011110 1001110100 111111100 101110000001 100111010100 101010100111 1100000111 24.688 55.497 1002.6 117624 17 14 16 59 50 4 $GNGGA,081727.00,4333.69493,N,00128.74884,E,1,08,1.53,134.5,M,53.8,M,,*41
117 08 17 28 4333.6945400128.74800135.9 00128.74800 135.9 1101101010 1000110000 1011100111 10000010100 10000100000 11111000101 1011110100 11110111001 1000101001 1101110001 1011100001 1100010111 1000111010 100111100 100011001011 11110001100 101010000100 1100011101 24.688 55.481 1002.6 118629 18 14 15 59 51 4 $GNGGA,081728.00,4333.69454,N,00128.74800,E,1,08,1.53,135.9,M,53.8,M,,*44
118 08 17 29 4333.6942100128.74738136.9 00128.74738 136.9 1101101001 1010000001 1011100010 10001111100 10000011111 11110101011 1011110100 11110110111 1000111110 1101110001 1010111011 1100010000 1001000100 101011110 11100111011 11001000110 101010000000 1101000111 24.688 55.436 1002.6 119628 17 15 16 59 51 3 $GNGGA,081729.00,4333.69421,N,00128.74738,E,1,08,1.53,136.9,M,53.8,M,,*40
119 08 17 30 4333.6939100128.74710137.6 00128.74710 137.6 1101101010 1010000100 1011100111 10001011001 10000010010 11110011010 1011110001 11111001010 1001110110 1101110001 1011001010 1100010100 1001110000 110001100 11101001110 11001100111 100111111111 1011100101 24.625 55.405 1002.6 120627 17 16 15 59 51 4 $GNGGA,081730.00,4333.69391,N,00128.74710,E,1,08,1.53,137.6,M,53.8,M,,*40
120 08 17 31 4333.6937800128.74732137.6 00128.74732 137.6 1101101000 111100110 1011101011 10000101011 10000011110 11110010010 1011100000 11110010110 1010000001 1101110001 1011010100 1100001010 1011011000 1000000101 100101101011 100010000100 100110100110 1010111110 24.625 55.398 1002.6 121620 18 14 15 60 50 4 $GNGGA,081731.00,4333.69378,N,00128.74732,E,1,08,1.53,137.6,M,53.8,M,,*46
121 08 17 32 4333.6937100128.74756138.5 00128.74756 138.5 1101101001 111101100 1011100011 10000000100 10000100000 11110001100 1011101011 11110110011 1010100010 1101110001 1011101010 1100010111 1011010111 101101100 100110010001 100001111100 100111001011 1100101011 24.625 55.405 1002.6 122624 17 15 16 59 50 4 $GNGGA,081732.00,4333.69371,N,00128.74756,E,1,08,1.53,138.5,M,53.8,M,,*42
122 08 17 33 4333.6936600128.74817138.8 00128.74817 138.8 1101101001 1000101010 1011100010 1111000111 10000010101 11110001111 1011111101 11111001111 1010100011 1101110001 1011100010 1100010001 1100111001 1011011010 11011100101 11000100010 100110000001 1011011000 24.625 55.428 1002.6 123619 18 16 15 59 52 3 $GNGGA,081733.00,4333.69366,N,00128.74817,E,1,08,1.53,138.8,M,53.8,M,,*42
123 08 17 34 4333.6936100128.74853138.7 00128.74853 138.7 1101101000 1000101101 1011100011 10000000110 10000011101 11110001100 1011011010 11101111000 1000111010 1101110001 1011011000 1100010011 1100101001 1010001110 11100110000 11010001001 100110010101 1100100100 24.688 55.481 1002.6 124620 16 15 17 59 51 3 $GNGGA,081734.00,4333.69361,N,00128.74853,E,1,08,1.53,138.7,M,53.8,M,,*4D
124 08 17 35 4333.6934600128.74830139.4 00128.74830 139.4 1101101010 1000101101 1011100001 10001001001 10000100101 11110000100 1010111101 11110101100 1001100011 1101110001 1011010100 1100010110 1101111010 1011101100 11100011110 11001011010 100101100010 1100001111 24.688 55.512 1002.6 125617 16 16 15 59 52 4 $GNGGA,081735.00,4333.69346,N,00128.74830,E,1,08,1.53,139.4,M,53.8,M,,*4E
125 08 17 36 4333.6933600128.74845139.8 00128.74845 139.8 1101101000 110101111 1011100000 1111100000 10000010011 11110000101 1010110110 11110011001 1000110011 1101110001 1011010110 1100001110 1101100111 1000111011 11011001110 11000110001 100110111111 1110100111 24.625 55.527 1002.6 126620 18 14 15 60 50 4 $GNGGA,081736.00,4333.69336,N,00128.74845,E,1,08,1.53,139.8,M,53.8,M,,*44
126 08 17 37 4333.6931400128.74838140.3 00128.74838 140.3 1101101011 110000010 1011100011 1110110110 10000100110 11101111001 1010101101 11110000000 111100110 1101110000 1100110111 1001101001 10001011011 1110100010 111111111111 111111111111 100110011110 1101111111 24.688 55.558 1002.6 127614 17 14 16 58 51 4 $GNGGA,081737.00,4333.69314,N,00128.74838,E,1,08,1.53,140.3,M,53.8,M,,*4A
127 08 17 38 4333.6929600128.74856140.8 00128.74856 140.8 1101100110 111110101 1011100011 1111001001 10000011100 11101110010 1010011010 11101101001 111011111 1101110000 1011111011 1010111100 10010111111 10000011010 11 1101011 100110000111 1101100010 24.625 55.626 1002.6 128618 18 14 15 60 50 4 $GNGGA,081738.00,4333.69296,N,00128.74856,E,1,08,1.53,140.8,M,53.8,M,,*4D
128 08 17 39 4333.6928300128.74893141.3 00128.74893 141.3 1101101010 1010000001 1011100100 1111001011 10000011101 11101101110 1010001001 11110001000 111101111 1101110001 1011101111 1011111000 1110110101 10000100011 11 1101010 100101001111 1100010111 24.688 55.695 1002.6 129613 17 15 16 59 51 3 $GNGGA,081739.00,4333.69283,N,00128.74893,E,1,08,1.53,141.3,M,53.8,M,,*4B
129 08 17 40 4333.6926400128.74900141.6 00128.74900 141.6 1101100110 1001001001 1011100000 1110101111 10000100100 11101100110 1001111100 11101010001 111001101 1101110001 1011100001 1011111011 1101100011 10000101011 11 1101001 100101001111 1100011111 24.688 55.749 1002.6 130617 17 16 15 60 51 4 $GNGGA,081740.00,4333.69264,N,00128.74900,E,1,08,1.53,141.6,M,53.8,M,,*42
130 08 17 41 4333.6924000128.74889141.9 00128.74889 141.9 1101101011 1010000111 1011100111 1111101001 10000010011 11101010000 1001100101 11100111111 111001101 1101110001 1011101011 1100001101 1110100101 10001000011 10010 1100111 100100111000 1011110110 24.688 55.779 1002.6 131611 17 14 15 60 51 4 $GNGGA,081741.00,4333.69240,N,00128.74889,E,1,08,1.53,141.9,M,53.8,M,,*4A
131 08 17 42 4333.6921800128.74845142.8 00128.74845 142.8 1101111001 1011000101 1011100011 10000100011 10000010100 11101010011 1001001111 11100100000 110111100 1101110000 1011110001 1100001100 1110101110 10001000011 1010001100 1000010110 100100100001 1011010011 24.688 55.756 1002.6 132616 17 16 15 59 51 4 $GNGGA,081742.00,4333.69218,N,00128.74845,E,1,08,1.53,142.8,M,53.8,M,,*46
132 08 17 43 4333.6921300128.74813143.4 00128.74813 143.4 1101101010 1001111001 1011100000 1111001001 10000011011 11100111001 1001001000 11100110111 111010101 1101110001 1011101000 1100001010 1110000101 10001011010 10000101101 1101110110 100100000111 1011000011 24.625 55.749 1002.6 133609 18 15 15 60 50 4 $GNGGA,081743.00,4333.69213,N,00128.74813,E,1,08,1.53,143.4,M,53.8,M,,*42
133 08 17 44 4333.6919600128.74784144.3 00128.74784 144.3 1101100110 1001101001 1011100100 1111011001 10000010101 11100110110 1001001010 11100011100 110111110 1101110001 1100000110 1100001010 1111100000 10001001011 10100001010 10000111111 100011101011 1010011011 24.688 55.733 1002.6 134612 17 15 16 59 51 3 $GNGGA,081744.00,4333.69196,N,00128.74784,E,1,08,1.53,144.3,M,53.8,M,,*4A
134 08 17 45 4333.6920100128.74805144.9 00128.74805 144.9 1101101100 1010010001 1011100100 10000001011 10000010000 11100110100 1000101111 11100000000 111001001 1101110000 1100001010 1100001100 10010110111 10001010101 10110000110 10011000110 100011010110 1010001001 24.688 55.695 1002.6 135605 17 15 15 59 52 4 $GNGGA,081745.00,4333.69201,N,00128.74805,E,1,08,1.53,144.9,M,53.8,M,,*4A
135 08 17 46 4333.6919800128.74761145.8 00128.74761 145.8 1101101100 1010100010 1011100010 10000101100 10000011001 11100011110 1000100100 11100011110 111010101 1101110000 1011110000 1100001011 10010001010 10001100100 10111001100 10100001010 100011000001 1001110111 24.688 55.604 1002.6 136609 16 15 17 59 51 3 $GNGGA,081746.00,4333.69198,N,00128.74761,E,1,07,1.67,145.8,M,53.8,M,,*4F
136 08 17 47 4333.6919500128.74774146.3 00128.74774 146.3 1101101101 1000111111 1011100100 10000011000 10000001111 11100010110 1000011000 11011110000 110101100 1101110000 1011111101 1100010011 10000001100 10001110010 11000000101 10100110111 100010101101 1001100100 24.688 55.504 1002.6 137604 17 15 15 59 50 5 $GNGGA,081747.00,4333.69195,N,00128.74774,E,1,07,1.67,146.3,M,53.8,M,,*4F
137 08 17 48 4333.6917900128.74752146.8 00128.74752 146.8 1101101010 111110110 1011100110 1111100000 10000011101 11100000100 1000000011 11011101110 110110000 1101110000 1100011111 1100011101 10001101010 10001110111 11000101010 10101010011 100010100000 1001010111 24.688 55.413 1002.6 138608 17 15 15 60 51 4 $GNGGA,081748.00,4333.69179,N,00128.74752,E,1,07,1.67,146.8,M,53.8,M,,*4D
138 08 17 49 4333.6917500128.74738147.0 00128.74738 147.0 1101101110 1001001110 1011100001 1111001000 10000010100 11100000110 1000000100 11011011000 110101011 1101110001 1100010000 1100001110 10001011000 10001101010 11001010011 10101101100 100010011001 1001001101 24.688 55.375 1002.6 139601 17 14 16 59 50 4 $GNGGA,081749.00,4333.69175,N,00128.74738,E,1,07,1.67,147.0,M,53.8,M,,*45
139 08 17 50 4333.6916200128.74705147.3 00128.74705 147.3 1101101010 1010011001 1011100001 1111001001 10000010110 11011111011 111111101 11011001011 110100101 1101110000 1100001011 1100010000 10000010100 10001011110 11001011100 10110000000 100010001110 1001001001 24.688 55.344 1002.6 140606 18 15 15 60 50 4 $GNGGA,081750.00,4333.69162,N,00128.74705,E,1,07,1.67,147.3,M,53.8,M,,*46
140 08 17 51 4333.6915400128.74706148.1 00128.74706 148.1 1101101100 1001100111 1011100000 1111010111 10000010110 11011110110 111111000 11011011001 110110011 1101110000 1011111010 1100001101 10000111100 10001010001 11001100100 10110000100 100010001101 1001001110 24.625 55.337 1002.6 141600 17 14 16 58 51 4 $GNGGA,081751.00,4333.69154,N,00128.74706,E,1,08,1.53,148.1,M,53.8,M,,*44
141 08 17 52 4333.6914100128.74695149.5 00128.74695 149.5 1101101011 1001010000 1011100010 1111111110 10000010011 11011101110 111110011 11011000001 110100100 1101110000 1011110001 1100000110 1111111111 10001011011 11010111011 10111011000 100010000111 1001001100 24.625 55.359 1002.6 142602 17 15 15 59 52 4 $GNGGA,081752.00,4333.69141,N,00128.74695,E,1,08,1.53,149.5,M,53.8,M,,*4D
142 08 17 53 4333.6914500128.74647150.4 00128.74647 150.4 1101101111 1000011000 1011011101 1111101011 10000011100 11011011011 111110011 11011010100 111000101 1101110000 1100000100 1100010000 1111010011 10000111010 110101010110 110000110010 100001110100 1000111010 24.625 55.352 1002.6 143598 18 15 15 60 51 3 $GNGGA,081753.00,4333.69145,N,00128.74647,E,1,07,1.67,150.4,M,53.8,M,,*46
143 08 17 54 4333.6911700128.74618151.2 00128.74618 151.2 1101101011 1010111101 1011100011 1111111100 10000010110 11011110001 111101111 11010100100 110011010 1101110000 1100001000 1100010000 10000010100 10001000110 110010010011 101100010100 100010000110 1001001101 24.688 55.314 1002.6 144602 17 16 15 59 51 5 $GNGGA,081754.00,4333.69117,N,00128.74618,E,1,07,1.67,151.2,M,53.8,M,,*4B
144 08 17 55 4333.6910800128.74667151.5 00128.74667 151.5 1101101110 1010111111 1011100101 10000110110 10000011010 11011010110 111100111 11010111010 110110111 1101110000 1011101110 1100001101 1111000100 10000111010 110101000011 101111100101 100001111111 1001000111 24.625 55.314 1002.6 145596 18 14 15 60 50 4 $GNGGA,081755.00,4333.69108,N,00128.74667,E,1,07,1.67,151.5,M,53.8,M,,*4B
145 08 17 56 4333.6910900128.74694152.3 00128.74694 152.3 1101101011 1011001010 1011100010 10000001011 10000010111 11011001100 111100000 11010110101 110101110 1101110000 1011101000 1100010000 1111100100 10001001000 110001111110 101100010011 100001111101 1001001010 24.688 55.329 1002.6 146598 17 15 16 59 51 4 $GNGGA,081756.00,4333.69109,N,00128.74694,E,1,06,1.95,152.3,M,53.8,M,,*4C
146 08 17 57 4333.6911000128.74704153.2 00128.74704 153.2 1101101011 1011110100 1011101001 10000100110 10000010101 11011001001 111100000 11010101111 110101010 1101101111 1011101001 1100001011 1111110110 10000111111 101001010110 100100010111 100001110011 1001001011 24.688 55.367 1002.6 147595 17 16 15 59 52 4 $GNGGA,081757.00,4333.69110,N,00128.74704,E,1,07,1.82,153.2,M,53.8,M,,*4A
147 08 17 58 4333.6910100128.74692153.9 00128.74692 153.9 1101101011 1001110010 1011101111 10000010111 10000011000 11011001100 111100111 11010011111 110011110 1101110001 1011101111 1100000110 10000000010 10001001000 100010110101 11110101100 100001111011 1001010010 24.688 55.390 1002.6 148599 17 14 16 58 51 4 $GNGGA,081758.00,4333.69101,N,00128.74692,E,1,08,1.53,153.9,M,53.8,M,,*43
148 08 17 59 4333.6908600128.74660154.4 00128.74660 154.4 1101101011 1001110000 1011110001 10000110011 10000011010 11011000010 111101010 11011010101 111010100 1101101110 1011110110 1100001101 1111000101 10000111101 11110110101 11011000001 100001111011 1001010110 24.688 55.413 1002.6 149593 17 15 15 59 50 5 $GNGGA,081759.00,4333.69086,N,00128.74660,E,1,06,1.95,154.4,M,53.8,M,,*4F
149 08 18 00 4333.6911300128.74697154.8 00128.74697 154.8 1101101011 1001011011 1011101010 10000101110 10000011000 11011000010 111101100 11010111000 110111001 1101110001 1011111000 1100001111 10000000110 10001000111 11110000100 11010100111 100001111111 1001011000 24.688 55.436 1002.6 150595 18 14 15 60 50 4 $GNGGA,081800.00,4333.69113,N,00128.74697,E,1,06,1.95,154.8,M,53.8,M,,*45
150 08 18 01 4333.6914100128.74741155.3 00128.74741 155.3 1101101011 1010111110 1011110100 10001011000 10000010011 11011000111 111110111 11010011101 110110000 1101110001 1100100000 1100001000 10001011001 10001001101 11101000101 11001110100 100001111011 1001010111 24.688 55.420 1002.6 151590 17 14 16 59 51 4 $GNGGA,081801.00,4333.69141,N,00128.74741,E,1,06,1.95,155.3,M,53.8,M,,*43
151 08 18 02 4333.6906500128.74609157.6 00128.74609 157.6 1101101100 1101011111 1011011110 10010001110 10000011000 11010111111 111111111 11010001010 110100010 1101110010 1100010000 1011111110 10001011100 10001000101 11100000000 11000101010 100001111011 1001011100 24.688 55.375 1002.6 152595 18 14 15 59 51 4 $GNGGA,081802.00,4333.69065,N,00128.74609,E,1,07,1.27,157.6,M,53.8,M,,*45
152 08 18 03 4333.6905300128.74472158.1 00128.74472 158.1 1101101010 1101011100 1011100110 10010101111 10000011010 11011001010 1000001111 11011001101 111011011 1101110001 1101000100 1100010101 10010001000 10000111000 10000101001 1110101000 100010001001 1001101010 24.688 55.337 1002.6 153587 17 14 16 58 51 4 $GNGGA,081803.00,4333.69053,N,00128.74472,E,1,08,1.53,158.1,M,53.8,M,,*4B
153 08 18 04 4333.6905300128.74506159.0 00128.74506 159.0 1101101011 1011110100 1011100010 10001001100 10000011010 11010111010 1000001011 11010010110 110101010 1101110011 1101011000 1100010001 10001001100 10001011001 10100010001 10001100100 100010001110 1001110011 24.688 55.291 1002.6 154593 18 15 15 58 52 4 $GNGGA,081804.00,4333.69053,N,00128.74506,E,1,08,1.53,159.0,M,53.8,M,,*4E
154 08 18 05 4333.6905500128.74512159.5 00128.74512 159.5 1101101010 1101000000 1011100100 10010011010 10000011001 11010111001 1000001011 11010010100 110101100 1101110001 1101010010 1100010010 1111010111 10000111010 10111110010 10100011100 100010001010 1001101110 24.688 55.260 1002.6 155587 18 14 15 59 51 4 $GNGGA,081805.00,4333.69055,N,00128.74512,E,1,08,1.53,159.5,M,53.8,M,,*49
155 08 18 06 4333.6903600128.74528159.7 00128.74528 159.7 1101101100 1100101101 1011100010 10011010110 10000011110 11010111111 1000001111 11010101110 111000001 1101110101 1100110010 1100001111 1111101010 10000111011 11000010101 10100111101 100010010101 1001111110 24.688 55.237 1002.6 156590 17 16 15 59 51 4 $GNGGA,081806.00,4333.69036,N,00128.74528,E,1,07,1.68,159.7,M,53.8,M,,*43
156 08 18 07 4333.6901300128.74548160.0 00128.74548 160.0 1101101011 1101011111 1011100011 10011011000 10000011001 11010110110 1000010100 11010011010 110110001 1101110001 1101001010 1100011000 10001000011 10000110110 11000101101 10101100101 100010011001 1010000001 24.625 55.253 1002.6 157586 18 15 15 60 51 3 $GNGGA,081807.00,4333.69013,N,00128.74548,E,1,08,1.53,160.0,M,53.8,M,,*49
157 08 18 08 4333.6900000128.74531160.3 00128.74531 160.3 1101101101 1011001100 1011100110 10011010110 10000010101 11010111010 1000011000 11010101111 111000111 1101110110 1101010011 1100010100 10001110101 10001000011 11010010110 10111001101 100010011111 1010001101 24.688 55.268 1002.6 158588 17 14 16 58 51 4 $GNGGA,081808.00,4333.69000,N,00128.74531,E,1,08,1.53,160.3,M,53.8,M,,*49
