id HH MM SS longitude latitude altitude adc_1_ch0 adc_1_ch1 adc_1_ch2 adc_1_ch3 adc_1_ch4 adc_1_ch5 adc_1_ch6 adc_1_ch7 adc_1_ch8 adc_2_ch0 adc_2_ch1 adc_2_ch2 adc_2_ch3 adc_2_ch4 adc_2_ch5 adc_2_ch6 adc_2_ch7 adc_2_ch8 temp hum pres t_prog t_gps t_split t_adc t_temp t_hum t_pres trame_gga
1 10 40 19 4333.6991200128.74786172.0~ 00128.74786 172.0 1101010111 1100010100 1100101010 10000001110 10000111000 1011111000 1100111000 1101101100 1011110001 1101011100 1011011010 1100000001 10000100111 10000111101 1100001100 1100000101 1100000011 1011111100 20.813 51.186 795.83 1451 16 1 6 59 51 3 $GNGGA,104019.00,4333.69912,N,00128.74786,E,1,08,1.20,172.0,M,53.8,M,,*4D
2 10 40 21 4333.6986000128.74738173.1~ 00128.74738 173.1 1101010111 1100010011 1100100100 10000001011 10000110111 1011110000 1100110111 1101101100 1011100010 1101011101 1011010110 1011111111 10000100011 10000111001 1100000101 1011111101 1100000001 1011111010 20.813 51.171 1004.1 2598 17 0 5 58 51 4 $GNGGA,104021.00,4333.69860,N,00128.74738,E,1,08,1.20,173.1,M,53.8,M,,*47
3 10 40 22 4333.6981500128.74702173.7~ 00128.74702 173.7 1101010111 1100010000 1100100101 10000010000 10000110110 1011101010 1100110011 1101101000 1011100111 1101011100 1011010100 1011111110 10000100110 10000111001 1100010000 1100000101 1100000110 1011111110 20.813 51.163 1004.1 3602 16 1 5 60 51 3 $GNGGA,104022.00,4333.69815,N,00128.74702,E,1,07,1.57,173.7,M,53.8,M,,*46
4 10 40 23 4333.6981400128.74765174.2~ 00128.74765 174.2 1101010111 1100010001 1100100110 10000010001 10000110101 1011110010 1100110101 1101101000 1011101111 1101011100 1011011011 1100000001 10000100101 10000111011 1100010010 1100000010 1011111010 1011110101 20.813 51.163 1004.1 4606 16 1 6 59 51 3 $GNGGA,104023.00,4333.69814,N,00128.74765,E,1,07,1.57,174.2,M,53.8,M,,*45
5 10 40 24 4333.6985300128.74896174.2~ 00128.74896 174.2 1101010111 1100010010 1100101000 10000010100 10000110111 1011110001 1100110110 1101101010 1011101100 1101011100 1011011000 1100000011 10000101001 10000111010 1100001001 1100000100 1100000010 1011110110 20.813 51.140 1004.1 5606 17 0 5 60 50 4 $GNGGA,104024.00,4333.69853,N,00128.74896,E,1,07,1.57,174.2,M,53.8,M,,*42
6 10 40 25 4333.6986100128.74922174.6~ 00128.74922 174.6 1101010111 1100010010 1100101001 10000010001 10000110100 1011110011 1100110111 1101100000 1011010111 1101011100 1011010110 1100000000 10000101011 10000111001 1100000111 1011111100 1100000001 1011111001 20.813 51.125 1004.1 6614 17 0 6 59 50 4 $GNGGA,104025.00,4333.69861,N,00128.74922,E,1,07,1.57,174.6,M,53.8,M,,*48
7 10 40 26 4333.6987100128.74997174.5~ 00128.74997 174.5 1101010111 1100010001 1100100110 10000001111 10000110110 1011110011 1100111001 1101100101 1011101010 1101011100 1011010100 1011111110 10000101100 10000111011 1100001110 1100000101 1100000011 1011111011 20.813 51.133 1004.1 7619 17 1 5 60 51 3 $GNGGA,104026.00,4333.69871,N,00128.74997,E,1,07,1.57,174.5,M,53.8,M,,*47
8 10 40 27 4333.6977100128.74954175.1~ 00128.74954 175.1 1101010111 1100010011 1100100110 10000001100 10000110101 1011101111 1100110101 1101101011 1011101010 1101011100 1011011011 1100000001 10000100111 10000111000 1100000111 1011111110 1100000001 1011111011 20.813 51.194 1004.1 8626 16 1 5 59 52 3 $GNGGA,104027.00,4333.69771,N,00128.74954,E,1,08,1.00,175.1,M,53.8,M,,*4E
9 10 40 28 4333.6979100128.75004175.5~ 00128.75004 175.5 1101010111 1100010011 1100100101 10000010001 10000110111 1011110000 1100110011 1101110000 1011101001 1101011100 1011011001 1011111111 10000100111 10000111010 1100001011 1100000010 1100000001 1100000000 20.813 51.224 1004.1 9632 17 1 5 59 51 3 $GNGGA,104028.00,4333.69791,N,00128.75004,E,1,07,1.57,175.5,M,53.8,M,,*4B
10 10 40 29 4333.6984200128.75023175.5~ 00128.75023 175.5 1101010111 1100010010 1100101000 10000000101 10000110100 1011110001 1100111000 1101101110 1011110010 1101011101 1011010111 1011111111 10000100101 10000111010 1100000111 1100000010 1100001011 1100000011 20.813 51.308 1004.1 10633 16 0 6 59 51 4 $GNGGA,104029.00,4333.69842,N,00128.75023,E,1,06,2.67,175.5,M,53.8,M,,*4F
11 10 40 30 4333.6982300128.74992175.6~ 00128.74992 175.6 1101010111 1100010001 1100100011 10000001011 10000110111 1011111001 1100111101 1101101110 1011100110 1101011100 1011010111 1100000000 10000101100 10000111100 1100001011 1100000011 1100001111 1100000000 20.813 51.308 1004.1 11639 17 0 5 58 51 4 $GNGGA,104030.00,4333.69823,N,00128.74992,E,1,07,1.56,175.6,M,53.8,M,,*41
12 10 40 31 4333.6980200128.74956175.7~ 00128.74956 175.7 1101010111 1100010001 1100100010 10000010010 10000111000 1011101110 1100110110 1101101100 1011110101 1101011100 1011010100 1011111110 10000100101 10000111010 1100001110 1100001000 1100000010 1011110011 20.813 51.369 1004.1 12638 16 1 5 59 52 3 $GNGGA,104031.00,4333.69802,N,00128.74956,E,1,07,1.56,175.7,M,53.8,M,,*4A
13 10 40 32 4333.6979100128.74976175.7~ 00128.74976 175.7 1101010111 1100010001 1100100110 10000001110 10000110110 1011110110 1100111011 1101110001 1011101010 1101011100 1011011100 1100000010 10000101001 10000111010 1100000111 1100000000 1011111110 1011111000 20.813 51.354 1004.1 13643 18 0 5 59 50 4 $GNGGA,104032.00,4333.69791,N,00128.74976,E,1,08,1.20,175.7,M,53.8,M,,*40
14 10 40 33 4333.6982000128.75046175.5~ 00128.75046 175.5 1101010111 1100010011 1100100111 10000001101 10000110101 1011110001 1100110110 1101101100 1011110100 1101011100 1011011010 1011111111 10000101010 10000111000 1100001010 1100000000 1100000110 1011111101 20.813 51.270 1004.1 14645 16 0 5 58 52 4 $GNGGA,104033.00,4333.69820,N,00128.75046,E,1,08,1.20,175.5,M,53.8,M,,*4D
15 10 40 34 4333.6987900128.75166175.4~ 00128.75166 175.4 1101010111 1100010010 1100100011 10000010000 10000110101 1011110000 1100110111 1101101010 1011101111 1101011101 1011010111 1100000000 10000101110 10000111100 1100001010 1100001001 1100000000 1011111001 20.813 51.247 1004.1 15650 17 0 5 58 51 4 $GNGGA,104034.00,4333.69879,N,00128.75166,E,1,08,1.20,175.4,M,53.8,M,,*44
16 10 40 35 4333.6993400128.75244175.1~ 00128.75244 175.1 1101010111 1100010010 1100100101 10000001011 10000110111 1011110001 1100110100 1101101100 1011110001 1101011100 1011010110 1011111111 10000100110 10000111010 1100001000 1100000010 1100000010 1011111011 20.813 51.293 1004.1 16650 16 0 5 58 52 4 $GNGGA,104035.00,4333.69934,N,00128.75244,E,1,08,1.20,175.1,M,53.8,M,,*4B
17 10 40 36 4333.6996300128.75303175.0~ 00128.75303 175.0 1101010111 1100010010 1100100011 10000000111 10000110011 1011110110 1100110111 1101101000 1011110011 1101011101 1011010111 1100000000 10000101010 10000111101 1100001100 1100000100 1100000110 1011111000 20.813 51.316 1004.1 17656 17 1 5 59 51 3 $GNGGA,104036.00,4333.69963,N,00128.75303,E,1,08,1.20,175.0,M,53.8,M,,*49
18 10 40 37 4333.7000700128.75368175.0~ 00128.75368 175.0 1101010111 1100010100 1100101000 10000001000 10000110110 1011110011 1100111000 1101101101 1011101110 1101011100 1011010111 1011111111 10000100101 10000111001 1100000101 1011111001 1100000001 1011111101 20.813 51.362 1004.1 18662 16 1 5 59 51 3 $GNGGA,104037.00,4333.70007,N,00128.75368,E,1,07,1.56,175.0,M,53.8,M,,*48
19 10 40 38 4333.7003800128.75391174.8~ 00128.75391 174.8 1101010111 1100010000 1100100101 10000010010 10000110110 1011110001 1100110100 1101101010 1011101101 1101011100 1011010111 1011111110 10000100110 10000111001 1100001011 1100000001 1100000001 1011111010 20.813 51.354 1004.1 19670 16 0 6 58 51 4 $GNGGA,104038.00,4333.70038,N,00128.75391,E,1,07,1.56,174.8,M,53.8,M,,*44
20 10 40 39 4333.7007900128.75427174.8~ 00128.75427 174.8 1101010111 1100010100 1100101000 10000001001 10000110100 1011110100 1100110111 1101100110 1011101011 1101011100 1011011000 1011111100 10000101000 10000111010 1100010001 1100000100 1011111111 1011111000 20.813 51.369 1004.1 20668 16 0 6 60 50 4 $GNGGA,104039.00,4333.70079,N,00128.75427,E,1,07,1.56,174.8,M,53.8,M,,*4A
21 10 40 40 4333.7015100128.75485174.7~ 00128.75485 174.7 1101010111 1100010011 1100101001 10000010001 10000111000 1011110111 1100111000 1101100111 1011101100 1101011100 1011010101 1100000010 10000100100 10000111011 1100001011 1100000100 1011111110 1011111100 20.813 51.369 1004.1 21673 17 0 6 59 50 4 $GNGGA,104040.00,4333.70151,N,00128.75485,E,1,07,1.56,174.7,M,53.8,M,,*48
22 10 40 41 4333.7015900128.75482174.6~ 00128.75482 174.6 1101010111 1100010010 1100100111 10000001001 10000110110 1011110001 1100111000 1101101111 1011101111 1101011100 1011011000 1100000011 10000101001 10000111011 1100001001 1100000011 1100000011 1011110110 20.813 51.362 1004.1 22672 16 1 5 60 51 3 $GNGGA,104041.00,4333.70159,N,00128.75482,E,1,07,1.56,174.6,M,53.8,M,,*47
23 10 40 42 4333.7020000128.75510174.8~ 00128.75510 174.8 1101010111 1100010100 1100101000 10000001100 10000110101 1011110100 1100111101 1101101001 1011101011 1101011100 1011010111 1011111111 10000100111 10000111001 1100001010 1100000010 1100000010 1011111000 20.813 51.354 1004.1 23672 17 1 5 58 51 3 $GNGGA,104042.00,4333.70200,N,00128.75510,E,1,07,1.56,174.8,M,53.8,M,,*4F
24 10 40 43 4333.7022300128.75537174.7~ 00128.75537 174.7 1101010111 1100010100 1100100110 10000010001 10000110101 1011110011 1100111000 1101101100 1011110100 1101011100 1011010101 1011111101 10000100000 10000111001 1100001101 1100000010 1100000111 1011111100 20.813 51.346 1004.1 24677 16 0 5 59 51 4 $GNGGA,104043.00,4333.70223,N,00128.75537,E,1,07,1.56,174.7,M,53.8,M,,*45
25 10 40 44 4333.7026400128.75560174.8~ 00128.75560 174.8 1101010111 1100010011 1100100111 10000010000 10000111010 1011101100 1100110101 1101101111 1011110110 1101011100 1011011011 1011111111 10000100001 10000111010 1100001101 1100000000 1100001000 1100000000 20.813 51.362 1004.1 25678 17 1 5 59 51 3 $GNGGA,104044.00,4333.70264,N,00128.75560,E,1,07,1.56,174.8,M,53.8,M,,*4C
26 10 40 45 4333.7024700128.75541174.8~ 00128.75541 174.8 1101010111 1100010001 1100100110 10000001111 10000110111 1011110100 1100110110 1101101101 1011101111 1101011100 1011010110 1011111111 10000100110 10000111010 1100001010 1100000011 1100000010 1100000011 20.813 51.362 1004.1 26684 17 0 5 59 51 4 $GNGGA,104045.00,4333.70247,N,00128.75541,E,1,07,1.56,174.8,M,53.8,M,,*4F
27 10 40 46 4333.7027100128.75553174.8~ 00128.75553 174.8 1101010111 1100010100 1100100101 10000001011 10000110110 1011110011 1100111001 1101101110 1011110010 1101011100 1011010111 1011111111 10000100100 10000111010 1100001001 1100000100 1100000001 1011111110 20.813 51.339 1004.1 27683 17 0 6 59 50 4 $GNGGA,104046.00,4333.70271,N,00128.75553,E,1,07,1.56,174.8,M,53.8,M,,*4A
28 10 40 47 4333.7028500128.75534174.7~ 00128.75534 174.7 1101010111 1100010011 1100100101 10000001011 10000110110 1011101111 1100110110 1101101010 1011101111 1101011100 1011011011 1100000011 10000100010 10000111001 1100000101 1011111110 1100000001 1011111010 20.813 51.323 1004.1 28684 17 0 5 58 52 4 $GNGGA,104047.00,4333.70285,N,00128.75534,E,1,07,1.56,174.7,M,53.8,M,,*4E
29 10 40 48 4333.7030900128.75547174.3~ 00128.75547 174.3 1101010111 1100010011 1100101000 10000010000 10000110101 1011101101 1100110101 1101101100 1011110001 1101011100 1011010100 1011111101 10000100100 10000111011 1100001101 1100000110 1100001001 1011111011 20.813 51.331 1004.1 29688 17 0 6 59 50 4 $GNGGA,104048.00,4333.70309,N,00128.75547,E,1,07,1.56,174.3,M,53.8,M,,*44
30 10 40 49 4333.7033400128.75564174.3~ 00128.75564 174.3 1101010111 1100010001 1100100110 10000001010 10000111000 1011110101 1100111000 1101101101 1011100110 1101011101 1011010110 1011111111 10000011110 10000111001 1100001000 1100000000 1100001000 1100000011 20.813 51.301 1004.1 30689 16 1 5 58 52 3 $GNGGA,104049.00,4333.70334,N,00128.75564,E,1,07,1.56,174.3,M,53.8,M,,*4A
31 10 40 50 4333.7021200128.75314174.7~ 00128.75314 174.7 1101010111 1100010001 1100100101 10000001011 10000110100 1011101100 1100110110 1101100100 1011100100 1101011101 1011011011 1100000000 10000100100 10000111001 1100000110 1011111101 1100000011 1011111001 20.813 51.262 1004.1 31692 17 1 5 59 51 3 $GNGGA,104050.00,4333.70212,N,00128.75314,E,1,08,1.04,174.7,M,53.8,M,,*4A
32 10 40 51 4333.7020800128.75327174.9~ 00128.75327 174.9 1101010111 1100010011 1100100111 10000010010 10000111000 1011101111 1100110111 1101110000 1011110011 1101011100 1011011010 1100000010 10000101100 10000111101 1100001001 1100000001 1011111111 1011111100 20.813 51.285 1004.1 32693 16 1 5 59 52 3 $GNGGA,104051.00,4333.70208,N,00128.75327,E,1,07,1.56,174.9,M,53.8,M,,*46
33 10 40 52 4333.7021500128.75355174.9~ 00128.75355 174.9 1101010111 1100010010 1100100110 10000001110 10000111001 1011101110 1100110001 1101100110 1011101111 1101011100 1011010000 1011111010 10000100111 10000111011 1100010000 1100000110 1100000001 1011111100 20.813 51.323 1004.1 33699 17 0 6 59 50 4 $GNGGA,104052.00,4333.70215,N,00128.75355,E,1,07,1.56,174.9,M,53.8,M,,*4C
34 10 40 53 4333.7012600128.75185175.2~ 00128.75185 175.2 1101010111 1100010100 1100101001 10000001000 10000110011 1011110010 1100110011 1101100111 1011101100 1101011101 1011010110 1100000001 10000101011 10000111011 1100010010 1011111110 1100000101 1011111110 20.813 51.323 1004.0 34701 16 0 5 58 52 4 $GNGGA,104053.00,4333.70126,N,00128.75185,E,1,08,1.04,175.2,M,53.8,M,,*43
35 10 40 54 4333.7001500128.75028176.1~ 00128.75028 176.1 1101010111 1100010110 1100101000 10000000111 10000110001 1011110110 1100111001 1101101001 1011101010 1101011100 1011011001 1100000010 10000100011 10000111010 1100001100 1100000101 1100000011 1011111100 20.813 51.331 1004.1 35704 17 1 5 59 51 3 $GNGGA,104054.00,4333.70015,N,00128.75028,E,1,08,1.04,176.1,M,53.8,M,,*43
36 10 40 55 4333.6993800128.74951176.8~ 00128.74951 176.8 1101010111 1100010010 1100100111 10000000110 10000110000 1011110110 1100111110 1101101101 1011100110 1101011100 1011010111 1011111111 10000100101 10000111000 1100001111 1100000101 1100000101 1011111001 20.813 51.285 1004.1 36707 16 0 6 59 51 4 $GNGGA,104055.00,4333.69938,N,00128.74951,E,1,08,1.04,176.8,M,53.8,M,,*43
37 10 40 56 4333.6988300128.74883177.6~ 00128.74883 177.6 1101010111 1100010100 1100100111 10000001101 10000110110 1011111011 1100111001 1101101001 1011101101 1101011100 1011011000 1100000000 10000100111 10000111011 1100001011 1100000001 1100000111 1011111110 20.813 51.301 1004.0 37711 17 1 5 59 51 3 $GNGGA,104056.00,4333.69883,N,00128.74883,E,1,08,1.04,177.6,M,53.8,M,,*40
38 10 40 57 4333.6977700128.74762178.4~ 00128.74762 178.4 1101010111 1100010101 1100101001 10000010011 10000110111 1011101111 1100110101 1101011011 1011011011 1101011100 1011010110 1100000000 10000100100 10000111100 1100001101 1100000011 1011111101 1011110100 20.813 51.270 1004.1 38712 16 0 5 58 52 4 $GNGGA,104057.00,4333.69777,N,00128.74762,E,1,08,1.04,178.4,M,53.8,M,,*48
39 10 40 58 4333.6970500128.74672179.3~ 00128.74672 179.3 1101010111 1100010011 1100100101 10000001101 10000110100 1011101111 1100110100 1101101000 1011100110 1101011100 1011010100 1011111111 10000100111 10000111010 1100001001 1011111110 1100000101 1011111100 20.813 51.270 1004.1 39717 17 1 5 59 51 3 $GNGGA,104058.00,4333.69705,N,00128.74672,E,1,07,1.12,179.3,M,53.8,M,,*4C
40 10 40 59 4333.6968000128.74633180.1~ 00128.74633 180.1 1101010111 1100010001 1100100110 10000001100 10000110110 1011110001 1100111000 1101101001 1011101111 1101011100 1011010101 1011111101 10000101010 10000111010 1100001011 1100000111 1011111001 1011111000 20.813 51.293 1004.1 40724 16 0 6 60 50 4 $GNGGA,104059.00,4333.69680,N,00128.74633,E,1,07,1.12,180.1,M,53.8,M,,*40
41 10 41 00 4333.6964300128.74585180.5~ 00128.74585 180.5 1101010111 1100010010 1100100101 10000001001 10000110100 1011110000 1100110100 1101101000 1011111001 1101011100 1011010100 1011111101 10000101110 10000111100 1100000101 1100000001 1100000000 1011111011 20.813 51.354 1004.1 41731 16 1 5 59 51 4 $GNGGA,104100.00,4333.69643,N,00128.74585,E,1,06,1.16,180.5,M,53.8,M,,*4D
42 10 41 01 4333.6959100128.74516181.2~ 00128.74516 181.2 1101010111 1100010101 1100100111 10000001100 10000110110 1011110000 1100110110 1101101100 1011110001 1101011101 1011011000 1011111110 10000100111 10000111010 1100001000 1100000011 1100001001 1011111010 20.813 51.400 1004.1 42735 17 1 5 60 51 3 $GNGGA,104101.00,4333.69591,N,00128.74516,E,1,06,1.16,181.2,M,53.8,M,,*4C
43 10 41 02 4333.6953100128.74443181.8~ 00128.74443 181.8 1101010111 1100001111 1100100101 10000010011 10000111011 1011110011 1100110111 1101101100 1011101111 1101011100 1011011000 1100000000 10000101000 10000111100 1100001010 1011111011 1011111111 1011110101 20.813 51.423 1004.1 43736 16 2 5 59 50 4 $GNGGA,104102.00,4333.69531,N,00128.74443,E,1,06,1.16,181.8,M,53.8,M,,*4E
44 10 41 03 4333.6946200128.74363182.0~ 00128.74363 182.0 1101010111 1100010001 1100100110 10000001110 10000110011 1011110001 1100110011 1101110001 1011110111 1101011100 1011011010 1100000001 10000100110 10000111001 1100001010 1100000001 1100000101 1100001000 20.813 51.438 1004.1 44742 17 1 5 60 51 3 $GNGGA,104103.00,4333.69462,N,00128.74363,E,1,06,1.16,182.0,M,53.8,M,,*46
45 10 41 04 4333.6942100128.74300182.2~ 00128.74300 182.2 1101010111 1100010000 1100100100 10000001110 10000110111 1011110011 1100110111 1101101000 1011110011 1101011100 1011010111 1011111110 10000100010 10000111000 1100001100 1100000011 1011111110 1011111000 20.813 51.438 1004.1 45749 17 0 5 59 51 4 $GNGGA,104104.00,4333.69421,N,00128.74300,E,1,06,1.16,182.2,M,53.8,M,,*41
46 10 41 05 4333.6938100128.74249182.5~ 00128.74249 182.5 1101010111 1100010010 1100100011 10000000101 10000110100 1011110110 1100111000 1101101101 1011101111 1101011100 1011010101 1100000000 10000100110 10000111001 1100000101 1011111101 1100000111 1100000010 20.813 51.446 1004.1 46755 17 1 5 59 51 3 $GNGGA,104105.00,4333.69381,N,00128.74249,E,1,06,1.16,182.5,M,53.8,M,,*46
47 10 41 06 4333.6936800128.74215182.7~ 00128.74215 182.7 1101010111 1100010100 1100100101 10000001000 10000110001 1011110000 1100110110 1101100101 1011101011 1101011100 1011010111 1100000001 10000100101 10000111100 1100001000 1100000000 1011111110 1011111011 20.813 51.438 1004.1 47761 16 1 5 60 50 4 $GNGGA,104106.00,4333.69368,N,00128.74215,E,1,05,2.80,182.7,M,53.8,M,,*46
48 10 41 07 4333.6940800128.74264183.0~ 00128.74264 183.0 1101010111 1100010001 1100100101 10000000111 10000110011 1011101111 1100110111 1101100110 1011100111 1101011101 1011011000 1011111110 10000101011 10000111100 1100000110 1100000001 1100000010 1011111000 20.813 51.438 1004.1 48766 16 0 7 59 50 4 $GNGGA,104107.00,4333.69408,N,00128.74264,E,1,05,2.80,183.0,M,53.8,M,,*46
49 10 41 08 4333.6940500128.74260183.1~ 00128.74260 183.1 1101010111 1100010100 1100101001 10000001001 10000110100 1011110000 1100110111 1101101011 1011101101 1101011101 1011010111 1100000000 10000100011 10000111010 1100001110 1100000011 1100000000 1011111110 20.813 51.453 1004.1 49766 16 1 5 60 51 3 $GNGGA,104108.00,4333.69405,N,00128.74260,E,1,05,2.80,183.1,M,53.8,M,,*41
50 10 41 09 4333.6939300128.74237183.0~ 00128.74237 183.0 1101010111 1100010100 1100100111 10000001011 10000110101 1011110001 1100110100 1101100110 1011101100 1101011101 1011010111 1011111110 10000100100 10000111000 1100001110 1100000011 1100001010 1011111111 20.813 51.751 1004.1 50766 17 0 6 59 50 4 $GNGGA,104109.00,4333.69393,N,00128.74237,E,1,06,1.16,183.0,M,53.8,M,,*44
51 10 41 10 4333.6938800128.74249183.3~ 00128.74249 183.3 1101010111 1100010101 1100101010 10000001100 10000110111 1011110110 1100110110 1101101010 1011101100 1101011100 1011010111 1011111111 10000100111 10000111100 1100001001 1100000000 1100000100 1011111110 20.813 51.781 1004.1 51766 16 1 5 59 52 3 $GNGGA,104110.00,4333.69388,N,00128.74249,E,1,06,1.16,183.3,M,53.8,M,,*4C
52 10 41 11 4333.6940200128.74280183.4~ 00128.74280 183.4 1101010111 1100010000 1100100111 10000001110 10000111000 1011101111 1100110111 1101100111 1011100110 1101011100 1011010111 1011111110 10000100100 10000111100 1100001101 1100000100 1100001011 1100001000 20.813 51.690 1004.1 52772 17 0 5 58 51 4 $GNGGA,104111.00,4333.69402,N,00128.74280,E,1,06,1.16,183.4,M,53.8,M,,*4A
53 10 41 12 4333.6939800128.74286183.2~ 00128.74286 183.2 1101010111 1100010100 1100100111 10000001011 10000111001 1011110111 1100111111 1101101110 1011110100 1101011100 1011011001 1011111111 10000101001 10000111100 1100001010 1100000000 1100000001 1011111101 20.813 51.621 1004.1 53776 16 1 5 59 51 3 $GNGGA,104112.00,4333.69398,N,00128.74286,E,1,05,2.79,183.2,M,53.8,M,,*44
54 10 41 13 4333.6941100128.74288183.3~ 00128.74288 183.3 1101010111 1100010010 1100100100 10000010010 10000110111 1011110010 1100110110 1101100111 1011110100 1101011100 1011010110 1011111101 10000100010 10000111011 1100001010 1100000001 1100000001 1011111110 20.813 51.583 1004.1 54778 18 0 5 58 51 4 $GNGGA,104113.00,4333.69411,N,00128.74288,E,1,05,2.79,183.3,M,53.8,M,,*4C
55 10 41 14 4333.6943000128.74323183.2~ 00128.74323 183.2 1101010111 1100010001 1100100100 10000001100 10000110111 1011110001 1100110100 1101100011 1011101110 1101011100 1011011100 1100000001 10000100110 10000111011 1100001111 1100000001 1011111111 1011111001 20.813 51.552 1004.1 55778 16 1 5 58 52 3 $GNGGA,104114.00,4333.69430,N,00128.74323,E,1,05,2.79,183.2,M,53.8,M,,*49
56 10 41 15 4333.6941200128.74276183.6~ 00128.74276 183.6 1101010111 1100010011 1100100110 10000001001 10000110011 1011110110 1100111111 1101100110 1011100100 1101011100 1011010111 1011111111 10000101100 10000111001 1100001110 1100000110 1100000010 1100000010 20.875 51.529 1004.1 56784 17 1 5 58 51 3 $GNGGA,104115.00,4333.69412,N,00128.74276,E,1,06,1.62,183.6,M,53.8,M,,*47
57 10 41 16 4333.6940200128.74235183.8~ 00128.74235 183.8 1101010111 1100010010 1100100101 10000010000 10000110101 1011110101 1100111001 1101011110 1011100011 1101011100 1011011001 1011111111 10000100100 10000110111 1100001101 1100000010 1100000100 1011110100 20.813 51.514 1004.1 57784 16 1 5 59 52 3 $GNGGA,104116.00,4333.69402,N,00128.74235,E,1,06,1.62,183.8,M,53.8,M,,*4C
58 10 41 17 4333.6937300128.74162184.3~ 00128.74162 184.3 1101010111 1100010101 1100100110 10000010011 10000110111 1011111001 1100111110 1101101101 1011101110 1101011100 1011010110 1011111111 10000100101 10000111011 1100001100 1011111111 1100000010 1011111110 20.813 51.499 1004.1 58790 17 0 6 59 50 4 $GNGGA,104117.00,4333.69373,N,00128.74162,E,1,06,1.62,184.3,M,53.8,M,,*41
59 10 41 18 4333.6936300128.74124184.3~ 00128.74124 184.3 1101010111 1100010001 1100100101 10000001100 10000110010 1011110010 1100110011 1101110000 1011101111 1101011100 1011010101 1011111101 10000100110 10000111010 1100000100 1100000011 1011111111 1011111101 20.813 51.499 1004.1 59797 16 0 5 59 51 4 $GNGGA,104118.00,4333.69363,N,00128.74124,E,1,06,1.62,184.3,M,53.8,M,,*4D
60 10 41 19 4333.6940200128.74146184.5~ 00128.74146 184.5 1101010111 1100010000 1100100101 10000010100 10000110110 1011101110 1100110100 1101101110 1011101110 1101011100 1011010101 1011111011 10000100101 10000111000 1100001010 1011111111 1011111010 1011110100 20.813 51.499 1004.1 60804 17 0 5 58 51 5 $GNGGA,104119.00,4333.69402,N,00128.74146,E,1,06,1.62,184.5,M,53.8,M,,*4E
61 10 41 20 4333.6937700128.74145185.2~ 00128.74145 185.2 1101010111 1100010011 1100100111 10000001110 10000110110 1011110000 1100110110 1101101101 1011110100 1101011100 1011010110 1100000001 10000101101 10000111100 1100001000 1011111111 1011111011 1011110001 20.875 51.453 1004.1 61803 17 0 5 59 51 4 $GNGGA,104120.00,4333.69377,N,00128.74145,E,1,06,1.62,185.2,M,53.8,M,,*44
62 10 41 21 4333.6936700128.74099185.0~ 00128.74099 185.0 1101010111 1100010010 1100101000 10000001011 10000111000 1011110010 1100111010 1101101101 1011101011 1101011100 1011011100 1100000010 10000100011 10000111011 1100001010 1100001001 1100000011 1011111011 20.875 51.346 1004.1 62809 16 0 6 59 50 5 $GNGGA,104121.00,4333.69367,N,00128.74099,E,1,06,1.62,185.0,M,53.8,M,,*46
63 10 41 22 4333.6935400128.74078185.3~ 00128.74078 185.3 1101010111 1100010011 1100100011 10000001011 10000110111 1011110010 1100110110 1101101111 1011100111 1101011100 1011010111 1100000001 10000101001 10000111100 1100000111 1011111110 1100000011 1011111001 20.813 51.316 1004.1 63809 16 0 5 59 51 4 $GNGGA,104122.00,4333.69354,N,00128.74078,E,1,06,1.62,185.3,M,53.8,M,,*49
64 10 41 23 4333.6935400128.74076185.7~ 00128.74076 185.7 1101010111 1100010101 1100101001 10000001011 10000110010 1011110011 1100110101 1101110000 1011101011 1101011100 1011011011 1100000001 10000101000 10000111010 1100001100 1100000000 1100001100 1100000001 20.813 51.400 1004.0 64813 16 2 5 59 51 3 $GNGGA,104123.00,4333.69354,N,00128.74076,E,1,06,1.62,185.7,M,53.8,M,,*42
65 10 41 24 4333.6934800128.74061186.3~ 00128.74061 186.3 1101010111 1100010001 1100100111 10000001010 10000110101 1011110000 1100111001 1101100110 1011101000 1101011101 1011010011 1011111111 10000011110 10000111001 1100001101 1100000101 1100000000 1011111011 20.813 51.438 1004.0 65814 16 0 5 59 51 4 $GNGGA,104124.00,4333.69348,N,00128.74061,E,1,06,1.62,186.3,M,53.8,M,,*49
66 10 41 25 4333.6937700128.74115187.0~ 00128.74115 187.0 1101010111 1100010011 1100101000 10000001100 10000110101 1011110000 1100111000 1101101011 1011101011 1101011101 1011011000 1100000000 10000100101 10000111110 1100001011 1011111111 1100000010 1011111110 20.813 51.384 1004.0 66820 16 1 5 59 51 4 $GNGGA,104125.00,4333.69377,N,00128.74115,E,1,06,1.61,187.0,M,53.8,M,,*47
67 10 41 26 4333.6935900128.74115187.8~ 00128.74115 187.8 1101010111 1100010010 1100100100 10000000111 10000110110 1011110110 1100111000 1101100110 1011011110 1101011100 1011010110 1100000000 10000101000 10000111011 1100001001 1100000001 1100000101 1011111101 20.813 51.331 1004.1 67826 17 0 5 59 51 4 $GNGGA,104126.00,4333.69359,N,00128.74115,E,1,06,1.61,187.8,M,53.8,M,,*40
68 10 41 27 4333.6936000128.74151187.9~ 00128.74151 187.9 1101010111 1100010100 1100100111 10000001011 10000110101 1011110101 1100111100 1101100110 1011100000 1101011100 1011011000 1100000001 10000100101 10000111010 1100001111 1100001001 1100000101 1011111110 20.875 51.346 1004.1 68833 16 0 5 58 52 4 $GNGGA,104127.00,4333.69360,N,00128.74151,E,1,05,2.79,187.9,M,53.8,M,,*43
69 10 41 28 4333.6940100128.74221188.0~ 00128.74221 188.0 1101010111 1100010000 1100100111 10000001111 10000110111 1011110101 1100111011 1101101001 1011101000 1101011100 1011010110 1100000000 10000100010 10000111011 1100001100 1100000011 1100000001 1011111100 20.875 51.377 1004.1 69839 17 0 5 58 51 4 $GNGGA,104128.00,4333.69401,N,00128.74221,E,1,05,2.79,188.0,M,53.8,M,,*4E
70 10 41 29 4333.6943900128.74296188.2~ 00128.74296 188.2 1101010111 1100010100 1100101000 10000001001 10000110011 1011110011 1100111011 1101101010 1011100011 1101011100 1011010110 1011111110 10000100000 10000111001 1100001011 1100000010 1011111101 1011110110 20.813 51.354 1004.0 70839 17 0 5 59 51 4 $GNGGA,104129.00,4333.69439,N,00128.74296,E,1,05,2.79,188.2,M,53.8,M,,*4A
71 10 41 30 4333.6934000128.74162188.7~ 00128.74162 188.7 1101010111 1100010010 1100100100 10000010011 10000110111 1011110101 1100110101 1101101101 1011100101 1101011101 1011010011 1011111101 10000100011 10000111001 1100001101 1100000011 1011111100 1011111100 20.813 51.339 1004.0 71843 18 0 5 58 51 4 $GNGGA,104130.00,4333.69340,N,00128.74162,E,1,05,2.79,188.7,M,53.8,M,,*46
72 10 41 31 4333.6935800128.74197188.5~ 00128.74197 188.5 1101010111 1100010010 1100100101 10000001011 10000110100 1011111000 1100111101 1101101010 1011100111 1101011101 1011010100 1011111110 10000011100 10000111000 1100000101 1100000001 1100000000 1011111100 20.875 51.323 1004.0 72844 16 1 5 58 52 3 $GNGGA,104131.00,4333.69358,N,00128.74197,E,1,06,1.61,188.5,M,53.8,M,,*4F
73 10 41 32 4333.6935400128.74158188.6~ 00128.74158 188.6 1101010111 1100010011 1100100110 10000000110 10000110100 1011110101 1100110110 1101100101 1011010111 1101011100 1011010010 1011111011 10000100011 10000111010 1100001001 1100000100 1011111111 1011111011 20.813 51.316 1004.0 73849 17 1 5 59 51 3 $GNGGA,104132.00,4333.69354,N,00128.74158,E,1,06,1.61,188.6,M,53.8,M,,*40
74 10 41 33 4333.6936000128.74153188.5~ 00128.74153 188.5 1101010111 1100010010 1100100101 10000001011 10000110110 1011110011 1100110100 1101101110 1011101001 1101011100 1011010110 1100000000 10000011111 10000110111 1100001010 1011111111 1100000100 1011110111 20.813 51.301 1004.1 74851 17 0 5 58 52 4 $GNGGA,104133.00,4333.69360,N,00128.74153,E,1,06,1.61,188.5,M,53.8,M,,*4E
75 10 41 34 4333.6937300128.74179189.0~ 00128.74179 189.0 1101010111 1100010011 1100100101 10000000111 10000110010 1011110010 1100110101 1101101011 1011101000 1101011100 1011010101 1011111101 10000101001 10000111100 1100001101 1100000100 1100000010 1011111100 20.813 51.301 1004.1 75857 17 1 5 58 51 3 $GNGGA,104134.00,4333.69373,N,00128.74179,E,1,06,1.61,189.0,M,53.8,M,,*47
76 10 41 35 4333.6937100128.74186189.3~ 00128.74186 189.3 1101010111 1100010011 1100100110 10000001100 10000110101 1011110010 1100110111 1101101010 1011101001 1101011100 1011010101 1011111111 10000100100 10000111010 1100001011 1100000010 1011111110 1011110011 20.813 51.301 1004.1 76857 16 1 5 58 52 3 $GNGGA,104135.00,4333.69371,N,00128.74186,E,1,06,1.61,189.3,M,53.8,M,,*47
77 10 41 36 4333.6936500128.74205189.9~ 00128.74205 189.9 1101010111 1100010011 1100100101 10000000101 10000110010 1011110101 1100111110 1101100110 1011101110 1101011100 1011010101 1011111111 10000100100 10000111100 1100001110 1100001001 1100000100 1011111110 20.875 51.293 1004.1 77862 17 0 5 58 51 4 $GNGGA,104136.00,4333.69365,N,00128.74205,E,1,05,2.79,189.9,M,53.8,M,,*4A
78 10 41 37 4333.6938500128.74246190.1~ 00128.74246 190.1 1101010111 1100010011 1100100111 10000010001 10000110110 1011110000 1100110111 1101101101 1011110011 1101011101 1011010100 1011111110 10000100010 10000111001 1100010000 1100000011 1011111110 1011111000 20.813 51.293 1004.1 78862 17 0 5 58 52 4 $GNGGA,104137.00,4333.69385,N,00128.74246,E,1,05,2.79,190.1,M,53.8,M,,*42
79 10 41 38 4333.6944700128.74329190.2~ 00128.74329 190.2 1101010111 1100010011 1100100111 10000001011 10000110110 1011110010 1100110010 1101101100 1011110010 1101011101 1011010111 1011111100 10000100001 10000111010 1100010110 1100000111 1011111110 1011111100 20.813 51.529 1004.1 79868 16 1 6 59 51 3 $GNGGA,104138.00,4333.69447,N,00128.74329,E,1,05,2.79,190.2,M,53.8,M,,*4F
80 10 41 39 4333.6945300128.74322190.2~ 00128.74322 190.2 1101010111 1100010100 1100101010 10000001101 10000111001 1011110010 1100110010 1101101100 1011110001 1101011101 1011010101 1011111100 10000011011 10000111001 1100001111 1100000101 1100000110 1011111010 20.813 52.071 1004.1 80874 16 1 5 59 51 3 $GNGGA,104139.00,4333.69453,N,00128.74322,E,1,05,2.79,190.2,M,53.8,M,,*40
81 10 41 40 4333.6945400128.74338190.2~ 00128.74338 190.2 1101010111 1100010010 1100100101 10000001110 10000110100 1011110110 1100111011 1101101110 1011110000 1101011101 1011010111 1100000100 10000011111 10000111001 1100001110 1100000110 1100000111 1011110111 20.813 52.002 1004.0 81880 16 2 5 59 51 3 $GNGGA,104140.00,4333.69454,N,00128.74338,E,1,05,2.79,190.2,M,53.8,M,,*42
82 10 41 41 4333.6951400128.74430190.1~ 00128.74430 190.1 1101010111 1100010011 1100100110 10000001110 10000110110 1011101010 1100110000 1101101011 1011100111 1101011101 1011010011 1011111110 10000100001 10000111001 1100001000 1100000000 1011111001 1011110111 20.875 51.842 1004.1 82885 17 0 6 60 50 4 $GNGGA,104141.00,4333.69514,N,00128.74430,E,1,05,2.79,190.1,M,53.8,M,,*4A
83 10 41 42 4333.6955700128.74525190.0~ 00128.74525 190.0 1101010111 1100010000 1100100110 10000010100 10000111001 1011110100 1100110110 1101110010 1011110010 1101011101 1011010110 1100000001 10000100011 10000111010 1100000111 1100000010 1100000100 1011111101 20.813 51.796 1004.1 83893 16 1 5 59 51 4 $GNGGA,104142.00,4333.69557,N,00128.74525,E,1,05,2.79,190.0,M,53.8,M,,*4A
84 10 41 43 4333.6955000128.74506189.9~ 00128.74506 189.9 1101010111 1100001111 1100100100 10000001110 10000110111 1011110011 1100110111 1101101111 1011101011 1101011101 1011010101 1011111110 10000011100 10000111011 1100001010 1100000011 1100001100 1011111111 20.813 51.888 1004.0 84900 17 0 5 58 51 4 $GNGGA,104143.00,4333.69550,N,00128.74506,E,1,05,2.78,189.9,M,53.8,M,,*4D
85 10 41 44 4333.6962900128.74646189.7~ 00128.74646 189.7 1101010111 1100010100 1100101000 10000000010 10000110000 1011101111 1100110011 1101101011 1011101010 1101011101 1011010110 1011111110 10000100010 10000111010 1100001111 1100000111 1100000000 1011110101 20.875 51.842 1004.0 85900 16 0 5 58 52 4 $GNGGA,104144.00,4333.69629,N,00128.74646,E,1,05,2.78,189.7,M,53.8,M,,*4E
86 10 41 45 4333.6963300128.74681189.5~ 00128.74681 189.5 1101010111 1100010100 1100100111 10000001001 10000110100 1011110010 1100111001 1101101010 1011100101 1101011101 1011010010 1011111101 10000100011 10000111010 1100001001 1100000001 1100000001 1011111011 20.813 51.835 1004.0 86905 17 1 5 59 51 3 $GNGGA,104145.00,4333.69633,N,00128.74681,E,1,05,2.78,189.5,M,53.8,M,,*4D
87 10 41 46 4333.6969000128.74772189.4~ 00128.74772 189.4 1101010111 1100010110 1100100111 10000001011 10000110011 1011110100 1100111000 1101110010 1011110001 1101011100 1011010100 1011111110 10000100001 10000111010 1100001101 1100001000 1100000010 1011111110 20.875 51.682 1004.0 87912 16 1 5 60 51 3 $GNGGA,104146.00,4333.69690,N,00128.74772,E,1,05,2.78,189.4,M,53.8,M,,*4B
88 10 41 47 4333.6975400128.74884189.0~ 00128.74884 189.0 1101010111 1100010011 1100100111 10000001001 10000110110 1011110110 1100111011 1101101001 1011100100 1101011100 1011010110 1011111011 10000100111 10000111011 1100001110 1100000100 1011111101 1011111001 20.813 51.537 1004.0 88920 16 2 5 59 51 3 $GNGGA,104147.00,4333.69754,N,00128.74884,E,1,05,2.78,189.0,M,53.8,M,,*41
89 10 41 48 4333.6978500128.74964188.6~ 00128.74964 188.6 1101010111 1100010010 1100100110 10000001111 10000110100 1011110101 1100110111 1101101101 1011011110 1101011100 1011011000 1100000010 10000011101 10000111001 1100001110 1100000001 1100000000 1100000010 20.813 51.461 1004.0 89919 16 1 5 60 51 3 $GNGGA,104148.00,4333.69785,N,00128.74964,E,1,05,2.78,188.6,M,53.8,M,,*4A
90 10 41 49 4333.6983400128.75030188.4~ 00128.75030 188.4 1101010111 1100010011 1100100110 10000001001 10000110110 1011101111 1100110111 1101101110 1011101100 1101011101 1011010001 1011111111 10000011110 10000111001 1100001110 1100000100 1100000111 1100000001 20.875 51.446 1004.0 90927 17 0 5 59 50 5 $GNGGA,104149.00,4333.69834,N,00128.75030,E,1,05,2.78,188.4,M,53.8,M,,*45
91 10 41 50 4333.6991900128.75129188.2~ 00128.75129 188.2 1101010111 1100010011 1100101001 10000001110 10000110111 1011111001 1100111000 1101101100 1011101010 1101011101 1011010110 1011111111 10000100001 10000111011 1100001010 1011111111 1100000011 1011111010 20.875 51.392 1004.0 91925 16 1 5 60 51 3 $GNGGA,104150.00,4333.69919,N,00128.75129,E,1,05,2.78,188.2,M,53.8,M,,*4C
92 10 41 51 4333.6995700128.75192187.8~ 00128.75192 187.8 1101010111 1100010010 1100100101 10000010001 10000110110 1011101111 1100110101 1101100110 1011110100 1101011100 1011010010 1011111011 10000100100 10000111101 1100001001 1011111110 1100000000 1011110110 20.813 51.369 1004.0 92932 16 1 5 59 51 4 $GNGGA,104151.00,4333.69957,N,00128.75192,E,1,05,2.78,187.8,M,53.8,M,,*42
93 10 41 52 4333.6997200128.75218187.5~ 00128.75218 187.5 1101010111 1100010100 1100100101 10000001001 10000110110 1011110001 1100111000 1101101000 1011110001 1101011101 1011010111 1100000000 10000100010 10000111011 1100001001 1011111101 1011111100 1011110110 20.875 51.392 1004.0 93937 17 0 5 59 51 4 $GNGGA,104152.00,4333.69972,N,00128.75218,E,1,05,2.78,187.5,M,53.8,M,,*4A
94 10 41 53 4333.6994000128.75157187.3~ 00128.75157 187.3 1101010111 1100010110 1100101000 10000001011 10000110110 1011111000 1100111100 1101110011 1011111001 1101011100 1011010110 1100000000 10000011111 10000111001 1100001100 1100000110 1011110111 1011110101 20.813 51.384 1004.0 94938 16 1 5 59 51 4 $GNGGA,104153.00,4333.69940,N,00128.75157,E,1,05,2.78,187.3,M,53.8,M,,*44
