id HH MM SS longitude latitude altitude adc_1_ch0 adc_1_ch1 adc_1_ch2 adc_1_ch3 adc_1_ch4 adc_1_ch5 adc_1_ch6 adc_1_ch7 adc_1_ch8 adc_2_ch0 adc_2_ch1 adc_2_ch2 adc_2_ch3 adc_2_ch4 adc_2_ch5 adc_2_ch6 adc_2_ch7 adc_2_ch8 temp hum pres t_prog t_gps t_split t_adc t_temp t_hum t_pres trame_gga
1 10 42 07 4333.7028600128.75461182.4~ 00128.75461 182.4 1101010111 1100010000 1100100110 10000001011 10000110110 1011110101 1100110110 1101101111 1011101100 1101011101 1011010111 1011111111 10000011111 10000111000 1100001101 1100000111 1100000010 1011111111 20.875 51.384 795.83 1446 17 1 5 58 51 3 $GNGGA,104207.00,4333.70286,N,00128.75461,E,1,07,1.55,182.4,M,53.8,M,,*43
2 10 42 08 4333.7026600128.75489182.0~ 00128.75489 182.0 1101010111 1100010110 1100100111 10000001111 10000110100 1011110011 1100110110 1101110001 1011101111 1101011100 1011010110 1011111111 10000100000 10000111011 1100001000 1011111111 1011111110 1011111001 20.875 51.323 1004.0 2446 16 1 5 58 52 3 $GNGGA,104208.00,4333.70266,N,00128.75489,E,1,07,1.55,182.0,M,53.8,M,,*40
3 10 42 09 4333.7021700128.75456181.5~ 00128.75456 181.5 1101010111 1100010011 1100100110 10000010111 10000111001 1011110001 1100110101 1101101101 1011101001 1101011100 1011010110 1100000000 10000100100 10000111010 1100001001 1100000011 1100000011 1011110110 20.875 51.301 1004.0 3446 17 1 5 58 51 3 $GNGGA,104209.00,4333.70217,N,00128.75456,E,1,07,1.55,181.5,M,53.8,M,,*43
4 10 42 10 4333.7018800128.75465181.2~ 00128.75465 181.2 1101010111 1100010100 1100100101 10000010010 10000110100 1011110110 1100111011 1101101001 1011101000 1101011100 1011011000 1100000001 10000100111 10000111100 1100000110 1100000000 1011111000 1011111001 20.875 51.293 1004.0 4446 16 1 5 58 52 3 $GNGGA,104210.00,4333.70188,N,00128.75465,E,1,07,1.55,181.2,M,53.8,M,,*49
5 10 42 11 4333.7023500128.75539180.8~ 00128.75539 180.8 1101010111 1100010001 1100100101 10000001000 10000110110 1011101101 1100110110 1101101011 1011101010 1101011100 1011010010 1011111110 10000100000 10000111001 1100001000 1100000001 1011111111 1011111010 20.875 51.308 1004.0 5446 17 1 5 59 51 3 $GNGGA,104211.00,4333.70235,N,00128.75539,E,1,07,1.55,180.8,M,53.8,M,,*4E
6 10 42 12 4333.7023300128.75590180.8~ 00128.75590 180.8 1101010111 1100010010 1100101000 10000001110 10000110101 1011110000 1100111000 1101101001 1011110000 1101011101 1011011000 1100000011 10000100000 10000111000 1100001011 1100001000 1011111111 1011110101 20.875 51.316 1004.0 6446 16 2 5 58 51 3 $GNGGA,104212.00,4333.70233,N,00128.75590,E,1,07,1.55,180.8,M,53.8,M,,*48
7 10 42 13 4333.7022400128.75634180.7~ 00128.75634 180.7 1101010111 1100010010 1100100110 10000001100 10000110101 1011101110 1100110010 1101100110 1011100111 1101011100 1011010111 1100000000 10000100000 10000111100 1100001101 1100000110 1011111110 1011111000 20.875 51.308 1004.0 7446 16 1 5 59 51 3 $GNGGA,104213.00,4333.70224,N,00128.75634,E,1,07,1.55,180.7,M,53.8,M,,*4D
8 10 42 14 4333.7016500128.75605180.4~ 00128.75605 180.4 1101010111 1100010011 1100101000 10000001110 10000110101 1011110110 1100111001 1101100101 1011101110 1101011100 1011011000 1100000010 10000100001 10000111000 1100001001 1100000100 1100000000 1011111100 20.875 51.301 1004.0 8446 16 1 6 58 51 3 $GNGGA,104214.00,4333.70165,N,00128.75605,E,1,07,1.55,180.4,M,53.8,M,,*4D
9 10 42 15 4333.7013600128.75559180.0~ 00128.75559 180.0 1101010111 1100010011 1100100111 10000001010 10000110011 1011101111 1100111000 1101101000 1011101100 1101011101 1011010111 1011111110 10000100011 10000111010 1100000111 1100000001 1100000111 1100000110 20.875 51.232 1004.0 9446 16 1 5 59 51 3 $GNGGA,104215.00,4333.70136,N,00128.75559,E,1,07,1.55,180.0,M,53.8,M,,*44
10 10 42 16 4333.7008300128.75568180.2~ 00128.75568 180.2 1101010111 1100010101 1100100111 10000010011 10000110111 1011110011 1100111011 1101101000 1011101001 1101011100 1011010110 1100000000 10000100100 10000111000 1100001111 1100000000 1100001011 1100000101 20.875 51.194 1004.0 10446 17 1 5 58 51 3 $GNGGA,104216.00,4333.70083,N,00128.75568,E,1,08,1.20,180.2,M,53.8,M,,*45
11 10 42 17 4333.7000400128.75548180.1~ 00128.75548 180.1 1101010111 1100010010 1100100110 10000000100 10000110101 1011110011 1100111000 1101101000 1011101010 1101011100 1011010110 1011111101 10000011100 10000111011 1100010000 1100000111 1100000000 1011111110 20.813 51.194 1004.0 11446 16 1 5 58 52 3 $GNGGA,104217.00,4333.70004,N,00128.75548,E,1,08,1.20,180.1,M,53.8,M,,*4A
12 10 42 18 4333.6991300128.75448179.9~ 00128.75448 179.9 1101010111 1100010110 1100101000 10000001111 10000111000 1011110110 1100111100 1101101011 1011100101 1101011100 1011010100 1100000000 10000100000 10000111010 1100000101 1011111110 1100000100 1011111111 20.875 51.171 1004.0 12446 17 1 5 59 51 3 $GNGGA,104218.00,4333.69913,N,00128.75448,E,1,08,1.20,179.9,M,53.8,M,,*4D
13 10 42 19 4333.6987300128.75384179.5~ 00128.75384 179.5 1101010111 1100010011 1100100111 10000001101 10000110110 1011110100 1100110110 1101101011 1011100101 1101011101 1011010110 1100000000 10000100100 10000111011 1100001010 1100000000 1100000101 1011111111 20.875 51.178 1004.0 13446 16 1 5 58 51 4 $GNGGA,104219.00,4333.69873,N,00128.75384,E,1,08,1.20,179.5,M,53.8,M,,*40
14 10 42 20 4333.6981700128.75419179.5~ 00128.75419 179.5 1101010111 1100010010 1100100100 10000001101 10000110100 1011110010 1100110111 1101100101 1011100000 1101011100 1011011011 1100000011 10000100011 10000111010 1100001100 1100000010 1100000110 1100000010 20.813 51.346 1004.0 14446 17 1 5 59 51 3 $GNGGA,104220.00,4333.69817,N,00128.75419,E,1,08,1.20,179.5,M,53.8,M,,*4B
15 10 42 21 4333.6976400128.75418179.6~ 00128.75418 179.6 1101010111 1100010001 1100100101 10000010000 10000110111 1011110110 1100110110 1101101001 1011101010 1101011101 1011010110 1011111110 10000100011 10000111011 1100001011 1100000001 1100000111 1011111111 20.813 51.346 1004.0 15446 16 1 6 58 51 3 $GNGGA,104221.00,4333.69764,N,00128.75418,E,1,08,1.20,179.6,M,53.8,M,,*43
16 10 42 22 4333.6974300128.75455179.8~ 00128.75455 179.8 1101010111 1100010100 1100101001 10000001100 10000110110 1011110100 1100111010 1101101001 1011100101 1101011101 1011010111 1011111111 10000011010 10000110111 1100001101 1100000100 1100000011 1100000001 20.813 51.407 1004.0 16446 16 1 5 59 51 3 $GNGGA,104222.00,4333.69743,N,00128.75455,E,1,08,1.20,179.8,M,53.8,M,,*42
17 10 42 23 4333.6969200128.75502180.6~ 00128.75502 180.6 1101010111 1100010001 1100100101 10000000110 10000110110 1011111001 1100111010 1101110001 1011100110 1101011100 1011010100 1011111010 10000101000 10000111010 1100001010 1011111110 1100000101 1011111011 20.875 51.392 1004.0 17446 17 1 5 58 51 3 $GNGGA,104223.00,4333.69692,N,00128.75502,E,1,08,1.20,180.6,M,53.8,M,,*45
18 10 42 24 4333.6968200128.75537180.9~ 00128.75537 180.9 1101010111 1100010001 1100100111 10000001001 10000110011 1011110000 1100110110 1101101011 1011101010 1101011100 1011010101 1100000000 10000100111 10000111100 1100001111 1100000011 1100000000 1011110101 20.813 51.377 1004.0 18446 16 1 5 58 52 3 $GNGGA,104224.00,4333.69682,N,00128.75537,E,1,07,1.55,180.9,M,53.8,M,,*47
19 10 42 25 4333.6965700128.75501181.1~ 00128.75501 181.1 1101010111 1100010001 1100100111 10000010010 10000110111 1011111000 1100111001 1101101011 1011100111 1101011101 1011010101 1100000000 10000101000 10000111011 1100001011 1100000101 1100000011 1011111000 20.875 51.362 1004.0 19446 17 1 5 58 51 3 $GNGGA,104225.00,4333.69657,N,00128.75501,E,1,08,1.20,181.1,M,53.8,M,,*4F
20 10 42 26 4333.6962400128.75462181.7~ 00128.75462 181.7 1101010111 1100010010 1100100011 10000001001 10000110100 1011110100 1100111000 1101101100 1011101001 1101011100 1011010110 1100000000 10000100010 10000111001 1100001011 1100000101 1011111001 1011111000 20.813 51.331 1004.0 20446 16 1 5 58 52 3 $GNGGA,104226.00,4333.69624,N,00128.75462,E,1,08,1.20,181.7,M,53.8,M,,*4A
21 10 42 27 4333.6959100128.75474182.1~ 00128.75474 182.1 1101010111 1100010101 1100101001 10000001111 10000111001 1011110011 1100111000 1101110000 1011101011 1101011100 1011010110 1011111100 10000100010 10000111010 1100000101 1011111111 1100000100 1100000100 20.875 51.346 1004.0 21446 17 1 5 59 51 3 $GNGGA,104227.00,4333.69591,N,00128.75474,E,1,08,1.20,182.1,M,53.8,M,,*44
22 10 42 28 4333.6958000128.75462182.9~ 00128.75462 182.9 1101010111 1100010001 1100100111 10000000110 10000110010 1011111011 1100111111 1101101010 1011100100 1101011100 1011011001 1100000001 10000100010 10000111010 1100001100 1100000101 1011111101 1011110101 20.875 51.537 1004.0 22446 16 2 5 58 51 3 $GNGGA,104228.00,4333.69580,N,00128.75462,E,1,08,1.20,182.9,M,53.8,M,,*44
23 10 42 29 4333.6955800128.75428183.0~ 00128.75428 183.0 1101010111 1100001111 1100100010 10000001110 10000110110 1011110000 1100110101 1101101011 1011101001 1101011100 1011010111 1011111111 10000100001 10000111001 1100000110 1100000110 1100000001 1011111010 20.875 51.529 1004.0 23446 16 1 5 59 51 3 $GNGGA,104229.00,4333.69558,N,00128.75428,E,1,08,1.20,183.0,M,53.8,M,,*46
24 10 42 30 4333.6955700128.75367182.9~ 00128.75367 182.9 1101010111 1100010000 1100100101 10000001000 10000110101 1011110001 1100110111 1101100111 1011100101 1101011100 1011010100 1011111111 10000100001 10000111001 1100001101 1011111111 1011111010 1011110110 20.875 51.499 1004.0 24446 16 1 6 58 51 3 $GNGGA,104230.00,4333.69557,N,00128.75367,E,1,07,1.55,182.9,M,53.8,M,,*48
25 10 42 31 4333.6956900128.75361183.1~ 00128.75361 183.1 1101010111 1100010001 1100100011 10000001011 10000111000 1011110110 1100111010 1101101100 1011110001 1101011100 1011010111 1100000000 10000100011 10000111010 1100001000 1100000011 1100000011 1011111010 20.875 51.415 1004.0 25446 16 1 5 59 51 3 $GNGGA,104231.00,4333.69569,N,00128.75361,E,1,07,1.55,183.1,M,53.8,M,,*4B
26 10 42 32 4333.6959500128.75380183.1~ 00128.75380 183.1 1101010111 1100010110 1100101001 10000001100 10000110101 1011111001 1101000000 1101110000 1011110111 1101011100 1011010011 1011111100 10000100011 10000111011 1100001010 1100000011 1100001010 1100000100 20.875 51.362 1004.0 26446 17 1 5 58 51 3 $GNGGA,104232.00,4333.69595,N,00128.75380,E,1,07,1.55,183.1,M,53.8,M,,*44
27 10 42 33 4333.6960500128.75384183.1~ 00128.75384 183.1 1101010111 1100010011 1100100110 10000001101 10000110110 1011101101 1100101111 1101100111 1011110001 1101011100 1011010111 1100000001 10000100100 10000111001 1100001011 1100000011 1100000110 1011111111 20.875 51.323 1004.0 27446 16 1 5 58 52 3 $GNGGA,104233.00,4333.69605,N,00128.75384,E,1,07,1.55,183.1,M,53.8,M,,*4B
28 10 42 34 4333.6961100128.75356183.1~ 00128.75356 183.1 1101010111 1100010011 1100100111 10000001001 10000110011 1011101010 1100110110 1101101110 1011101110 1101011101 1011010010 1011111101 10000100001 10000111011 1100001011 1100000000 1100000000 1100000000 20.875 51.262 1004.0 28446 17 1 5 59 51 3 $GNGGA,104234.00,4333.69611,N,00128.75356,E,1,07,1.55,183.1,M,53.8,M,,*46
29 10 42 35 4333.6963000128.75376183.4~ 00128.75376 183.4 1101010111 1100010010 1100100100 10000001101 10000110101 1011110001 1100110000 1101100110 1011100111 1101011100 1011010011 1011111100 10000101011 10000111011 1100001000 1100000001 1100001000 1100000100 20.875 51.217 1004.0 29446 16 1 5 58 51 4 $GNGGA,104235.00,4333.69630,N,00128.75376,E,1,08,1.20,183.4,M,53.8,M,,*4E
30 10 42 36 4333.6960800128.75346183.5~ 00128.75346 183.5 1101010111 1100010010 1100100110 10000010000 10000111010 1011110110 1100111110 1101110000 1011110100 1101011101 1011010110 1011111011 10000100111 10000111011 1100001101 1100000010 1011111111 1100000000 20.875 51.224 1004.0 30446 17 1 5 59 51 3 $GNGGA,104236.00,4333.69608,N,00128.75346,E,1,08,1.20,183.5,M,53.8,M,,*44
31 10 42 37 4333.6960700128.75335183.5~ 00128.75335 183.5 1101010111 1100010010 1100100100 10000001001 10000110100 1011110000 1100110111 1101100100 1011101011 1101011101 1011010111 1100000000 10000100101 10000111010 1100000110 1100000100 1011111010 1011110111 20.875 51.209 1004.0 31446 16 1 6 58 51 3 $GNGGA,104237.00,4333.69607,N,00128.75335,E,1,08,1.20,183.5,M,53.8,M,,*4E
32 10 42 38 4333.6958600128.75275183.8~ 00128.75275 183.8 1101010111 1100010011 1100101000 10000010010 10000110111 1011101110 1100110000 1101101101 1011110010 1101011100 1011010110 1100000000 10000100110 10000111100 1100001001 1100000010 1011111100 1011111101 20.875 51.194 1004.0 32446 16 1 5 59 51 3 $GNGGA,104238.00,4333.69586,N,00128.75275,E,1,08,1.20,183.8,M,53.8,M,,*43
33 10 42 39 4333.6961000128.75254183.8~ 00128.75254 183.8 1101010111 1100010010 1100100101 10000001110 10000111000 1011110101 1100111011 1101100111 1011101001 1101011100 1011010100 1011111101 10000100011 10000111010 1100001001 1011111111 1011111101 1011110101 20.875 51.247 1004.0 33446 17 1 5 58 51 3 $GNGGA,104239.00,4333.69610,N,00128.75254,E,1,07,1.55,183.8,M,53.8,M,,*40
34 10 42 40 4333.6959200128.75232183.6~ 00128.75232 183.6 1101010111 1100010100 1100100111 10000001010 10000110100 1011110100 1100110111 1101100101 1011100101 1101011100 1011010111 1100000000 10000100010 10000111011 1100001101 1100000011 1100001001 1011111111 20.875 51.270 1004.0 34446 16 1 5 58 52 3 $GNGGA,104240.00,4333.69592,N,00128.75232,E,1,07,1.55,183.6,M,53.8,M,,*49
35 10 42 41 4333.6962100128.75180182.8~ 00128.75180 182.8 1101010111 1100010010 1100100100 10000001100 10000110101 1011110100 1100110111 1101100101 1011101000 1101011100 1011010011 1011111111 10000100011 10000111000 1100001111 1100000111 1100000010 1011110111 20.875 51.278 1004.0 35446 17 1 5 58 51 3 $GNGGA,104241.00,4333.69621,N,00128.75180,E,1,07,1.55,182.8,M,53.8,M,,*46
36 10 42 42 4333.6967100128.75218182.7~ 00128.75218 182.7 1101010111 1100010011 1100100111 10000001000 10000110100 1011110000 1100110110 1101101010 1011100111 1101011101 1011010101 1011111110 10000100010 10000111011 1100001011 1100000011 1100000011 1011111100 20.875 51.278 1004.0 36446 16 1 5 58 52 3 $GNGGA,104242.00,4333.69671,N,00128.75218,E,1,07,1.54,182.7,M,53.8,M,,*4C
37 10 42 43 4333.6966400128.75173182.7~ 00128.75173 182.7 1101010111 1100010011 1100101000 10000001101 10000110110 1011110011 1100110111 1101011111 1011100101 1101011100 1011011000 1100000000 10000100010 10000111000 1100001101 1100000011 1100000100 1100000011 20.875 51.278 1004.0 37446 17 1 5 59 51 3 $GNGGA,104243.00,4333.69664,N,00128.75173,E,1,07,1.54,182.7,M,53.8,M,,*47
38 10 42 44 4333.6965700128.75153182.7~ 00128.75153 182.7 1101010111 1100010001 1100100100 10000001011 10000111001 1011110100 1100110111 1101100110 1011101101 1101011100 1011010110 1100000000 10000101011 10000111101 1100001001 1011111101 1011111011 1011110110 20.875 51.285 1004.0 38446 16 2 5 58 51 3 $GNGGA,104244.00,4333.69657,N,00128.75153,E,1,07,1.54,182.7,M,53.8,M,,*42
39 10 42 45 4333.6965300128.75133183.3~ 00128.75133 183.3 1101010111 1100010100 1100100110 10000001110 10000110111 1011110100 1100111011 1101100110 1011100111 1101011100 1011011010 1100000011 10000011111 10000111010 1100001100 1100000001 1100000000 1011111010 20.875 51.270 1004.0 39446 16 1 5 59 51 3 $GNGGA,104245.00,4333.69653,N,00128.75133,E,1,07,1.54,183.3,M,53.8,M,,*44
40 10 42 46 4333.6965800128.75113183.4~ 00128.75113 183.4 1101010111 1100010001 1100100100 10000001001 10000110100 1011101110 1100110011 1101101001 1011011111 1101011100 1011010101 1011111111 10000100100 10000111010 1100001100 1100000101 1100000011 1011111101 20.875 51.293 1004.0 40446 16 1 6 58 51 3 $GNGGA,104246.00,4333.69658,N,00128.75113,E,1,07,1.54,183.4,M,53.8,M,,*49
41 10 42 47 4333.6966600128.75129183.5~ 00128.75129 183.5 1101010111 1100010100 1100100111 10000000111 10000110110 1011101111 1100110111 1101100010 1011100011 1101011101 1011010110 1011111111 10000100100 10000111100 1100001100 1100000010 1011111110 1011110011 20.875 51.339 1004.0 41446 16 1 5 59 51 3 $GNGGA,104247.00,4333.69666,N,00128.75129,E,1,07,1.54,183.5,M,53.8,M,,*4D
42 10 42 48 4333.6969200128.75107183.4~ 00128.75107 183.4 1101010111 1100010011 1100100110 10000001000 10000110100 1011110110 1100111000 1101101110 1011100001 1101011100 1011010111 1100000001 10000100010 10000111000 1100001011 1100000101 1100000001 1011111101 20.875 51.354 1004.0 42446 17 1 5 58 51 3 $GNGGA,104248.00,4333.69692,N,00128.75107,E,1,07,1.54,183.4,M,53.8,M,,*44
43 10 42 49 4333.6970700128.75141183.1~ 00128.75141 183.1 1101010111 1100010010 1100101000 10000001001 10000110110 1011110111 1100111100 1101101101 1011100011 1101011101 1011011001 1100000001 10000100010 10000111000 1100001101 1100000100 1100000001 1011111010 20.875 51.423 1004.0 43446 16 1 5 58 52 3 $GNGGA,104249.00,4333.69707,N,00128.75141,E,1,07,1.54,183.1,M,53.8,M,,*4F
44 10 42 50 4333.6969300128.75126182.5~ 00128.75126 182.5 1101010111 1100010001 1100100110 10000001101 10000110101 1011101100 1100110000 1101101011 1011101011 1101011100 1011010111 1100000010 10000100101 10000111010 1100001000 1100000001 1011111111 1011111001 20.875 51.438 1004.0 44446 17 1 5 59 51 3 $GNGGA,104250.00,4333.69693,N,00128.75126,E,1,07,1.54,182.5,M,53.8,M,,*4F
45 10 42 51 4333.6971400128.75135182.3~ 00128.75135 182.3 1101010111 1100010101 1100100101 10000010000 10000111001 1011110110 1100110101 1101100110 1011100110 1101011100 1011010101 1011111101 10000011110 10000111010 1100000101 1011111011 1100000001 1011111111 20.875 51.522 1004.0 45446 16 1 5 58 51 4 $GNGGA,104251.00,4333.69714,N,00128.75135,E,1,07,1.54,182.3,M,53.8,M,,*44
46 10 42 52 4333.6972600128.75121182.3~ 00128.75121 182.3 1101010111 1100010011 1100101000 10000010000 10000110111 1011110011 1100110101 1101100011 1011100110 1101011101 1011010110 1011111111 10000011111 10000111001 1100000111 1011111111 1100000010 1011111011 20.875 51.476 1004.0 46446 17 1 5 59 51 3 $GNGGA,104252.00,4333.69726,N,00128.75121,E,1,07,1.54,182.3,M,53.8,M,,*43
47 10 42 53 4333.6975400128.75155182.1~ 00128.75155 182.1 1101010111 1100010010 1100101000 10000001011 10000110110 1011110000 1100101000 1101100110 1011101011 1101011100 1011011000 1100000001 10000011110 10000111001 1100000011 1100000001 1100001001 1011111100 20.875 51.430 1004.0 47446 16 1 6 58 51 3 $GNGGA,104253.00,4333.69754,N,00128.75155,E,1,07,1.54,182.1,M,53.8,M,,*46
48 10 42 54 4333.6973500128.75159182.0~ 00128.75159 182.0 1101010111 1100010011 1100100111 10000001011 10000110110 1011110100 1100110111 1101100111 1011110000 1101011100 1011010111 1100000000 10000100101 10000111000 1100010000 1100001001 1100000010 1011111100 20.875 51.430 1004.0 48446 16 1 5 59 51 3 $GNGGA,104254.00,4333.69735,N,00128.75159,E,1,07,1.54,182.0,M,53.8,M,,*4B
49 10 42 55 4333.6969800128.75164182.1~ 00128.75164 182.1 1101010111 1100010101 1100100111 10000001111 10000110111 1011110010 1100111011 1101110010 1011110011 1101011101 1011010101 1011111110 10000100011 10000111011 1100001000 1100000001 1100000111 1011111000 20.875 51.552 1004.0 49446 17 1 5 58 51 3 $GNGGA,104255.00,4333.69698,N,00128.75164,E,1,07,1.54,182.1,M,53.8,M,,*43
50 10 42 56 4333.6971300128.75223181.8~ 00128.75223 181.8 1101010111 1100010101 1100100111 10000001010 10000110110 1011110010 1100110110 1101100111 1011100100 1101011101 1011010101 1011111110 10000101010 10000111100 1100001010 1011111111 1100000001 1011111100 20.875 51.705 1004.0 50446 16 1 5 58 52 3 $GNGGA,104256.00,4333.69713,N,00128.75223,E,1,07,1.54,181.8,M,53.8,M,,*48
51 10 42 57 4333.6971900128.75210181.6~ 00128.75210 181.6 1101010111 1100010011 1100100110 10000001000 10000110111 1011110010 1100110110 1101110001 1011101110 1101011100 1011010101 1011111101 10000100100 10000111010 1100001011 1100000010 1100001001 1011111111 20.875 51.636 1004.0 51446 17 1 5 58 51 3 $GNGGA,104257.00,4333.69719,N,00128.75210,E,1,07,1.54,181.6,M,53.8,M,,*4D
52 10 42 58 4333.6972300128.75229181.4~ 00128.75229 181.4 1101010111 1100010011 1100100111 10000001010 10000110011 1011101111 1100110101 1101101100 1011101000 1101011101 1011010101 1100000000 10000101000 10000111011 1100001111 1100000010 1011111110 1011110100 20.875 51.629 1004.1 52446 16 1 5 58 52 3 $GNGGA,104258.00,4333.69723,N,00128.75229,E,1,07,1.54,181.4,M,53.8,M,,*43
53 10 43 00 4333.6978000128.75279180.7~ 00128.75279 180.7 1101010111 1100010010 1100100110 10000010001 10000110110 1011110011 1100110110 1101101011 1011100101 1101011100 1011010101 1011111111 10000100010 10000111010 1100001011 1100000011 1100000111 1100000000 20.875 51.858 1004.0 53770 17 0 5 58 52 4 $GNGGA,104300.00,4333.69780,N,00128.75279,E,1,07,1.54,180.7,M,53.8,M,,*41
54 10 43 01 4333.6975100128.75296180.8~ 00128.75296 180.8 1101010111 1100010100 1100101001 10000001100 10000110110 1011110010 1100110100 1101101001 1011101000 1101011100 1011010110 1011111110 10000100111 10000111001 1100001101 1100000011 1100000100 1011111100 20.875 51.903 1004.0 54768 17 1 5 60 51 3 $GNGGA,104301.00,4333.69751,N,00128.75296,E,1,07,1.54,180.8,M,53.8,M,,*42
55 10 43 02 4333.6974800128.75246180.4~ 00128.75246 180.4 1101010111 1100010100 1100101000 10000001011 10000110011 1011101111 1100110100 1101100111 1011101110 1101011100 1011010111 1100000001 10000101010 10000111011 1100001101 1100000101 1100000011 1011111110 20.875 51.850 1004.0 55769 17 0 5 58 51 5 $GNGGA,104302.00,4333.69748,N,00128.75246,E,1,07,1.54,180.4,M,53.8,M,,*48
56 10 43 03 4333.6974900128.75235180.1~ 00128.75235 180.1 1101010111 1100010101 1100101001 10000001011 10000110111 1011101110 1100110110 1101101000 1011100111 1101011100 1011010101 1100000000 10000101011 10000111011 1100010000 1100000010 1100000101 1100000001 20.875 51.781 1004.0 56769 16 0 6 60 50 4 $GNGGA,104303.00,4333.69749,N,00128.75235,E,1,08,1.04,180.1,M,53.8,M,,*43
57 10 43 04 4333.6973400128.75230180.2~ 00128.75230 180.2 1101010111 1100010011 1100100110 10000010010 10000111000 1011110001 1100111010 1101101101 1011101101 1101011100 1011010010 1011111110 10000100101 10000111011 1100001011 1100000000 1011111010 1011110001 20.875 51.728 1004.0 57769 16 0 7 59 50 4 $GNGGA,104304.00,4333.69734,N,00128.75230,E,1,07,1.54,180.2,M,53.8,M,,*42
58 10 43 05 4333.6973900128.75274180.4~ 00128.75274 180.4 1101010111 1100010001 1100100110 10000001001 10000110011 1011110011 1100111000 1101101000 1011101010 1101011100 1011010111 1100000001 10000101000 10000111100 1100001011 1100000011 1100001010 1011111010 20.875 51.865 1004.0 58769 16 0 6 60 50 4 $GNGGA,104305.00,4333.69739,N,00128.75274,E,1,08,1.04,180.4,M,53.8,M,,*42
59 10 43 06 4333.6970000128.75215180.5~ 00128.75215 180.5 1101010111 1100010100 1100100110 10000000110 10000110001 1011110100 1100110111 1101100111 1011100101 1101011100 1011011001 1100000000 10000101000 10000111011 1100001010 1011111111 1011111001 1011110110 20.875 51.911 1004.0 59769 17 0 6 59 50 4 $GNGGA,104306.00,4333.69700,N,00128.75215,E,1,08,1.04,180.5,M,53.8,M,,*4D
60 10 43 07 4333.6968700128.75224180.6~ 00128.75224 180.6 1101010111 1100010011 1100101000 10000000111 10000110100 1011110011 1100110111 1101101100 1011101110 1101011100 1011011000 1011111110 10000100000 10000111011 1100001101 1100000100 1100000001 1100000000 20.875 52.262 1004.0 60769 16 0 6 59 51 4 $GNGGA,104307.00,4333.69687,N,00128.75224,E,1,07,1.54,180.6,M,53.8,M,,*49
61 10 43 08 4333.6973200128.75356180.6~ 00128.75356 180.6 1101010111 1100010011 1100100111 10000001010 10000110100 1011110000 1100110100 1101101011 1011100111 1101011100 1011010111 1011111111 10000101000 10000111100 1100001101 1100000101 1100000000 1011111001 20.875 52.460 1004.1 61769 17 0 6 60 50 4 $GNGGA,104308.00,4333.69732,N,00128.75356,E,1,07,1.54,180.6,M,53.8,M,,*4D
62 10 43 09 4333.6972500128.75366180.6~ 00128.75366 180.6 1101010111 1100010001 1100100110 10000001110 10000111000 1011110011 1100111000 1101100011 1011100000 1101011101 1011010110 1011111101 10000101000 10000111000 1100001011 1100000001 1100000011 1100000001 20.875 52.292 1004.0 62769 16 0 6 59 50 5 $GNGGA,104309.00,4333.69725,N,00128.75366,E,1,07,1.54,180.6,M,53.8,M,,*49
63 10 43 10 4333.6971200128.75342180.4~ 00128.75342 180.4 1101010111 1100010011 1100101001 10000001100 10000110110 1011110101 1100111010 1101100001 1011100010 1101011100 1011010110 1100000001 10000101000 10000111001 1100001101 1100000110 1100000010 1011110110 20.875 52.041 1004.1 63769 17 0 6 60 50 4 $GNGGA,104310.00,4333.69712,N,00128.75342,E,1,07,1.54,180.4,M,53.8,M,,*41
64 10 43 11 4333.6967200128.75292180.3~ 00128.75292 180.3 1101010111 1100010011 1100101001 10000010001 10000110111 1011110001 1100110101 1101101110 1011101100 1101011101 1011010101 1100000001 10000101001 10000111010 1100001100 1011111111 1100000111 1011111110 20.875 51.987 1004.0 64769 16 0 7 59 50 4 $GNGGA,104311.00,4333.69672,N,00128.75292,E,1,08,1.04,180.3,M,53.8,M,,*46
65 10 43 12 4333.6964000128.75279180.9~ 00128.75279 180.9 1101010111 1100010001 1100100111 10000010000 10000111001 1011110000 1100110110 1101110001 1011101011 1101011100 1011010100 1011111101 10000101011 10000111010 1100000111 1100000000 1011111111 1011110111 20.875 52.491 1004.0 65769 17 0 5 60 50 4 $GNGGA,104312.00,4333.69640,N,00128.75279,E,1,07,1.54,180.9,M,53.8,M,,*41
66 10 43 13 4333.6968100128.75364180.8~ 00128.75364 180.8 1101010111 1100010001 1100100110 10000010000 10000110101 1011101101 1100101110 1101100111 1011100100 1101011100 1011011001 1011111111 10000101010 10000111010 1100001011 1100000100 1011111011 1011111011 20.875 52.399 1004.0 66769 17 0 6 59 50 4 $GNGGA,104313.00,4333.69681,N,00128.75364,E,1,07,1.54,180.8,M,53.8,M,,*41
67 10 43 14 4333.6966700128.75364180.8~ 00128.75364 180.8 1101010111 1100010001 1100100110 10000010010 10000110110 1011110001 1100111001 1101101111 1011101110 1101011101 1011011011 1100000011 10000101011 10000111010 1100001100 1100000111 1011111101 1011111010 20.875 52.712 1004.1 67769 17 0 5 60 50 4 $GNGGA,104314.00,4333.69667,N,00128.75364,E,1,08,1.04,180.8,M,53.8,M,,*44
68 10 43 15 4333.6967200128.75389181.0~ 00128.75389 181.0 1101010111 1100010011 1100100101 10000001110 10000110100 1011101110 1100111000 1101100101 1011101001 1101011101 1011010111 1100000000 10000100011 10000111100 1100001000 1011111011 1011111110 1011110101 20.875 52.979 1004.1 68769 18 0 5 59 50 4 $GNGGA,104315.00,4333.69672,N,00128.75389,E,1,08,1.04,181.0,M,53.8,M,,*4B
69 10 43 16 4333.6966300128.75417181.2~ 00128.75417 181.2 1101010111 1100010101 1100101001 10000001100 10000110101 1011110111 1100110111 1101101000 1011100110 1101011100 1011010011 1011111100 10000100001 10000111010 1100001010 1100000100 1011111011 1011110000 20.875 53.078 1004.1 69769 17 0 5 58 52 4 $GNGGA,104316.00,4333.69663,N,00128.75417,E,1,08,1.04,181.2,M,53.8,M,,*4A
70 10 43 17 4333.6967200128.75473181.4~ 00128.75473 181.4 1101010111 1100010011 1100100110 10000010000 10000110111 1011110000 1100110111 1101101011 1011100110 1101011101 1011010111 1011111111 10000101001 10000111001 1100001000 1100000011 1011111110 1011111000 20.875 53.002 1004.1 70769 18 0 5 59 51 4 $GNGGA,104317.00,4333.69672,N,00128.75473,E,1,08,1.04,181.4,M,53.8,M,,*4F
71 10 43 18 4333.6968900128.75535181.5~ 00128.75535 181.5 1101010111 1100010101 1100100110 10000001110 10000110110 1011111001 1100111010 1101101010 1011101010 1101011101 1011010111 1011111111 10000100111 10000111001 1100001000 1011111111 1100000000 1100000001 20.875 52.819 1004.1 71769 16 0 5 58 51 5 $GNGGA,104318.00,4333.69689,N,00128.75535,E,1,08,1.04,181.5,M,53.8,M,,*46
72 10 43 19 4333.6967200128.75538181.4~ 00128.75538 181.4 1101010111 1100010011 1100100111 10000010010 10000111000 1011110101 1100111000 1101101000 1011100110 1101011101 1011010110 1011111110 10000100111 10000111100 1100010010 1100000101 1011111011 1011111010 20.875 52.514 1004.1 72769 16 0 5 59 51 4 $GNGGA,104319.00,4333.69672,N,00128.75538,E,1,08,1.04,181.4,M,53.8,M,,*4F
73 10 43 20 4333.6969500128.75615181.5~ 00128.75615 181.5 1101010111 1100010101 1100100111 10000001110 10000110110 1011110101 1100111101 1101100100 1011101100 1101011100 1011010111 1011111110 10000100101 10000111100 1100001011 1100000011 1011111011 1011110110 20.875 52.140 1004.1 73769 16 1 6 58 51 3 $GNGGA,104320.00,4333.69695,N,00128.75615,E,1,08,1.04,181.5,M,53.8,M,,*41
74 10 43 21 4333.6967800128.75631181.6~ 00128.75631 181.6 1101010111 1100010100 1100101000 10000000110 10000110101 1011110001 1100111000 1101100000 1011100000 1101011100 1011010101 1100000000 10000100000 10000111011 1100001011 1100000100 1011111011 1011110011 20.875 51.789 1004.1 74769 16 1 5 59 51 3 $GNGGA,104321.00,4333.69678,N,00128.75631,E,1,08,1.04,181.6,M,53.8,M,,*46
75 10 43 22 4333.6965100128.75659182.1~ 00128.75659 182.1 1101010111 1100010011 1100100111 10000001011 10000110100 1011110111 1100110111 1101101111 1011101100 1101011100 1011011010 1100000010 10000101000 10000111011 1100000110 1011111111 1100000101 1011111110 20.875 51.735 1004.1 75769 17 1 5 58 51 3 $GNGGA,104322.00,4333.69651,N,00128.75659,E,1,08,1.04,182.1,M,53.8,M,,*44
76 10 43 23 4333.6963900128.75704181.9~ 00128.75704 181.9 1101010111 1100010100 1100100110 10000001011 10000110011 1011111000 1100111111 1101100101 1011100100 1101011100 1011010101 1011111111 10000100011 10000111010 1100000111 1100000001 1100000001 1011111000 20.875 51.507 1004.1 76769 16 1 5 58 52 3 $GNGGA,104323.00,4333.69639,N,00128.75704,E,1,08,1.04,181.9,M,53.8,M,,*49
77 10 43 24 4333.6963200128.75717182.2~ 00128.75717 182.2 1101010111 1100010011 1100100101 10000010000 10000111000 1011110101 1100111000 1101101011 1011011111 1101011101 1011010101 1011111101 10000100010 10000111011 1100001011 1100000000 1100000101 1011111110 20.875 51.308 1004.0 77769 17 1 5 59 51 3 $GNGGA,104324.00,4333.69632,N,00128.75717,E,1,08,1.04,182.2,M,53.8,M,,*4F
78 10 43 25 4333.6959000128.75703182.2~ 00128.75703 182.2 1101010111 1100010010 1100100010 10000001110 10000110011 1011110001 1100111000 1101101000 1011100101 1101011100 1011011001 1100000001 10000100100 10000111001 1100000110 1011111101 1011111011 1011111100 20.938 51.140 1004.1 78769 16 1 5 58 51 4 $GNGGA,104325.00,4333.69590,N,00128.75703,E,1,08,1.04,182.2,M,53.8,M,,*40
79 10 43 26 4333.6956300128.75692182.5~ 00128.75692 182.5 1101010111 1100010010 1100100110 10000001101 10000110110 1011110101 1100110011 1101101101 1011101011 1101011100 1011010101 1011111111 10000100000 10000111011 1100000011 1011111110 1100000101 1100000010 20.875 51.026 1004.0 79769 17 1 5 59 51 3 $GNGGA,104326.00,4333.69563,N,00128.75692,E,1,08,1.04,182.5,M,53.8,M,,*41
80 10 43 27 4333.6951900128.75620182.4~ 00128.75620 182.4 1101010111 1100010011 1100101000 10000001110 10000110110 1011110000 1100111000 1101101100 1011101000 1101011100 1011010101 1011111101 10000100010 10000111010 1100001001 1011111111 1100000101 1011111011 20.875 50.950 1004.1 80769 16 1 6 58 51 3 $GNGGA,104327.00,4333.69519,N,00128.75620,E,1,08,1.04,182.4,M,53.8,M,,*45
81 10 43 28 4333.6952300128.75649182.5~ 00128.75649 182.5 1101010111 1100010011 1100100110 10000001111 10000110101 1011110110 1100111000 1101101100 1011101011 1101011100 1011010110 1011111111 10000100000 10000111001 1100001011 1100000000 1011111110 1011110111 20.875 50.950 1004.0 81769 16 1 5 59 51 3 $GNGGA,104328.00,4333.69523,N,00128.75649,E,1,08,1.04,182.5,M,53.8,M,,*4D
82 10 43 29 4333.6952400128.75677182.9~ 00128.75677 182.9 1101010111 1100010100 1100101010 10000001010 10000110101 1011101100 1100110101 1101101001 1011101011 1101011100 1011010100 1011111110 10000100000 10000111001 1100001000 1011111101 1011111111 1011111011 20.875 51.110 1004.1 82769 17 1 5 58 51 3 $GNGGA,104329.00,4333.69524,N,00128.75677,E,1,08,1.04,182.9,M,53.8,M,,*4A
83 10 43 30 4333.6951800128.75623183.2~ 00128.75623 183.2 1101010111 1100010001 1100100101 10000001010 10000110101 1011110000 1100110101 1101101100 1011101100 1101011100 1011010010 1100000000 10000100101 10000111011 1100001010 1100000000 1100000011 1011111110 20.875 51.171 1004.1 83769 16 1 5 58 52 3 $GNGGA,104330.00,4333.69518,N,00128.75623,E,1,08,1.04,183.2,M,53.8,M,,*46
84 10 43 31 4333.6951000128.75640183.7~ 00128.75640 183.7 1101010111 1100010001 1100100110 10000000111 10000110111 1011110101 1100111011 1101101100 1011101000 1101011101 1011010111 1011111110 10000101001 10000111011 1100000111 1100000001 1011111101 1011111010 20.875 51.156 1004.1 84769 17 1 5 58 51 3 $GNGGA,104331.00,4333.69510,N,00128.75640,E,1,08,1.04,183.7,M,53.8,M,,*4F
85 10 43 32 4333.6948400128.75642184.1~ 00128.75642 184.1 1101010111 1100010011 1100100111 10000010000 10000110111 1011110010 1100111100 1101101111 1011110010 1101011100 1011010101 1011111111 10000100010 10000111011 1100001100 1100000101 1100000111 1100000000 20.938 51.301 1004.1 85769 16 1 5 58 52 3 $GNGGA,104332.00,4333.69484,N,00128.75642,E,1,08,1.04,184.1,M,53.8,M,,*43
86 10 43 33 4333.6947800128.75643184.5~ 00128.75643 184.5 1101010111 1100010100 1100100101 10000010010 10000110110 1011101111 1100110110 1101101111 1011101111 1101011100 1011010110 1100000000 10000011111 10000111010 1100001000 1011111111 1100000101 1100000101 20.875 51.507 1004.1 86769 17 1 5 59 51 3 $GNGGA,104333.00,4333.69478,N,00128.75643,E,1,08,1.04,184.5,M,53.8,M,,*44
87 10 43 34 4333.6945800128.75639185.0~ 00128.75639 185.0 1101010111 1100010101 1100101000 10000001100 10000110111 1011101101 1100110010 1101101101 1011101010 1101011101 1011010111 1011111101 10000101000 10000111010 1100000010 1011111110 1100000011 1011111110 20.938 52.056 1004.1 87769 16 2 5 58 51 3 $GNGGA,104334.00,4333.69458,N,00128.75639,E,1,08,1.04,185.0,M,53.8,M,,*48
88 10 43 35 4333.6942600128.75611185.3~ 00128.75611 185.3 1101010111 1100010010 1100100101 10000001111 10000111000 1011101110 1100111000 1101101010 1011100000 1101011100 1011011001 1100000000 10000100010 10000111001 1100001010 1011111111 1100000010 1011111101 20.875 52.224 1004.1 88769 16 1 5 59 51 3 $GNGGA,104335.00,4333.69426,N,00128.75611,E,1,08,1.04,185.3,M,53.8,M,,*49
89 10 43 36 4333.6942700128.75622185.4~ 00128.75622 185.4 1101010111 1100010011 1100100101 10000001010 10000111010 1011110000 1101000001 1101101010 1011100110 1101011100 1011010100 1011111110 10000100101 10000111010 1100001011 1100000010 1100000100 1011111011 20.875 52.193 1004.1 89769 16 1 6 58 51 3 $GNGGA,104336.00,4333.69427,N,00128.75622,E,1,07,1.54,185.4,M,53.8,M,,*46
90 10 43 37 4333.6944200128.75586185.2~ 00128.75586 185.2 1101010111 1100010001 1100100011 10000001001 10000111001 1011101101 1100110101 1101100111 1011101010 1101011100 1011011010 1100000000 10000100110 10000111100 1100001010 1100000010 1100001000 1011111111 20.938 51.919 1004.1 90769 16 1 5 59 51 3 $GNGGA,104337.00,4333.69442,N,00128.75586,E,1,07,1.54,185.2,M,53.8,M,,*4F
91 10 43 38 4333.6942900128.75522185.2~ 00128.75522 185.2 1101010111 1100010100 1100101000 10000001101 10000110110 1011101101 1100110101 1101101110 1011101111 1101011100 1011010101 1100000010 10000100111 10000111100 1100001000 1011111111 1100000110 1011111010 20.938 51.705 1004.0 91769 17 1 5 58 51 3 $GNGGA,104338.00,4333.69429,N,00128.75522,E,1,07,1.54,185.2,M,53.8,M,,*43
92 10 43 39 4333.6942700128.75492185.1~ 00128.75492 185.1 1101010111 1100010011 1100100110 10000001101 10000110101 1011101111 1100110011 1101100110 1011101100 1101011100 1011010111 1100000000 10000100010 10000111000 1100001101 1100000010 1100000000 1011111100 20.875 51.560 1004.1 92769 16 1 5 58 52 3 $GNGGA,104339.00,4333.69427,N,00128.75492,E,1,07,1.54,185.1,M,53.8,M,,*45
93 10 43 40 4333.6939200128.75424185.4~ 00128.75424 185.4 1101010111 1100010011 1100100101 10000001010 10000110011 1011110010 1100111000 1101101001 1011100101 1101011101 1011010110 1100000000 10000100110 10000111010 1100001100 1100000000 1011111100 1011111010 20.938 51.377 1004.1 93769 17 1 5 59 51 3 $GNGGA,104340.00,4333.69392,N,00128.75424,E,1,07,1.54,185.4,M,53.8,M,,*4A
94 10 43 41 4333.6940500128.75464185.8~ 00128.75464 185.8 1101010111 1100010011 1100100100 10000001001 10000110100 1011110000 1100110110 1101110001 1011110011 1101011100 1011010110 1100000000 10000100101 10000111011 1100010001 1100000100 1011111111 1011111101 20.938 51.247 1004.0 94769 16 1 5 58 51 4 $GNGGA,104341.00,4333.69405,N,00128.75464,E,1,07,1.54,185.8,M,53.8,M,,*4A
95 10 43 42 4333.6942100128.75491185.6~ 00128.75491 185.6 1101010111 1100010011 1100100111 10000010000 10000111001 1011110001 1100111000 1101101010 1011101010 1101011100 1011010011 1100000000 10000100100 10000111100 1100010000 1100001001 1011111111 1011111101 20.938 51.194 1004.0 95769 17 1 5 59 51 3 $GNGGA,104342.00,4333.69421,N,00128.75491,E,1,07,1.54,185.6,M,53.8,M,,*4B
96 10 43 43 4333.6943600128.75542185.8~ 00128.75542 185.8 1101010111 1100010011 1100100110 10000010101 10000111110 1011110011 1100111010 1101101010 1011100111 1101011100 1011011001 1100000000 10000100111 10000111010 1100001101 1100001000 1100000010 1011111001 20.938 51.148 1004.0 96769 16 1 6 58 51 3 $GNGGA,104343.00,4333.69436,N,00128.75542,E,1,07,1.54,185.8,M,53.8,M,,*4D
97 10 43 44 4333.6944600128.75579185.8~ 00128.75579 185.8 1101010111 1100010011 1100100111 10000001101 10000110101 1011110011 1100110101 1101101010 1011101010 1101011100 1011011000 1100000001 10000100001 10000111010 1100001001 1011111111 1100000001 1011110111 20.875 51.140 1004.1 97769 16 1 5 59 51 3 $GNGGA,104344.00,4333.69446,N,00128.75579,E,1,07,1.54,185.8,M,53.8,M,,*45
98 10 43 45 4333.6943300128.75606186.3~ 00128.75606 186.3 1101010111 1100010001 1100100101 10000000100 10000110001 1011110100 1100110111 1101110110 1011111101 1101011100 1011010101 1011111100 10000100010 10000111001 1100000111 1011111100 1100001010 1100001000 20.938 51.072 1004.1 98769 17 1 5 58 51 3 $GNGGA,104345.00,4333.69433,N,00128.75606,E,1,07,1.54,186.3,M,53.8,M,,*45
99 10 43 46 4333.6943100128.75616186.3~ 00128.75616 186.3 1101010111 1100010011 1100100100 10000001011 10000110011 1011101110 1100110101 1101101110 1011101101 1101011100 1011010100 1011111110 10000100111 10000111100 1100001011 1100000011 1011111110 1011110011 20.875 51.049 1004.1 99769 16 1 5 58 52 3 $GNGGA,104346.00,4333.69431,N,00128.75616,E,1,07,1.54,186.3,M,53.8,M,,*45
100 10 43 47 4333.6944100128.75653186.3~ 00128.75653 186.3 1101010111 1100010101 1100100111 10000001111 10000110100 1011110010 1100110100 1101101111 1011101110 1101011100 1011010100 1011111011 10000100001 10000111010 1100001000 1011111001 1100001010 1100000010 20.875 51.110 1004.1 100769 17 1 5 58 51 3 $GNGGA,104347.00,4333.69441,N,00128.75653,E,1,07,1.54,186.3,M,53.8,M,,*42
101 10 43 48 4333.6942400128.75644186.4~ 00128.75644 186.4 1101010111 1100010011 1100100101 10000001100 10000111001 1011110100 1100111100 1101101101 1011101111 1101011101 1011011010 1100000000 10000100001 10000111010 1100001101 1100000000 1011111110 1011110100 20.938 51.125 1004.1 101769 16 1 5 58 52 3 $GNGGA,104348.00,4333.69424,N,00128.75644,E,1,07,1.54,186.4,M,53.8,M,,*4F
102 10 43 49 4333.6942300128.75656186.3~ 00128.75656 186.3 1101010111 1100010001 1100101000 10000001111 10000110110 1011110010 1100110100 1101101100 1011101100 1101011101 1011011001 1011111111 10000100100 10000111010 1100001010 1100000101 1100000101 1011111100 20.938 51.087 1004.1 102769 17 1 5 59 51 3 $GNGGA,104349.00,4333.69423,N,00128.75656,E,1,07,1.54,186.3,M,53.8,M,,*4D
103 10 43 50 4333.6940400128.75645186.5~ 00128.75645 186.5 1101010111 1100010011 1100101000 10000001011 10000110111 1011101110 1100110101 1101101000 1011101000 1101011100 1011011000 1100000000 10000101000 10000111001 1100001010 1100000100 1011111100 1011110101 20.938 51.049 1004.1 103769 16 2 5 58 51 3 $GNGGA,104350.00,4333.69404,N,00128.75645,E,1,07,1.54,186.5,M,53.8,M,,*44
104 10 43 51 4333.6940700128.75668186.4~ 00128.75668 186.4 1101010111 1100010001 1100100111 10000001010 10000110110 1011101110 1100110010 1101110011 1011110111 1101011100 1011010111 1100000011 10000011111 10000111001 1100001111 1100000110 1100000000 1011111010 20.938 50.973 1004.1 104769 16 1 5 59 51 3 $GNGGA,104351.00,4333.69407,N,00128.75668,E,1,07,1.54,186.4,M,53.8,M,,*48
105 10 43 52 4333.6939800128.75647186.2~ 00128.75647 186.2 1101010111 1100010011 1100100111 10000001101 10000110101 1011101110 1100110101 1101100100 1011101101 1101011100 1011010111 1100000000 10000101010 10000111010 1100001010 1100000011 1100000100 1100000011 20.938 51.011 1004.1 105769 16 1 6 58 51 3 $GNGGA,104352.00,4333.69398,N,00128.75647,E,1,07,1.54,186.2,M,53.8,M,,*41
106 10 43 53 4333.6938700128.75628186.2~ 00128.75628 186.2 1101010111 1100010011 1100100111 10000010001 10000110101 1011101111 1100110011 1101011100 1011100111 1101011100 1011010011 1100000001 10000101010 10000111011 1100001011 1100000000 1011111100 1011111101 20.938 51.003 1004.1 106769 16 1 5 59 51 3 $GNGGA,104353.00,4333.69387,N,00128.75628,E,1,07,1.54,186.2,M,53.8,M,,*47
107 10 43 54 4333.6932400128.75487186.2~ 00128.75487 186.2 1101010111 1100010110 1100100110 10000010001 10000110111 1011110011 1100111010 1101100111 1011100011 1101011100 1011010010 1011111110 10000100010 10000111011 1100000100 1011111101 1100000010 1100000010 20.938 51.034 1004.1 107769 17 1 5 58 51 3 $GNGGA,104354.00,4333.69324,N,00128.75487,E,1,08,1.03,186.2,M,53.8,M,,*43
108 10 43 55 4333.6929700128.75435186.7~ 00128.75435 186.7 1101010111 1100010011 1100100110 10000001100 10000110101 1011111010 1101000000 1101101110 1011101011 1101011101 1011010111 1011111111 10000101000 10000111100 1100000011 1011111010 1100000010 1011111101 20.938 51.018 1004.0 108769 16 1 5 58 52 3 $GNGGA,104355.00,4333.69297,N,00128.75435,E,1,08,1.03,186.7,M,53.8,M,,*47
109 10 43 56 4333.6922900128.75347187.6~ 00128.75347 187.6 1101010111 1100010001 1100100110 10000001010 10000110100 1011110100 1100111011 1101101101 1011101110 1101011101 1011010100 1011111101 10000100000 10000111000 1100001000 1100000000 1011111101 1011110110 20.938 51.102 1004.0 109769 17 1 5 59 51 3 $GNGGA,104356.00,4333.69229,N,00128.75347,E,1,08,1.03,187.6,M,53.8,M,,*43
110 10 43 57 4333.6918600128.75286188.3~ 00128.75286 188.3 1101010111 1100010100 1100101011 10000001101 10000110100 1011110111 1100111011 1101101100 1011100010 1101011101 1011010110 1100000000 10000100100 10000111011 1100001000 1100000011 1100000010 1100000010 20.938 51.201 1004.0 110769 16 1 5 58 51 4 $GNGGA,104357.00,4333.69186,N,00128.75286,E,1,08,1.03,188.3,M,53.8,M,,*42
111 10 43 58 4333.6910900128.75216189.4~ 00128.75216 189.4 1101010111 1100010000 1100100111 10000001011 10000111000 1011110000 1100110111 1101101010 1011100000 1101011100 1011010111 1011111111 10000101010 10000111010 1100000110 1011111100 1011111100 1011110100 20.938 51.247 1004.0 111769 17 1 5 59 51 3 $GNGGA,104358.00,4333.69109,N,00128.75216,E,1,08,1.03,189.4,M,53.8,M,,*45
112 10 43 59 4333.6907500128.75173189.8~ 00128.75173 189.8 1101010111 1100010010 1100101000 10000001111 10000110111 1011110001 1100110101 1101101011 1011110010 1101011100 1011010111 1011111111 10000101001 10000111010 1100001011 1011111011 1011111111 1011111111 20.938 51.201 1004.1 112769 16 1 6 58 51 3 $GNGGA,104359.00,4333.69075,N,00128.75173,E,1,08,1.03,189.8,M,53.8,M,,*42
113 10 44 00 4333.6907700128.75194189.9~ 00128.75194 189.9 1101010111 1100010010 1100100100 10000010100 10000110111 1011101111 1100110100 1101101001 1011110000 1101011101 1011011010 1100000001 10000100111 10000111010 1100000110 1100000001 1011111100 1011110110 20.938 51.064 1004.0 113769 16 1 5 59 51 3 $GNGGA,104400.00,4333.69077,N,00128.75194,E,1,08,1.03,189.9,M,53.8,M,,*43
114 10 44 01 4333.6902000128.75130190.3~ 00128.75130 190.3 1101010111 1100010000 1100100101 10000001110 10000111001 1011110001 1100110110 1101100111 1011101100 1101011101 1011010001 1011111100 10000011010 10000110111 1100001101 1100000111 1100000011 1011111101 20.938 51.041 1004.0 114769 17 1 5 58 51 3 $GNGGA,104401.00,4333.69020,N,00128.75130,E,1,07,1.18,190.3,M,53.8,M,,*49
115 10 44 02 4333.6899100128.75138191.2~ 00128.75138 191.2 1101010111 1100001101 1100100001 10000000111 10000110101 1011110111 1100111011 1101100100 1011100010 1101011100 1011010101 1100000000 10000100100 10000111000 1100000111 1100000001 1100000111 1011111101 20.938 51.026 1004.0 115769 16 1 5 58 52 3 $GNGGA,104402.00,4333.68991,N,00128.75138,E,1,09,0.94,191.2,M,53.8,M,,*4B
116 10 44 03 4333.6899000128.75155191.5~ 00128.75155 191.5 1101010111 1100010011 1100100111 10000001010 10000110001 1011110010 1100110110 1101101011 1011101011 1101011101 1011010110 1011111100 10000100101 10000111100 1100001000 1100000001 1100000011 1011111101 20.938 51.034 1004.0 116769 17 1 5 58 51 3 $GNGGA,104403.00,4333.68990,N,00128.75155,E,1,08,1.03,191.5,M,53.8,M,,*49
117 10 44 04 4333.6896400128.75149191.8~ 00128.75149 191.8 1101010111 1100010101 1100100101 10000001100 10000111001 1011110111 1100111001 1101100111 1011101010 1101011101 1011011000 1100000000 10000100101 10000111011 1100001111 1100000010 1011111110 1100000010 20.938 51.041 1004.0 117769 16 1 5 58 52 3 $GNGGA,104404.00,4333.68964,N,00128.75149,E,1,08,1.03,191.8,M,53.8,M,,*45
118 10 44 05 4333.6894200128.75100192.5~ 00128.75100 192.5 1101010111 1100010010 1100100101 10000001100 10000110110 1011111000 1100111010 1101101110 1011101001 1101011100 1011010101 1011111110 10000011100 10000110111 1100001101 1100000111 1100000001 1011110100 20.938 50.980 1004.0 118769 17 1 5 59 51 3 $GNGGA,104405.00,4333.68942,N,00128.75100,E,1,08,1.03,192.5,M,53.8,M,,*43
119 10 44 06 4333.6886900128.75073194.0~ 00128.75073 194.0 1101010111 1100010100 1100101001 10000010101 10000111010 1011111001 1100111010 1101101000 1011100101 1101011100 1011010101 1011111111 10000100100 10000111010 1100001101 1100000100 1100000011 1011110110 20.938 50.942 1004.0 119769 16 2 5 58 51 3 $GNGGA,104406.00,4333.68869,N,00128.75073,E,1,09,0.94,194.0,M,53.8,M,,*40
120 10 44 07 4333.6885600128.75036194.3~ 00128.75036 194.3 1101010111 1100010100 1100101001 10000001101 10000110101 1011110000 1100110111 1101101011 1011110010 1101011100 1011010100 1011111111 10000100010 10000111010 1100001001 1100000001 1100000100 1100000010 20.938 50.873 1004.1 120769 16 1 5 59 51 3 $GNGGA,104407.00,4333.68856,N,00128.75036,E,1,08,1.03,194.3,M,53.8,M,,*41
121 10 44 08 4333.6886400128.75050194.4~ 00128.75050 194.4 1101010111 1100010010 1100100110 10000001111 10000110110 1011101110 1100110000 1101101000 1011101010 1101011100 1011010101 1100000000 10000100001 10000111001 1100001100 1100000000 1011111111 1011111110 20.938 50.927 1004.1 121769 16 1 6 58 51 3 $GNGGA,104408.00,4333.68864,N,00128.75050,E,1,08,1.03,194.4,M,53.8,M,,*48
122 10 44 09 4333.6886700128.75033194.4~ 00128.75033 194.4 1101010111 1100010010 1100100111 10000001100 10000110110 1011110111 1100111110 1101101000 1011101010 1101011101 1011011000 1100000001 10000100000 10000111010 1100001011 1011111110 1100000110 1011111010 20.938 51.041 1004.1 122769 16 1 5 59 51 3 $GNGGA,104409.00,4333.68867,N,00128.75033,E,1,07,1.53,194.4,M,53.8,M,,*45
123 10 44 10 4333.6888600128.75056194.6~ 00128.75056 194.6 1101010111 1100010010 1100100101 10000001100 10000110011 1011110011 1100111100 1101101011 1011101110 1101011101 1011010111 1011111111 10000100100 10000111011 1100001110 1100000010 1011111110 1011111101 20.938 51.049 1004.0 123769 17 1 5 58 51 3 $GNGGA,104410.00,4333.68886,N,00128.75056,E,1,07,1.53,194.6,M,53.8,M,,*43
124 10 44 11 4333.6885800128.75073195.4~ 00128.75073 195.4 1101010111 1100010001 1100100111 10000001010 10000110100 1011110010 1100111100 1101101001 1011110001 1101011100 1011010101 1011111111 10000100101 10000111001 1100000111 1011111100 1100000101 1011111100 20.938 51.125 1004.0 124769 16 1 5 58 52 3 $GNGGA,104411.00,4333.68858,N,00128.75073,E,1,09,0.94,195.4,M,53.8,M,,*41
125 10 44 12 4333.6882800128.75073196.3~ 00128.75073 196.3 1101010111 1100010010 1100100111 10000000101 10000110010 1011110101 1100111001 1101101001 1011110001 1101011101 1011010110 1100000000 10000101001 10000111011 1100000100 1100000000 1011111101 1011111000 20.938 51.156 1004.0 125769 17 1 5 59 51 3 $GNGGA,104412.00,4333.68828,N,00128.75073,E,1,09,0.94,196.3,M,53.8,M,,*41
126 10 44 13 4333.6879300128.75105197.3~ 00128.75105 197.3 1101010111 1100010011 1100100101 10000001010 10000110011 1011110011 1100110111 1101110010 1011110000 1101011100 1011011000 1011111111 10000011100 10000111010 1100001010 1100000011 1100000110 1011111100 20.938 51.110 1004.0 126769 16 1 5 58 51 4 $GNGGA,104413.00,4333.68793,N,00128.75105,E,1,09,0.94,197.3,M,53.8,M,,*4E
127 10 44 14 4333.6878600128.75122197.7~ 00128.75122 197.7 1101010111 1100010000 1100100110 10000010000 10000111010 1011101111 1100111001 1101101001 1011101100 1101011100 1011010100 1011111101 10000100101 10000111010 1100001000 1011111011 1100000001 1011110111 20.938 51.064 1004.0 127769 17 1 5 59 51 3 $GNGGA,104414.00,4333.68786,N,00128.75122,E,1,08,1.03,197.7,M,53.8,M,,*42
128 10 44 15 4333.6881800128.75159197.2~ 00128.75159 197.2 1101010111 1100010010 1100100101 10000001110 10000111010 1011101101 1100111000 1101101001 1011101100 1101011101 1011010101 1011111110 10000011111 10000110111 1100001011 1100000010 1100000010 1011111000 20.938 51.026 1004.0 128769 16 1 6 58 51 3 $GNGGA,104415.00,4333.68818,N,00128.75159,E,1,08,1.03,197.2,M,53.8,M,,*42
129 10 44 16 4333.6886700128.75224196.9~ 00128.75224 196.9 1101010111 1100010011 1100100110 10000001111 10000111000 1011101100 1100110010 1101101100 1011110011 1101011100 1011010011 1011111110 10000100000 10000111001 1100010010 1100001000 1100001000 1011111101 20.938 51.026 1004.0 129769 16 1 5 59 51 3 $GNGGA,104416.00,4333.68867,N,00128.75224,E,1,08,1.03,196.9,M,53.8,M,,*4A
130 10 44 17 4333.6893400128.75304196.2~ 00128.75304 196.2 1101010111 1100010001 1100100110 10000001010 10000111000 1011110001 1100110010 1101110011 1011110011 1101011100 1011011001 1100000001 10000100110 10000111011 1100001011 1100000100 1100000100 1011111111 20.938 50.950 1004.0 130769 17 1 5 58 51 3 $GNGGA,104417.00,4333.68934,N,00128.75304,E,1,08,1.03,196.2,M,53.8,M,,*44
131 10 44 18 4333.6896500128.75364196.1~ 00128.75364 196.1 1101010111 1100010010 1100100101 10000000111 10000110110 1011110111 1100111010 1101101110 1011110000 1101011100 1011010110 1100000000 10000100111 10000111011 1100001010 1100000011 1100000110 1100000001 20.938 50.850 1004.0 131769 16 1 5 58 52 3 $GNGGA,104418.00,4333.68965,N,00128.75364,E,1,08,1.03,196.1,M,53.8,M,,*4A
132 10 44 19 4333.6899800128.75419195.8~ 00128.75419 195.8 1101010111 1100010100 1100101000 10000000100 10000110100 1011110000 1100110100 1101101000 1011011110 1101011100 1011011001 1100000010 10000100100 10000111010 1100001010 1100000001 1100000010 1100000101 20.938 50.805 1004.0 132769 17 1 5 58 51 3 $GNGGA,104419.00,4333.68998,N,00128.75419,E,1,08,1.03,195.8,M,53.8,M,,*4E
133 10 44 20 4333.6900900128.75435195.3~ 00128.75435 195.3 1101010111 1100010001 1100100101 10000001100 10000110101 1011110010 1100110010 1101110000 1011100110 1101011101 1011010111 1100000001 10000100011 10000111011 1100001010 1100000000 1100000110 1100000101 20.938 50.820 1004.1 133769 16 1 5 58 52 3 $GNGGA,104420.00,4333.69009,N,00128.75435,E,1,08,1.03,195.3,M,53.8,M,,*41
134 10 44 21 4333.6900900128.75429195.4~ 00128.75429 195.4 1101010111 1100010001 1100100110 10000001010 10000110110 1011110100 1100110111 1101101000 1011101000 1101011101 1011010100 1011111111 10000100010 10000111010 1100000100 1100000011 1011111010 1011110110 20.938 50.805 1004.1 134769 17 1 5 59 51 3 $GNGGA,104421.00,4333.69009,N,00128.75429,E,1,08,1.03,195.4,M,53.8,M,,*4A
135 10 44 22 4333.6899000128.75414195.7~ 00128.75414 195.7 1101010111 1100010000 1100100100 10000001011 10000110111 1011101101 1100110011 1101101011 1011101001 1101011100 1011011000 1100000000 10000100011 10000111010 1100001110 1100000111 1100000010 1011111011 20.938 50.835 1004.0 135769 16 2 5 58 51 3 $GNGGA,104422.00,4333.68990,N,00128.75414,E,1,08,1.03,195.7,M,53.8,M,,*4C
136 10 44 23 4333.6898700128.75410195.7~ 00128.75410 195.7 1101010111 1100010001 1100100100 10000000111 10000110010 1011101111 1100110101 1101101111 1011100000 1101011100 1011010110 1100000001 10000100011 10000111000 1100001010 1100000101 1100000001 1011110110 20.938 50.797 1004.0 136769 16 1 5 59 51 3 $GNGGA,104423.00,4333.68987,N,00128.75410,E,1,08,1.03,195.7,M,53.8,M,,*4F
137 10 44 24 4333.6897800128.75375195.4~ 00128.75375 195.4 1101010111 1100010010 1100101000 10000000111 10000110100 1011110010 1100110111 1101100101 1011011001 1101011101 1011011001 1100000001 10000100011 10000111011 1100001001 1011111111 1011111111 1011111011 20.938 50.705 1004.0 137769 16 1 6 58 51 3 $GNGGA,104424.00,4333.68978,N,00128.75375,E,1,08,1.03,195.4,M,53.8,M,,*4F
138 10 44 25 4333.6901900128.75441194.9~ 00128.75441 194.9 1101010111 1100010001 1100100101 10000001001 10000110100 1011110001 1100110011 1101101011 1011101100 1101011100 1011010011 1011111111 10000011111 10000111011 1100001000 1100000001 1100000001 1011111100 20.938 50.622 1004.0 138769 16 1 5 59 51 3 $GNGGA,104425.00,4333.69019,N,00128.75441,E,1,08,1.03,194.9,M,53.8,M,,*4D
139 10 44 26 4333.6904600128.75449194.3~ 00128.75449 194.3 1101010111 1100010101 1100101001 10000001001 10000110100 1011110011 1100111000 1101101001 1011100111 1101011101 1011010111 1100000000 10000100010 10000111001 1100001011 1100000011 1100000011 1011111001 20.938 50.591 1004.0 139769 17 1 5 58 51 3 $GNGGA,104426.00,4333.69046,N,00128.75449,E,1,07,1.53,194.3,M,53.8,M,,*4C
140 10 44 27 4333.6905300128.75429193.6~ 00128.75429 193.6 1101010111 1100010011 1100100110 10000001011 10000110100 1011110011 1100111001 1101100110 1011100011 1101011101 1011010100 1011111100 10000100001 10000111011 1100001100 1100000100 1100001000 1100000010 20.938 50.561 1004.0 140769 16 1 5 58 52 3 $GNGGA,104427.00,4333.69053,N,00128.75429,E,1,07,1.53,193.6,M,53.8,M,,*4D
141 10 44 28 4333.6907200128.75440193.1~ 00128.75440 193.1 1101010111 1100010010 1100100111 10000010100 10000110101 1011110011 1100110110 1101101101 1011101010 1101011101 1011010110 1011111111 10000100010 10000111010 1100001001 1100000011 1100001011 1100000011 20.938 50.553 1004.1 141769 17 1 5 59 51 3 $GNGGA,104428.00,4333.69072,N,00128.75440,E,1,07,1.53,193.1,M,53.8,M,,*49
142 10 44 29 4333.6909800128.75465192.9~ 00128.75465 192.9 1101010111 1100010001 1100100101 10000010000 10000110110 1011110011 1100111001 1101100011 1011011110 1101011100 1011010110 1011111111 10000100101 10000111011 1100001010 1100000001 1100000010 1011111101 20.938 50.561 1004.1 142769 16 1 5 58 51 4 $GNGGA,104429.00,4333.69098,N,00128.75465,E,1,07,1.53,192.9,M,53.8,M,,*42
143 10 44 30 4333.6912600128.75481192.8~ 00128.75481 192.8 1101010111 1100010010 1100100111 10000010001 10000110111 1011110011 1100111001 1101101110 1011101101 1101011101 1011010101 1011111111 10000100011 10000111010 1100001101 1100000001 1100000000 1011110111 20.938 50.705 1004.1 143769 17 1 5 59 51 3 $GNGGA,104430.00,4333.69126,N,00128.75481,E,1,07,1.53,192.8,M,53.8,M,,*45
144 10 44 31 4333.6912200128.75459193.0~ 00128.75459 193.0 1101010111 1100010011 1100100110 10000001111 10000110100 1011110001 1100110100 1101101110 1011101100 1101011101 1011010101 1011111110 10000100001 10000111010 1100000111 1100000000 1100000011 1011111001 20.938 50.789 1004.1 144769 16 1 6 58 51 3 $GNGGA,104431.00,4333.69122,N,00128.75459,E,1,06,1.59,193.0,M,53.8,M,,*47
145 10 44 32 4333.6915100128.75493193.1~ 00128.75493 193.1 1101010111 1100010010 1100100101 10000001111 10000111001 1011110101 1100110110 1101100100 1011100001 1101011100 1011010101 1100000000 10000011111 10000111001 1100010000 1100000111 1011111101 1011110011 20.938 50.812 1004.0 145769 16 1 5 59 51 3 $GNGGA,104432.00,4333.69151,N,00128.75493,E,1,06,1.59,193.1,M,53.8,M,,*47
146 10 44 33 4333.6912700128.75439193.2~ 00128.75439 193.2 1101010111 1100010100 1100101001 10000010100 10000111001 1011110111 1100111110 1101100011 1011011010 1101011101 1011010110 1011111111 10000100011 10000111010 1100001010 1100000100 1100000010 1011111001 20.938 50.774 1004.0 146769 17 1 5 58 51 3 $GNGGA,104433.00,4333.69127,N,00128.75439,E,1,07,1.53,193.2,M,53.8,M,,*4F
147 10 44 34 4333.6913600128.75440193.1~ 00128.75440 193.1 1101010111 1100010011 1100100110 10000010001 10000111000 1011101111 1100110001 1101100110 1011101000 1101011101 1011010011 1011111110 10000011110 10000111010 1100001000 1011111101 1011111011 1011111010 20.938 50.858 1004.1 147769 16 1 5 58 52 3 $GNGGA,104434.00,4333.69136,N,00128.75440,E,1,07,1.53,193.1,M,53.8,M,,*45
148 10 44 35 4333.6914000128.75445193.1~ 00128.75445 193.1 1101010111 1100010010 1100100101 10000001110 10000110101 1011110011 1100111001 1101101100 1011110000 1101011100 1011010101 1011111111 10000100011 10000111011 1100001101 1011111111 1100000010 1011111101 20.938 50.873 1004.0 148769 17 1 5 58 51 3 $GNGGA,104435.00,4333.69140,N,00128.75445,E,1,07,1.53,193.1,M,53.8,M,,*40
149 10 44 36 4333.6916400128.75450192.3~ 00128.75450 192.3 1101010111 1100010000 1100100101 10000000100 10000110100 1011110001 1100110100 1101100110 1011101100 1101011100 1011010110 1011111111 10000101001 10000111100 1100001010 1100000101 1100000000 1011111011 20.938 50.980 1004.0 149769 16 1 5 58 52 3 $GNGGA,104436.00,4333.69164,N,00128.75450,E,1,07,1.53,192.3,M,53.8,M,,*42
150 10 44 37 4333.6917200128.75474192.6~ 00128.75474 192.6 1101010111 1100010100 1100100111 10000000010 10000110101 1011110111 1100111111 1101101100 1011101010 1101011100 1011011000 1011111110 10000100111 10000111011 1100001100 1100000100 1011111111 1011111010 20.938 51.011 1004.0 150769 17 1 5 59 51 3 $GNGGA,104437.00,4333.69172,N,00128.75474,E,1,07,1.53,192.6,M,53.8,M,,*47
151 10 44 38 4333.6916600128.75453192.4~ 00128.75453 192.4 1101010111 1100010100 1100100101 10000000111 10000110011 1011101110 1100110100 1101101010 1011100101 1101011100 1011010010 1100000000 10000100111 10000111101 1100001001 1011111110 1100000011 1011111101 20.938 50.973 1004.0 151769 16 2 5 58 51 3 $GNGGA,104438.00,4333.69166,N,00128.75453,E,1,07,1.53,192.4,M,53.8,M,,*4A
152 10 44 39 4333.6914400128.75411192.2~ 00128.75411 192.2 1101010111 1100010011 1100100110 10000001001 10000110011 1011110101 1100111010 1101101011 1011101100 1101011101 1011010101 1011111110 10000101000 10000111100 1100000101 1011111101 1011111110 1011111011 20.938 50.927 1004.0 152769 16 1 5 59 51 3 $GNGGA,104439.00,4333.69144,N,00128.75411,E,1,07,1.53,192.2,M,53.8,M,,*4B
153 10 44 40 4333.6918000128.75453191.4~ 00128.75453 191.4 1101010111 1100010011 1100101001 10000001111 10000111001 1011111000 1100111101 1101110110 1011111000 1101011100 1011011011 1100000001 10000100111 10000111001 1100001101 1100001000 1011111111 1011111111 20.938 50.858 1004.0 153769 16 1 6 58 51 3 $GNGGA,104440.00,4333.69180,N,00128.75453,E,1,07,1.53,191.4,M,53.8,M,,*4E
154 10 44 41 4333.6915800128.75390191.1~ 00128.75390 191.1 1101010111 1100010001 1100100101 10000001000 10000110110 1011110000 1100110110 1101110000 1011101111 1101011100 1011011000 1011111111 10000101010 10000111010 1100001011 1100000001 1100000010 1011111110 20.938 50.820 1004.0 154769 16 1 5 59 51 3 $GNGGA,104441.00,4333.69158,N,00128.75390,E,1,08,1.03,191.1,M,53.8,M,,*4D
155 10 44 42 4333.6916500128.75373190.3~ 00128.75373 190.3 1101010111 1100010100 1100100110 10000001000 10000110100 1011110000 1100110100 1101110010 1011101111 1101011101 1011010100 1011111100 10000110001 10000111011 1100001100 1100000011 1100000011 1100000011 20.938 50.797 1004.0 155769 17 1 5 58 51 3 $GNGGA,104442.00,4333.69165,N,00128.75373,E,1,08,1.03,190.3,M,53.8,M,,*4E
156 10 44 43 4333.6915600128.75341190.0~ 00128.75341 190.0 1101010111 1100010011 1100100110 10000001110 10000110100 1011110111 1100111011 1101110000 1011101011 1101011100 1011010011 1011111111 10000100011 10000111001 1100001000 1100000000 1100000000 1011111111 20.938 50.789 1004.1 156769 16 1 5 58 52 3 $GNGGA,104443.00,4333.69156,N,00128.75341,E,1,08,1.03,190.0,M,53.8,M,,*4D
157 10 44 44 4333.6917000128.75347189.7~ 00128.75347 189.7 1101010111 1100010001 1100101000 10000001100 10000110010 1011110011 1100111000 1101100011 1011100101 1101011101 1011010111 1011111110 10000101011 10000111000 1100001001 1100000011 1100000100 1100000000 20.938 50.774 1004.1 157769 17 1 5 59 51 3 $GNGGA,104444.00,4333.69170,N,00128.75347,E,1,08,1.03,189.7,M,53.8,M,,*47
