id HH MM SS longitude latitude altitude adc_1_ch0 adc_1_ch1 adc_1_ch2 adc_1_ch3 adc_1_ch4 adc_1_ch5 adc_1_ch6 adc_1_ch7 adc_1_ch8 adc_2_ch0 adc_2_ch1 adc_2_ch2 adc_2_ch3 adc_2_ch4 adc_2_ch5 adc_2_ch6 adc_2_ch7 adc_2_ch8 temp hum pres t_prog t_gps t_split t_adc t_temp t_hum t_pres trame_gga
1 10 51 50 4333.6826300128.73462164.9~ 00128.73462 164.9 1101010111 1100010100 1100100110 10000010000 10000110110 1011110011 1100110101 1101101110 1011100111 1101011101 1011010111 1011111111 10000100100 10000110111 1100001000 1100000000 1011111111 1011111110 21.000 50.759 795.83 1452 16 1 6 58 51 3 $GNGGA,105150.00,4333.68263,N,00128.73462,E,1,08,1.11,164.9,M,53.8,M,,*4E
2 10 51 51 4333.6825100128.73425164.9~ 00128.73425 164.9 1101010111 1100010011 1100100110 10000001111 10000110101 1011110111 1101000000 1101110011 1011101100 1101011101 1011010100 1011111111 10000100010 10000111010 1100001100 1100000011 1011111011 1011111001 21.000 50.698 1004.1 2452 16 1 5 59 51 3 $GNGGA,105151.00,4333.68251,N,00128.73425,E,1,07,1.22,164.9,M,53.8,M,,*42
3 10 51 52 4333.6824600128.73395164.8~ 00128.73395 164.8 1101010111 1100010011 1100101001 10000010000 10000110111 1011110101 1100111101 1101110011 1011101011 1101011101 1011010101 1011111110 10000100011 10000111010 1100001000 1100000001 1011111101 1011111100 21.000 50.660 1004.1 3452 17 1 5 58 51 3 $GNGGA,105152.00,4333.68246,N,00128.73395,E,1,07,1.22,164.8,M,53.8,M,,*4A
4 10 51 53 4333.6824000128.73365164.7~ 00128.73365 164.7 1101010111 1100010000 1100100011 10000001111 10000110110 1011110000 1100111000 1101110001 1011101110 1101011101 1011011000 1100000000 10000100110 10000111011 1100001110 1100000010 1011111110 1011110011 21.000 50.667 1004.1 4452 16 1 5 58 52 3 $GNGGA,105153.00,4333.68240,N,00128.73365,E,1,08,1.11,164.7,M,53.8,M,,*42
5 10 51 54 4333.6826100128.73392164.8~ 00128.73392 164.8 1101010111 1100010010 1100101000 10000010001 10000110100 1011101111 1100110111 1101101110 1011101101 1101011101 1011010110 1100000000 10000100011 10000111000 1100001011 1100000011 1100000011 1011110010 21.000 50.698 1004.1 5452 17 1 5 58 51 3 $GNGGA,105154.00,4333.68261,N,00128.73392,E,1,08,1.11,164.8,M,53.8,M,,*41
6 10 51 55 4333.6827200128.73402164.6~ 00128.73402 164.6 1101010111 1100010001 1100100101 10000001011 10000110100 1011111001 1100111001 1101101100 1011101001 1101011101 1011011000 1100000011 10000100010 10000111001 1100001011 1100000010 1011111111 1011111101 21.000 50.774 1004.1 6452 16 1 5 58 52 3 $GNGGA,105155.00,4333.68272,N,00128.73402,E,1,08,1.11,164.6,M,53.8,M,,*42
7 10 51 56 4333.6828600128.73413164.5~ 00128.73413 164.5 1101010111 1100010100 1100101001 10000001110 10000110100 1011110111 1100111011 1101101110 1011101110 1101011101 1011010111 1011111101 10000100001 10000111001 1100001010 1100000001 1100000000 1011111101 21.000 50.782 1004.1 7452 17 1 5 59 51 3 $GNGGA,105156.00,4333.68286,N,00128.73413,E,1,08,1.11,164.5,M,53.8,M,,*49
8 10 51 57 4333.6828300128.73404164.5~ 00128.73404 164.5 1101010111 1100010011 1100101001 10000001011 10000110001 1011110011 1100111101 1101101001 1011101011 1101011101 1011010101 1011111111 10000100101 10000111000 1100001100 1100000010 1100000101 1011111001 21.000 50.789 1004.1 8452 16 1 5 58 51 4 $GNGGA,105157.00,4333.68283,N,00128.73404,E,1,08,1.11,164.5,M,53.8,M,,*4B
9 10 51 58 4333.6828300128.73400164.5~ 00128.73400 164.5 1101010111 1100010011 1100101010 10000001101 10000110111 1011111000 1100111101 1101101111 1011101011 1101011101 1011010110 1011111110 10000100010 10000111010 1100001111 1100000011 1100000011 1011111011 21.000 50.805 1004.1 9452 16 1 5 59 51 3 $GNGGA,105158.00,4333.68283,N,00128.73400,E,1,08,1.11,164.5,M,53.8,M,,*40
10 10 51 59 4333.6830100128.73433164.6~ 00128.73433 164.6 1101010111 1100010010 1100100111 10000010001 10000111000 1011111010 1100111111 1101101111 1011101001 1101011101 1011010101 1100000000 10000100110 10000111010 1100000101 1011111111 1011111110 1011111011 21.000 50.744 1004.1 10452 16 1 6 58 51 3 $GNGGA,105159.00,4333.68301,N,00128.73433,E,1,08,1.11,164.6,M,53.8,M,,*49
11 10 52 00 4333.6831200128.73454164.7~ 00128.73454 164.7 1101010111 1100010010 1100100101 10000001110 10000110101 1011110111 1100111110 1101101000 1011101001 1101011101 1011010011 1011111101 10000100010 10000111011 1100001100 1100000010 1100000011 1011111111 21.000 50.660 1004.1 11452 16 1 5 59 51 3 $GNGGA,105200.00,4333.68312,N,00128.73454,E,1,08,1.11,164.7,M,53.8,M,,*44
12 10 52 01 4333.6832300128.73467164.8~ 00128.73467 164.8 1101010111 1100010010 1100100110 10000001001 10000110101 1011110110 1100111101 1101101001 1011101000 1101011101 1011011001 1011111111 10000100110 10000111000 1100001100 1100000100 1100000000 1011111010 21.000 50.606 1004.1 12452 17 1 5 58 51 3 $GNGGA,105201.00,4333.68323,N,00128.73467,E,1,08,1.11,164.8,M,53.8,M,,*48
13 10 52 03 4333.6830700128.73436164.7~ 00128.73436 164.7 1101010111 1100001111 1100100111 10000000010 10000110011 1011110100 1100111100 1101101011 1011110000 1101011101 1011011010 1100000000 10000100000 10000111001 1100001100 1011111110 1011111111 1011110101 21.000 50.538 1004.1 13782 16 1 6 59 51 3 $GNGGA,105203.00,4333.68307,N,00128.73436,E,1,08,1.11,164.7,M,53.8,M,,*47
14 10 52 04 4333.6828600128.73401164.7~ 00128.73401 164.7 1101010111 1100010010 1100100101 10000000110 10000110110 1011110000 1100110101 1101100110 1011101110 1101011101 1011010011 1011111110 10000100010 10000110111 1100000101 1100000110 1100000100 1011110001 21.000 50.683 1004.1 14780 17 0 5 60 50 4 $GNGGA,105204.00,4333.68286,N,00128.73401,E,1,08,1.11,164.7,M,53.8,M,,*4C
15 10 52 05 4333.6826300128.73365164.7~ 00128.73365 164.7 1101011000 1100010001 1100100110 10000010000 10000111000 1011101111 1100110011 1101100111 1011101011 1101011101 1011010110 1100000000 10000100100 10000111001 1100001110 1100000110 1011111111 1011110011 21.000 50.835 1004.1 15779 18 0 5 59 50 4 $GNGGA,105205.00,4333.68263,N,00128.73365,E,1,08,1.11,164.7,M,53.8,M,,*43
16 10 52 06 4333.6824600128.73319164.6~ 00128.73319 164.6 1101010111 1100010110 1100101000 10000001111 10000110110 1011101111 1100110011 1101100110 1011100000 1101011101 1011011000 1100000000 10000100101 10000111001 1100000111 1011111111 1100000010 1011110111 21.000 50.789 1004.1 16779 16 1 5 59 52 3 $GNGGA,105206.00,4333.68246,N,00128.73319,E,1,08,1.11,164.6,M,53.8,M,,*4D
17 10 52 07 4333.6825200128.73323164.5~ 00128.73323 164.5 1101010111 1100010010 1100100110 10000001001 10000110101 1011110001 1100111000 1101100011 1011100010 1101011101 1011010010 1011111110 10000100011 10000111001 1100001110 1100000100 1011111110 1011111010 21.000 50.751 1004.1 17779 17 0 6 60 50 4 $GNGGA,105207.00,4333.68252,N,00128.73323,E,1,08,1.11,164.5,M,53.8,M,,*43
18 10 52 08 4333.6823600128.73296164.4~ 00128.73296 164.4 1101010111 1100010010 1100100100 10000000011 10000110010 1011110001 1100111001 1101100111 1011101000 1101011100 1011011010 1100000010 10000100011 10000111001 1100010001 1100001010 1100000101 1011111010 21.000 50.736 1004.1 18779 16 0 6 59 50 5 $GNGGA,105208.00,4333.68236,N,00128.73296,E,1,08,1.11,164.4,M,53.8,M,,*40
19 10 52 09 4333.6824600128.73306164.2~ 00128.73306 164.2 1101010111 1100001111 1100100100 10000001110 10000111000 1011110110 1100111100 1101110001 1011110001 1101011101 1011010111 1100000001 10000100111 10000111001 1100000110 1011111110 1100000001 1011111101 21.000 50.667 1004.1 19779 17 0 6 60 50 4 $GNGGA,105209.00,4333.68246,N,00128.73306,E,1,08,1.11,164.2,M,53.8,M,,*48
20 10 52 10 4333.6823800128.73289164.3~ 00128.73289 164.3 1101011000 1100010100 1100100101 10000001110 10000110111 1011110011 1100111011 1101101101 1011100111 1101011101 1011010101 1011111101 10000101010 10000111011 1100001010 1100000001 1100000010 1011110110 21.000 50.660 1004.1 20779 16 0 7 59 50 4 $GNGGA,105210.00,4333.68238,N,00128.73289,E,1,08,1.11,164.3,M,53.8,M,,*4E
21 10 52 11 4333.6826900128.73336163.9~ 00128.73336 163.9 1101010111 1100010100 1100100111 10000001011 10000111000 1011110001 1100111001 1101101110 1011101111 1101011100 1011010111 1011111110 10000100010 10000111000 1100000111 1011111111 1100000001 1011111100 21.000 50.644 1004.1 21779 16 0 6 60 50 4 $GNGGA,105211.00,4333.68269,N,00128.73336,E,1,08,1.11,163.9,M,53.8,M,,*43
22 10 52 12 4333.6827800128.73349163.7~ 00128.73349 163.7 1101010111 1100010010 1100100101 10000001010 10000110101 1011101111 1100110101 1101110010 1011101110 1101011101 1011010111 1100000001 10000100101 10000111010 1100000110 1011111111 1100001000 1011111100 21.000 50.622 1004.1 22779 17 0 6 59 50 4 $GNGGA,105212.00,4333.68278,N,00128.73349,E,1,07,1.47,163.7,M,53.8,M,,*4A
23 10 52 13 4333.6829000128.73372163.6~ 00128.73372 163.6 1101010111 1100010100 1100101001 10000001111 10000110110 1011110000 1100111000 1101101111 1011110011 1101011101 1011011000 1100000010 10000100011 10000111011 1100000101 1011111100 1100000111 1100000001 21.000 50.591 1004.1 23779 16 0 6 59 51 4 $GNGGA,105213.00,4333.68290,N,00128.73372,E,1,08,1.11,163.6,M,53.8,M,,*48
24 10 52 14 4333.6827900128.73359164.0~ 00128.73359 164.0 1101010111 1100010100 1100100101 10000001100 10000110011 1011110111 1100111011 1101110011 1011101111 1101011101 1011011000 1100000000 10000100001 10000111010 1100001011 1100000101 1011111110 1011111001 21.000 50.599 1004.1 24779 17 0 6 59 50 4 $GNGGA,105214.00,4333.68279,N,00128.73359,E,1,08,1.11,164.0,M,53.8,M,,*40
25 10 52 15 4333.6829200128.73384164.0~ 00128.73384 164.0 1101010111 1100010001 1100100100 10000001100 10000110101 1011110111 1100111101 1101101101 1011101010 1101011101 1011010111 1100000010 10000100100 10000111010 1100001101 1100000101 1100000001 1011111111 21.000 50.667 1004.1 25779 16 0 6 59 51 4 $GNGGA,105215.00,4333.68292,N,00128.73384,E,1,07,1.47,164.0,M,53.8,M,,*48
26 10 52 16 4333.6831000128.73416164.0~ 00128.73416 164.0 1101010111 1100010100 1100100111 10000001001 10000110110 1011110010 1100111001 1101101111 1011101011 1101011100 1011010111 1100000011 10000100011 10000111001 1100001100 1100000101 1100000011 1011110000 21.000 50.652 1004.1 26779 17 0 6 60 50 4 $GNGGA,105216.00,4333.68310,N,00128.73416,E,1,07,1.47,164.0,M,53.8,M,,*4C
27 10 52 17 4333.6833300128.73451164.0~ 00128.73451 164.0 1101010111 1100010011 1100100011 10000010001 10000111000 1011110100 1100111000 1101101011 1011101001 1101011101 1011010110 1011111110 10000100111 10000111001 1100001001 1011111101 1100000011 1011111101 21.000 50.721 1004.1 27779 17 0 5 59 50 5 $GNGGA,105217.00,4333.68333,N,00128.73451,E,1,07,1.47,164.0,M,53.8,M,,*4F
28 10 52 18 4333.6835800128.73493164.0~ 00128.73493 164.0 1101010111 1100010000 1100100011 10000001110 10000110111 1011110010 1100110110 1101101100 1011101011 1101011101 1011010101 1011111111 10000011101 10000111000 1100001111 1100000011 1011111100 1011111000 21.000 50.988 1004.1 28779 17 0 5 59 51 4 $GNGGA,105218.00,4333.68358,N,00128.73493,E,1,07,1.47,164.0,M,53.8,M,,*43
29 10 52 19 4333.6836800128.73510163.8~ 00128.73510 163.8 1101010111 1100010001 1100100100 10000010001 10000110100 1011110110 1100111111 1101101110 1011101101 1101011101 1011010101 1011111110 10000100101 10000111010 1100001011 1100000111 1100000001 1011110010 21.000 51.087 1004.1 29779 17 0 6 58 51 4 $GNGGA,105219.00,4333.68368,N,00128.73510,E,1,07,1.47,163.8,M,53.8,M,,*44
30 10 52 20 4333.6837600128.73495163.3~ 00128.73495 163.3 1101010111 1100010001 1100100110 10000001001 10000110111 1011110011 1100110110 1101101111 1011101100 1101011101 1011010100 1011111101 10000101001 10000111001 1100001001 1100000000 1100000011 1011111011 21.000 50.927 1004.1 30779 16 0 5 59 51 4 $GNGGA,105220.00,4333.68376,N,00128.73495,E,1,08,1.11,163.3,M,53.8,M,,*4A
31 10 52 21 4333.6834700128.73425163.3~ 00128.73425 163.3 1101010111 1100010100 1100100110 10000001010 10000110111 1011110011 1100110111 1101101010 1011101101 1101011101 1011010110 1100000001 10000100001 10000111000 1100000100 1011111101 1100001011 1011111110 21.000 50.911 1004.1 31779 17 0 5 58 51 4 $GNGGA,105221.00,4333.68347,N,00128.73425,E,1,08,1.11,163.3,M,53.8,M,,*42
32 10 52 22 4333.6834800128.73428163.6~ 00128.73428 163.6 1101010111 1100010100 1100100111 10000001000 10000110101 1011110100 1100111011 1101101101 1011101000 1101011101 1011011101 1100000001 10000100010 10000111000 1100010000 1100001100 1100000011 1011111101 21.000 50.896 1004.1 32779 16 0 5 58 52 4 $GNGGA,105222.00,4333.68348,N,00128.73428,E,1,08,1.11,163.6,M,53.8,M,,*46
33 10 52 23 4333.6833400128.73405163.6~ 00128.73405 163.6 1101010111 1100010100 1100100111 10000010001 10000110111 1011101111 1100110111 1101101101 1011101101 1101011101 1011010111 1100000011 10000100110 10000111010 1100001011 1100000000 1011111110 1011111011 21.000 50.805 1004.1 33779 17 1 5 59 51 3 $GNGGA,105223.00,4333.68334,N,00128.73405,E,1,08,1.11,163.6,M,53.8,M,,*43
34 10 52 24 4333.6833400128.73398163.5~ 00128.73398 163.5 1101010111 1100010001 1100100101 10000001010 10000110111 1011111001 1100111111 1101101111 1011110000 1101011101 1011010100 1011111101 10000101000 10000111011 1100001000 1011111110 1100000110 1011111111 21.000 50.751 1004.1 34779 16 1 5 58 51 4 $GNGGA,105224.00,4333.68334,N,00128.73398,E,1,08,1.11,163.5,M,53.8,M,,*44
35 10 52 25 4333.6833200128.73376163.4~ 00128.73376 163.4 1101010111 1100010100 1100100111 10000001010 10000110101 1011101101 1100110011 1101101010 1011100101 1101011101 1011011001 1100000010 10000100101 10000110111 1100001011 1100000110 1100000101 1011111111 21.000 50.782 1004.1 35779 17 1 5 59 51 3 $GNGGA,105225.00,4333.68332,N,00128.73376,E,1,08,1.11,163.4,M,53.8,M,,*42
36 10 52 26 4333.6835500128.73403163.2~ 00128.73403 163.2 1101010111 1100010001 1100100100 10000001010 10000110010 1011110011 1100110111 1101101111 1011110000 1101011101 1011011001 1100000001 10000100000 10000111000 1100000111 1100000010 1100000011 1011111101 21.000 50.820 1004.1 36779 16 1 6 58 51 3 $GNGGA,105226.00,4333.68355,N,00128.73403,E,1,08,1.11,163.2,M,53.8,M,,*43
37 10 52 27 4333.6836300128.73395163.1~ 00128.73395 163.1 1101010111 1100010010 1100100101 10000001100 10000110101 1011110010 1100110110 1101101011 1011101110 1101011101 1011010011 1011111101 10000100111 10000111010 1100000111 1100000001 1100000010 1011111101 21.000 50.835 1004.1 37779 16 1 5 59 51 3 $GNGGA,105227.00,4333.68363,N,00128.73395,E,1,08,1.11,163.1,M,53.8,M,,*4C
38 10 52 28 4333.6838300128.73409162.8~ 00128.73409 162.8 1101010111 1100010101 1100101001 10000001111 10000110110 1011110010 1100110011 1101110001 1011110000 1101011101 1011010100 1100000001 10000100111 10000111011 1100001011 1100000010 1100001000 1100000010 21.000 50.797 1004.1 38779 17 1 5 58 51 3 $GNGGA,105228.00,4333.68383,N,00128.73409,E,1,08,1.11,162.8,M,53.8,M,,*47
39 10 52 29 4333.6840600128.73453162.5~ 00128.73453 162.5 1101010111 1100010010 1100100101 10000010011 10000110111 1011101110 1100110110 1101101110 1011101000 1101011101 1011010111 1011111111 10000101000 10000111011 1100000101 1011111111 1100000110 1011111100 21.000 50.789 1004.1 39779 16 1 5 58 52 3 $GNGGA,105229.00,4333.68406,N,00128.73453,E,1,08,1.11,162.5,M,53.8,M,,*4E
40 10 52 30 4333.6841000128.73443162.3~ 00128.73443 162.3 1101010111 1100010000 1100100100 10000001101 10000110100 1011110001 1100111001 1101101010 1011101010 1101011100 1011010100 1011111110 10000101000 10000111100 1100010001 1100000011 1100000000 1011111111 21.000 50.873 1004.1 40779 17 1 5 58 51 3 $GNGGA,105230.00,4333.68410,N,00128.73443,E,1,08,1.11,162.3,M,53.8,M,,*46
41 10 52 31 4333.6838900128.73409162.4~ 00128.73409 162.4 1101010111 1100010001 1100101000 10000001110 10000110101 1011110010 1100110111 1101101111 1011100101 1101011101 1011011001 1100000000 10000100110 10000111010 1100001110 1100001000 1011111001 1011111000 21.000 50.896 1004.1 41779 16 1 5 58 52 3 $GNGGA,105231.00,4333.68389,N,00128.73409,E,1,08,1.11,162.4,M,53.8,M,,*49
42 10 52 32 4333.6841000128.73445162.1~ 00128.73445 162.1 1101010111 1100010001 1100100110 10000001011 10000110110 1011110011 1100110111 1101101011 1011101011 1101011101 1011010100 1011111101 10000100100 10000111010 1100001100 1100000000 1100000001 1011111011 21.000 50.973 1004.1 42779 17 1 5 59 51 3 $GNGGA,105232.00,4333.68410,N,00128.73445,E,1,08,1.11,162.1,M,53.8,M,,*40
43 10 52 33 4333.6841400128.73463162.3~ 00128.73463 162.3 1101010111 1100010010 1100100101 10000010011 10000111001 1011101110 1100110101 1101101001 1011100101 1101011101 1011011000 1100000000 10000100101 10000111001 1100001100 1100000001 1100000011 1011111000 21.000 51.140 1004.1 43779 16 2 5 58 51 3 $GNGGA,105233.00,4333.68414,N,00128.73463,E,1,08,1.11,162.3,M,53.8,M,,*43
44 10 52 34 4333.6841600128.73463162.5~ 00128.73463 162.5 1101010111 1100010010 1100101000 10000010011 10000111000 1011101101 1100110010 1101101011 1011101010 1101011101 1011011001 1011111111 10000100010 10000111010 1100001111 1100000100 1100000110 1100000011 21.000 51.056 1004.1 44779 16 1 5 59 51 3 $GNGGA,105234.00,4333.68416,N,00128.73463,E,1,08,1.11,162.5,M,53.8,M,,*40
45 10 52 35 4333.6844200128.73511162.5~ 00128.73511 162.5 1101010111 1100010101 1100101011 10000001111 10000111001 1011110100 1100110111 1101110011 1011101100 1101011101 1011010111 1011111101 10000100010 10000111001 1100001111 1100000101 1011111100 1011101101 21.000 50.934 1004.1 45779 16 1 6 58 51 3 $GNGGA,105235.00,4333.68442,N,00128.73511,E,1,08,1.11,162.5,M,53.8,M,,*44
46 10 52 36 4333.6847500128.73573162.5~ 00128.73573 162.5 1101010111 1100010100 1100101001 10000001111 10000111011 1011101010 1100101101 1101101101 1011100100 1101011100 1011010010 1011111111 10000100100 10000111011 1100001011 1100000001 1011111110 1011110000 21.000 50.873 1004.1 46779 16 1 5 59 51 3 $GNGGA,105236.00,4333.68475,N,00128.73573,E,1,08,1.11,162.5,M,53.8,M,,*47
47 10 52 37 4333.6848800128.73583162.5~ 00128.73583 162.5 1101010111 1100010011 1100101000 10000010000 10000111001 1011101111 1100111000 1101100010 1011100110 1101011101 1011010001 1011111010 10000100111 10000111011 1100000111 1100000001 1100001010 1011111100 21.000 50.858 1004.1 47779 17 1 5 58 51 3 $GNGGA,105237.00,4333.68488,N,00128.73583,E,1,08,1.11,162.5,M,53.8,M,,*4B
48 10 52 38 4333.6848600128.73573162.5~ 00128.73573 162.5 1101011000 1100010000 1100100100 10000010011 10000110110 1011110010 1100111001 1101100101 1011100100 1101011101 1011010101 1100000001 10000101001 10000111011 1100001101 1100000111 1100001110 1100000000 21.000 50.866 1004.1 48779 16 1 5 58 52 3 $GNGGA,105238.00,4333.68486,N,00128.73573,E,1,08,1.11,162.5,M,53.8,M,,*45
49 10 52 39 4333.6850700128.73596162.3~ 00128.73596 162.3 1101010111 1100010010 1100100100 10000010010 10000111000 1011110101 1100111010 1101100110 1011100000 1101011101 1011010101 1011111101 10000100100 10000111000 1100001001 1100000001 1100001010 1011111110 21.000 50.942 1004.1 49779 17 1 5 59 51 3 $GNGGA,105239.00,4333.68507,N,00128.73596,E,1,08,1.11,162.3,M,53.8,M,,*41
50 10 52 40 4333.6849600128.73564162.5~ 00128.73564 162.5 1101010111 1100010100 1100100111 10000001100 10000110011 1011111010 1100111111 1101100100 1011101011 1101011101 1011011000 1100000011 10000100101 10000111011 1100001010 1011111111 1100000100 1011111000 21.000 50.950 1004.1 50779 16 1 5 58 51 4 $GNGGA,105240.00,4333.68496,N,00128.73564,E,1,08,1.11,162.5,M,53.8,M,,*4D
51 10 52 41 4333.6849000128.73539162.5~ 00128.73539 162.5 1101010111 1100010000 1100100101 10000001001 10000110101 1011101101 1100110011 1101110001 1011110101 1101011100 1011010101 1011111101 10000101011 10000111010 1100001001 1100000001 1100001111 1100000110 21.000 50.911 1004.1 51779 17 1 5 59 51 3 $GNGGA,105241.00,4333.68490,N,00128.73539,E,1,07,1.18,162.5,M,53.8,M,,*44
52 10 52 42 4333.6851700128.73585162.5~ 00128.73585 162.5 1101010111 1100001110 1100100101 10000001110 10000110101 1011111011 1100111011 1101110000 1011110010 1101011101 1011010101 1011111111 10000100010 10000111010 1100001110 1100000110 1100001001 1011111111 21.000 50.835 1004.1 52779 16 1 6 58 51 3 $GNGGA,105242.00,4333.68517,N,00128.73585,E,1,07,1.18,162.5,M,53.8,M,,*4E
53 10 52 43 4333.6852100128.73576162.3~ 00128.73576 162.3 1101010111 1100010001 1100100100 10000001100 10000110110 1011110011 1100110010 1101101010 1011101101 1101011101 1011010101 1011111111 10000100101 10000111010 1100000111 1011111110 1100000101 1100000000 21.000 50.812 1004.1 53779 16 1 5 59 51 3 $GNGGA,105243.00,4333.68521,N,00128.73576,E,1,07,1.18,162.3,M,53.8,M,,*40
54 10 52 44 4333.6852200128.73565162.2~ 00128.73565 162.2 1101010111 1100010010 1100100110 10000001110 10000110111 1011111000 1100111111 1101101000 1011101111 1101011101 1011010010 1011111101 10000011111 10000111010 1100001000 1100000001 1011111111 1011111100 21.000 50.835 1004.1 54779 17 1 5 58 51 3 $GNGGA,105244.00,4333.68522,N,00128.73565,E,1,07,1.18,162.2,M,53.8,M,,*47
55 10 52 45 4333.6853200128.73567162.1~ 00128.73567 162.1 1101010111 1100010011 1100100111 10000001001 10000110101 1011110100 1100111011 1101101001 1011101011 1101011101 1011011000 1100000000 10000100010 10000111010 1100001010 1100000001 1100000000 1011111000 21.000 50.805 1004.1 55779 16 1 5 58 52 3 $GNGGA,105245.00,4333.68532,N,00128.73567,E,1,07,1.18,162.1,M,53.8,M,,*46
56 10 52 46 4333.6848900128.73482162.6~ 00128.73482 162.6 1101010111 1100010100 1100100111 10000001001 10000110100 1011101111 1100111010 1101101100 1011101110 1101011101 1011010110 1100000000 10000011111 10000111001 1100001011 1100000110 1100000000 1011111100 21.000 51.270 1004.1 56779 17 1 5 58 51 3 $GNGGA,105246.00,4333.68489,N,00128.73482,E,1,08,1.11,162.6,M,53.8,M,,*4F
57 10 52 47 4333.6849300128.73491162.5~ 00128.73491 162.5 1101010111 1100010010 1100100110 10000001000 10000110100 1011110010 1100111110 1101100001 1011100111 1101011101 1011010011 1011111100 10000100011 10000111001 1100001100 1100000010 1011111100 1011110101 21.000 51.468 1004.1 57779 16 1 5 58 52 3 $GNGGA,105247.00,4333.68493,N,00128.73491,E,1,08,1.11,162.5,M,53.8,M,,*44
58 10 52 48 4333.6848800128.73470162.4~ 00128.73470 162.4 1101010111 1100010011 1100100110 10000001001 10000110100 1011110110 1100111010 1101110000 1011101001 1101011101 1011010110 1011111101 10000100000 10000111010 1100001011 1100000101 1100000001 1011111011 21.000 51.758 1004.1 58779 17 1 5 59 51 3 $GNGGA,105248.00,4333.68488,N,00128.73470,E,1,08,1.11,162.4,M,53.8,M,,*4F
59 10 52 49 4333.6849100128.73467162.2~ 00128.73467 162.2 1101010111 1100001111 1100100100 10000001011 10000110110 1011111000 1100111100 1101101001 1011101010 1101011101 1011011000 1100000001 10000011110 10000111010 1100010001 1100000100 1100000000 1011111100 21.000 51.690 1004.0 59779 16 2 5 58 51 3 $GNGGA,105249.00,4333.68491,N,00128.73467,E,1,08,1.11,162.2,M,53.8,M,,*46
60 10 52 50 4333.6852000128.73510162.1~ 00128.73510 162.1 1101010111 1100011000 1100101001 10000010000 10000111010 1011110010 1100111001 1101101001 1011101101 1101011101 1011010110 1011111111 10000011100 10000111000 1100001000 1011111111 1100000110 1100000011 21.000 52.079 1004.0 60779 16 1 5 59 51 3 $GNGGA,105250.00,4333.68520,N,00128.73510,E,1,08,1.11,162.1,M,53.8,M,,*47
61 10 52 51 4333.6852400128.73531161.9~ 00128.73531 161.9 1101010111 1100010101 1100100110 10000010001 10000110111 1011110011 1100110010 1101101000 1011101011 1101011100 1011010111 1100000000 10000100000 10000110111 1100001011 1100000011 1011111101 1011110100 21.000 52.514 1004.1 61779 16 1 6 58 51 3 $GNGGA,105251.00,4333.68524,N,00128.73531,E,1,08,1.11,161.9,M,53.8,M,,*4A
62 10 52 52 4333.6855300128.73572161.6~ 00128.73572 161.6 1101010111 1100010010 1100100101 10000001101 10000110111 1011110000 1100111000 1101100111 1011100110 1101011101 1011010011 1011111101 10000100100 10000111011 1100001100 1100000101 1011111010 1011110110 21.000 52.712 1004.1 62779 16 1 5 59 51 3 $GNGGA,105252.00,4333.68553,N,00128.73572,E,1,08,1.11,161.6,M,53.8,M,,*41
63 10 52 53 4333.6854500128.73587161.5~ 00128.73587 161.5 1101010111 1100010110 1100101000 10000001101 10000110100 1011111000 1100111100 1101101111 1011110001 1101011101 1011011001 1100000001 10000011101 10000111000 1100000111 1011111101 1011111110 1011111000 21.000 53.093 1004.1 63779 17 1 5 58 51 3 $GNGGA,105253.00,4333.68545,N,00128.73587,E,1,08,1.11,161.5,M,53.8,M,,*4E
64 10 52 54 4333.6856800128.73640161.4~ 00128.73640 161.4 1101010111 1100010101 1100101000 10000001010 10000110111 1011110101 1100111011 1101101110 1011110001 1101011101 1011011000 1100000001 10000100010 10000111001 1100001100 1100000101 1100001011 1011111101 21.000 53.284 1004.1 64779 16 1 5 58 52 3 $GNGGA,105254.00,4333.68568,N,00128.73640,E,1,08,1.11,161.4,M,53.8,M,,*4F
65 10 52 55 4333.6858700128.73663161.4~ 00128.73663 161.4 1101010111 1100010100 1100101001 10000010000 10000111001 1011110100 1100111011 1101110001 1011110001 1101011101 1011010110 1011111101 10000100110 10000111001 1100010010 1100000110 1100000010 1011111000 21.000 53.414 1004.1 65779 17 1 5 59 51 3 $GNGGA,105255.00,4333.68587,N,00128.73663,E,1,08,1.11,161.4,M,53.8,M,,*4E
66 10 52 56 4333.6859400128.73662161.4~ 00128.73662 161.4 1101010111 1100010001 1100100110 10000001001 10000110110 1011110011 1100111011 1101101101 1011101011 1101011101 1011010110 1011111111 10000100001 10000111010 1100001101 1100000010 1100001001 1100000101 21.000 53.116 1004.1 66779 16 1 5 58 51 4 $GNGGA,105256.00,4333.68594,N,00128.73662,E,1,08,1.11,161.4,M,53.8,M,,*4E
67 10 52 57 4333.6859200128.73656161.5~ 00128.73656 161.5 1101010111 1100010100 1100101001 10000010001 10000111000 1011110011 1100111000 1101101100 1011100110 1101011101 1011010101 1011111101 10000100010 10000111010 1100001011 1100000011 1011111111 1011110111 21.000 52.514 1004.1 67779 17 1 5 59 51 3 $GNGGA,105257.00,4333.68592,N,00128.73656,E,1,08,1.11,161.5,M,53.8,M,,*4F
68 10 52 58 4333.6859900128.73677161.5~ 00128.73677 161.5 1101010111 1100010101 1100101000 10000001111 10000111000 1011110111 1100111110 1101101111 1011101101 1101011101 1011011100 1100000010 10000100110 10000111100 1100001000 1100000011 1100000000 1011111010 21.000 52.315 1004.1 68779 16 1 6 58 51 3 $GNGGA,105258.00,4333.68599,N,00128.73677,E,1,08,1.11,161.5,M,53.8,M,,*48
69 10 52 59 4333.6860600128.73697161.5~ 00128.73697 161.5 1101010111 1100010010 1100100100 10000001000 10000110100 1011110011 1100111011 1101101111 1011101011 1101011101 1011011000 1100000000 10000100011 10000111011 1100001011 1100000010 1011111110 1011111111 21.000 52.361 1004.1 69779 16 1 5 59 51 3 $GNGGA,105259.00,4333.68606,N,00128.73697,E,1,08,1.11,161.5,M,53.8,M,,*42
70 10 53 00 4333.6861500128.73721161.5~ 00128.73721 161.5 1101010111 1100010110 1100101000 10000001100 10000110111 1011110100 1100111001 1101101110 1011110011 1101011101 1011010111 1011111110 10000100110 10000111011 1100001011 1100000110 1100000001 1011111100 21.000 52.292 1004.1 70779 17 1 5 58 51 3 $GNGGA,105300.00,4333.68615,N,00128.73721,E,1,08,1.11,161.5,M,53.8,M,,*41
71 10 53 01 4333.6860300128.73701161.2~ 00128.73701 161.2 1101010111 1100010011 1100101001 10000010011 10000111001 1011110111 1100111001 1101101001 1011101101 1101011101 1011011000 1100000000 10000101101 10000111101 1100001011 1100000011 1011111011 1011110100 21.000 52.292 1004.1 71779 16 1 5 58 52 3 $GNGGA,105301.00,4333.68603,N,00128.73701,E,1,07,1.20,161.2,M,53.8,M,,*4F
72 10 53 02 4333.6859600128.73697161.3~ 00128.73697 161.3 1101010111 1100001111 1100100101 10000010011 10000110110 1011110111 1100111100 1101101100 1011100111 1101011101 1011010110 1011111111 10000100011 10000111001 1100001011 1100000011 1100000100 1011111101 21.000 52.071 1004.1 72779 17 1 5 58 51 3 $GNGGA,105302.00,4333.68596,N,00128.73697,E,1,08,1.11,161.3,M,53.8,M,,*41
73 10 53 03 4333.6860900128.73723161.3~ 00128.73723 161.3 1101010111 1100010011 1100100101 10000010001 10000110111 1011110011 1100111000 1101110000 1011101011 1101011101 1011011000 1100000011 10000100010 10000111000 1100001110 1100000101 1011111111 1011110110 21.000 52.056 1004.1 73779 16 1 5 58 52 3 $GNGGA,105303.00,4333.68609,N,00128.73723,E,1,08,1.11,161.3,M,53.8,M,,*4B
74 10 53 04 4333.6863000128.73763161.4~ 00128.73763 161.4 1101010111 1100010011 1100101000 10000001110 10000111011 1011110001 1100110011 1101101011 1011101001 1101011101 1011011000 1100000000 10000100011 10000111010 1100001100 1100000001 1100001101 1100000110 21.000 52.002 1004.1 74779 17 1 5 59 51 3 $GNGGA,105304.00,4333.68630,N,00128.73763,E,1,08,1.11,161.4,M,53.8,M,,*45
75 10 53 05 4333.6863300128.73781161.5~ 00128.73781 161.5 1101010111 1100010001 1100100110 10000001100 10000110110 1011110111 1100111000 1101100110 1011100000 1101011101 1011011000 1100000000 10000100010 10000111000 1100000111 1011111111 1011111111 1011111001 21.000 51.949 1004.1 75779 16 2 5 58 51 3 $GNGGA,105305.00,4333.68633,N,00128.73781,E,1,08,1.11,161.5,M,53.8,M,,*4A
76 10 53 06 4333.6862200128.73776161.6~ 00128.73776 161.6 1101010111 1100010010 1100100101 10000001110 10000110101 1011101110 1100110101 1101101001 1011100100 1101011101 1011010010 1011111100 10000100100 10000111100 1100010001 1100001010 1100000000 1011111110 21.000 51.835 1004.1 76779 16 1 5 59 51 3 $GNGGA,105306.00,4333.68622,N,00128.73776,E,1,08,1.11,161.6,M,53.8,M,,*42
77 10 53 07 4333.6860900128.73766161.8~ 00128.73766 161.8 1101011000 1100010001 1100100110 10000001000 10000110101 1011110011 1100110111 1101101011 1011101000 1101011101 1011010011 1011111101 10000100100 10000111010 1100001111 1100000101 1100000000 1011111100 21.000 51.827 1004.1 77779 16 1 6 58 51 3 $GNGGA,105307.00,4333.68609,N,00128.73766,E,1,08,1.11,161.8,M,53.8,M,,*45
78 10 53 08 4333.6860300128.73760161.8~ 00128.73760 161.8 1101010111 1100010010 1100100110 10000001010 10000110101 1011110001 1100110111 1101101110 1011100110 1101011101 1011010100 1100000000 10000100110 10000111100 1100001010 1100000101 1100000001 1011111010 21.000 51.865 1004.1 78779 16 1 5 59 51 3 $GNGGA,105308.00,4333.68603,N,00128.73760,E,1,08,1.11,161.8,M,53.8,M,,*46
79 10 53 09 4333.6859200128.73751161.7~ 00128.73751 161.7 1101010111 1100010001 1100100101 10000001100 10000110101 1011110101 1100111000 1101101001 1011101010 1101011101 1011010111 1011111110 10000100101 10000111010 1100001110 1100000100 1100000011 1011111010 21.000 51.980 1004.1 79779 17 1 5 58 51 3 $GNGGA,105309.00,4333.68592,N,00128.73751,E,1,08,1.11,161.7,M,53.8,M,,*41
80 10 53 10 4333.6859300128.73764161.7~ 00128.73764 161.7 1101010111 1100010100 1100101001 10000001101 10000110101 1011110111 1100111101 1101101011 1011101001 1101011101 1011010111 1100000001 10000011111 10000111010 1100001011 1011111111 1100000100 1011111111 21.000 52.025 1004.1 80779 16 1 5 58 52 3 $GNGGA,105310.00,4333.68593,N,00128.73764,E,1,08,1.11,161.7,M,53.8,M,,*4E
81 10 53 11 4333.6856500128.73722161.7~ 00128.73722 161.7 1101010111 1100010100 1100101010 10000001110 10000110101 1011110011 1100101100 1101101010 1011100000 1101011101 1011011000 1011111111 10000101000 10000111010 1100001001 1100000010 1100000100 1011110111 21.000 51.896 1004.1 81779 17 1 5 59 51 3 $GNGGA,105311.00,4333.68565,N,00128.73722,E,1,08,1.11,161.7,M,53.8,M,,*44
82 10 53 12 4333.6855600128.73720161.7~ 00128.73720 161.7 1101010111 1100010100 1100100111 10000000111 10000110100 1011110011 1100111000 1101110100 1011101111 1101011101 1011010101 1011111111 10000100110 10000111100 1100001111 1100000110 1100000101 1011111011 21.063 51.751 1004.1 82779 16 1 5 58 51 4 $GNGGA,105312.00,4333.68556,N,00128.73720,E,1,08,1.11,161.7,M,53.8,M,,*45
83 10 53 13 4333.6854500128.73726161.7~ 00128.73726 161.7 1101010111 1100010101 1100100101 10000001010 10000110100 1011110000 1100111011 1101101001 1011101100 1101011101 1011010110 1011111101 10000100001 10000111001 1100001110 1100000001 1011111110 1011110011 21.000 51.873 1004.1 83779 17 1 5 59 51 3 $GNGGA,105313.00,4333.68545,N,00128.73726,E,1,08,1.11,161.7,M,53.8,M,,*40
84 10 53 14 4333.6853600128.73725161.6~ 00128.73725 161.6 1101010111 1100010010 1100100111 10000000111 10000110110 1011110110 1100111010 1101101100 1011101110 1101011101 1011010100 1011111111 10000100010 10000111001 1100001101 1100000010 1100001101 1100000011 21.000 51.835 1004.1 84779 16 1 6 58 51 3 $GNGGA,105314.00,4333.68536,N,00128.73725,E,1,07,1.20,161.6,M,53.8,M,,*4C
85 10 53 15 4333.6853000128.73727161.5~ 00128.73727 161.5 1101010111 1100010011 1100100110 10000001010 10000110100 1011110100 1100110110 1101110010 1011110001 1101011101 1011010111 1100000001 10000101011 10000111100 1100001000 1100000011 1100000010 1011111011 21.000 51.758 1004.1 85779 16 1 5 59 51 3 $GNGGA,105315.00,4333.68530,N,00128.73727,E,1,08,1.11,161.5,M,53.8,M,,*47
86 10 53 16 4333.6857600128.73829161.4~ 00128.73829 161.4 1101010111 1100010011 1100100100 10000001111 10000111001 1011110011 1100111010 1101110000 1011101011 1101011101 1011010111 1011111111 10000011111 10000111001 1100010000 1100001001 1100001001 1011111110 21.000 51.766 1004.1 86779 17 1 5 58 51 3 $GNGGA,105316.00,4333.68576,N,00128.73829,E,1,08,1.11,161.4,M,53.8,M,,*46
87 10 53 17 4333.6858800128.73861161.4~ 00128.73861 161.4 1101010111 1100010001 1100100100 10000001010 10000110110 1011110000 1100111000 1101110010 1011110001 1101011101 1011011001 1100000010 10000101001 10000111101 1100001100 1100000101 1100000000 1011110110 21.063 51.873 1004.1 87779 16 1 5 58 52 3 $GNGGA,105317.00,4333.68588,N,00128.73861,E,1,08,1.11,161.4,M,53.8,M,,*4A
88 10 53 18 4333.6859000128.73892161.6~ 00128.73892 161.6 1101010111 1100010000 1100100110 10000001110 10000110111 1011110101 1100111001 1101101111 1011101101 1101011101 1011010111 1011111110 10000100010 10000111010 1100001010 1100000000 1011111110 1011111111 21.063 51.812 1004.1 88779 17 1 5 58 51 3 $GNGGA,105318.00,4333.68590,N,00128.73892,E,1,08,1.11,161.6,M,53.8,M,,*42
89 10 53 19 4333.6858500128.73915161.7~ 00128.73915 161.7 1101010111 1100010010 1100100101 10000001100 10000110110 1011110110 1100111100 1101101110 1011110000 1101011101 1011010101 1011111101 10000011110 10000111000 1100001101 1100000111 1011111011 1011111001 21.000 51.781 1004.1 89779 16 1 5 58 52 3 $GNGGA,105319.00,4333.68585,N,00128.73915,E,1,08,1.11,161.7,M,53.8,M,,*48
90 10 53 20 4333.6858200128.73926162.0~ 00128.73926 162.0 1101010111 1100010100 1100100100 10000010101 10000110110 1011110101 1100111110 1101101110 1011101011 1101011101 1011010101 1100000001 10000100011 10000111010 1100000100 1011111100 1011111111 1011111110 21.063 51.644 1004.1 90779 17 1 5 59 51 3 $GNGGA,105320.00,4333.68582,N,00128.73926,E,1,08,1.11,162.0,M,53.8,M,,*41
91 10 53 21 4333.6858100128.73977162.1~ 00128.73977 162.1 1101010111 1100010011 1100101000 10000001011 10000110111 1011110100 1100111001 1101100111 1011100111 1101011101 1011010110 1011111101 10000100110 10000111001 1100001100 1100000101 1011111111 1011111111 21.063 51.468 1004.1 91779 16 2 5 58 51 3 $GNGGA,105321.00,4333.68581,N,00128.73977,E,1,08,1.11,162.1,M,53.8,M,,*46
92 10 53 22 4333.6859800128.73988162.3~ 00128.73988 162.3 1101010111 1100010010 1100100110 10000001110 10000111000 1011110100 1100110111 1101101000 1011011110 1101011101 1011010110 1011111111 10000100101 10000111011 1100001010 1100000011 1100000010 1011111011 21.063 51.407 1004.1 92779 16 1 5 59 51 3 $GNGGA,105322.00,4333.68598,N,00128.73988,E,1,08,1.11,162.3,M,53.8,M,,*4F
93 10 53 23 4333.6863100128.74044162.4~ 00128.74044 162.4 1101010111 1100010001 1100101000 10000010101 10000111000 1011110010 1100111001 1101110000 1011101101 1101011101 1011011000 1100000010 10000100101 10000111001 1100001100 1100000100 1100001011 1100001000 21.063 51.377 1004.1 93779 16 1 6 58 51 3 $GNGGA,105323.00,4333.68631,N,00128.74044,E,1,08,1.11,162.4,M,53.8,M,,*47
94 10 53 24 4333.6861800128.74082162.4~ 00128.74082 162.4 1101010111 1100010100 1100100110 10000001010 10000110101 1011101011 1100110000 1101101101 1011101000 1101011101 1011010110 1011111111 10000100110 10000111010 1100001101 1100000011 1100000111 1011111110 21.063 51.209 1004.1 94779 16 1 5 59 51 3 $GNGGA,105324.00,4333.68618,N,00128.74082,E,1,08,1.11,162.4,M,53.8,M,,*41
95 10 53 25 4333.6859400128.74052162.4~ 00128.74052 162.4 1101010111 1100010100 1100100101 10000000111 10000110100 1011110010 1100111101 1101101001 1011101000 1101011101 1011010100 1011111110 10000100111 10000111100 1100010000 1100000100 1100000111 1100000100 21.063 50.995 1004.1 95779 17 1 5 58 51 3 $GNGGA,105325.00,4333.68594,N,00128.74052,E,1,08,1.11,162.4,M,53.8,M,,*4A
96 10 53 26 4333.6858500128.74081162.4~ 00128.74081 162.4 1101010111 1100010100 1100100111 10000001111 10000111000 1011110010 1100111000 1101110001 1011101011 1101011101 1011010100 1011111110 10000100011 10000111011 1100000111 1100000000 1100000111 1100000010 21.063 50.873 1004.1 96779 16 1 5 58 52 3 $GNGGA,105326.00,4333.68585,N,00128.74081,E,1,08,1.11,162.4,M,53.8,M,,*47
97 10 53 27 4333.6856800128.74093162.3~ 00128.74093 162.3 1101011000 1100010000 1100101000 10000010100 10000111001 1011110100 1100111000 1101100101 1011100110 1101011101 1011011001 1100000001 10000100111 10000111011 1100001110 1100000100 1100000101 1011110110 21.063 50.774 1004.1 97779 17 1 5 59 51 3 $GNGGA,105327.00,4333.68568,N,00128.74093,E,1,08,1.11,162.3,M,53.8,M,,*41
98 10 53 28 4333.6855900128.74105162.3~ 00128.74105 162.3 1101010111 1100010101 1100100111 10000001001 10000110010 1011110110 1100110110 1101110001 1011101110 1101011101 1011010111 1011111111 10000100110 10000111001 1100001101 1100001000 1100000101 1011111101 21.063 50.698 1004.1 98779 16 1 5 58 51 4 $GNGGA,105328.00,4333.68559,N,00128.74105,E,1,08,1.11,162.3,M,53.8,M,,*42
99 10 53 29 4333.6856100128.74139162.3~ 00128.74139 162.3 1101010111 1100010110 1100101000 10000001100 10000110101 1011111000 1101000011 1101101111 1011110101 1101011101 1011010101 1100000000 10000101011 10000111101 1100001011 1100000111 1100000100 1100000000 21.063 50.660 1004.1 99779 17 1 5 59 51 3 $GNGGA,105329.00,4333.68561,N,00128.74139,E,1,08,1.11,162.3,M,53.8,M,,*47
100 10 53 30 4333.6855200128.74150162.2~ 00128.74150 162.2 1101010111 1100010100 1100101010 10000000101 10000110110 1011111000 1101000001 1101101101 1011101101 1101011101 1011011010 1100000001 10000100111 10000111010 1100001011 1100000011 1100000001 1011110111 21.063 50.637 1004.1 100779 16 1 6 58 51 3 $GNGGA,105330.00,4333.68552,N,00128.74150,E,1,08,1.11,162.2,M,53.8,M,,*41
101 10 53 31 4333.6860600128.74208162.1~ 00128.74208 162.1 1101010111 1100010001 1100100110 10000001010 10000110110 1011110100 1100111010 1101101110 1011101100 1101011101 1011010110 1100000000 10000100011 10000111010 1100001010 1100000000 1011111110 1011101111 21.063 50.637 1004.1 101779 16 1 5 59 51 3 $GNGGA,105331.00,4333.68606,N,00128.74208,E,1,08,1.11,162.1,M,53.8,M,,*4F
102 10 53 32 4333.6857800128.74208161.8~ 00128.74208 161.8 1101010111 1100010011 1100101000 10000001010 10000110011 1011110100 1100110101 1101110000 1011110010 1101011101 1011011001 1100000000 10000011111 10000111010 1100000110 1100000000 1100000010 1011111000 21.063 50.606 1004.1 102779 17 1 5 58 51 3 $GNGGA,105332.00,4333.68578,N,00128.74208,E,1,08,1.11,161.8,M,53.8,M,,*4C
103 10 53 33 4333.6858100128.74189161.7~ 00128.74189 161.7 1101010111 1100010001 1100100011 10000000111 10000110100 1011110110 1100110110 1101101110 1011100111 1101011101 1011010101 1011111110 10000101000 10000111011 1100010001 1100000111 1011111001 1011110011 21.063 50.545 1004.1 103779 16 1 5 58 52 3 $GNGGA,105333.00,4333.68581,N,00128.74189,E,1,08,1.11,161.7,M,53.8,M,,*4E
104 10 53 34 4333.6855800128.74217161.2~ 00128.74217 161.2 1101010111 1100010010 1100100100 10000001010 10000111000 1011110001 1100110001 1101101011 1011101110 1101011100 1011010110 1011111110 10000101010 10000111100 1100001101 1100001000 1011110010 1011110101 21.000 50.461 1004.1 104779 17 1 5 58 51 3 $GNGGA,105334.00,4333.68558,N,00128.74217,E,1,08,1.11,161.2,M,53.8,M,,*4C
105 10 53 35 4333.6854700128.74238160.7~ 00128.74238 160.7 1101010111 1100010001 1100100110 10000001111 10000110101 1011110001 1100111100 1101101111 1011101100 1101011101 1011010111 1011111110 10000100110 10000111010 1100001001 1100000100 1011111001 1011111101 21.000 50.393 1004.1 105779 16 1 5 58 52 3 $GNGGA,105335.00,4333.68547,N,00128.74238,E,1,08,1.11,160.7,M,53.8,M,,*4A
106 10 53 36 4333.6861500128.74340160.4~ 00128.74340 160.4 1101010111 1100010010 1100100110 10000001110 10000110101 1011110100 1100111000 1101101111 1011100111 1101011101 1011010101 1011111101 10000100000 10000111001 1100001010 1100000010 1100000000 1011111000 21.063 50.393 1004.1 106779 17 1 5 59 51 3 $GNGGA,105336.00,4333.68615,N,00128.74340,E,1,08,1.11,160.4,M,53.8,M,,*40
107 10 53 37 4333.6866200128.74415160.3~ 00128.74415 160.3 1101011000 1100010011 1100100111 10000010010 10000111001 1011110110 1100110111 1101101111 1011100001 1101011101 1011010100 1011111110 10000100010 10000111100 1100001101 1100000101 1011111000 1011110011 21.063 50.431 1004.1 107779 16 2 5 58 51 3 $GNGGA,105337.00,4333.68662,N,00128.74415,E,1,08,1.11,160.3,M,53.8,M,,*41
108 10 53 38 4333.6864000128.74414160.1~ 00128.74414 160.1 1101011000 1100010011 1100100110 10000001100 10000110110 1011110010 1100110011 1101110000 1011101100 1101011101 1011011001 1100000000 10000100110 10000111101 1100010000 1100000111 1100000000 1011110110 21.000 50.454 1004.1 108779 16 1 5 59 51 3 $GNGGA,105338.00,4333.68640,N,00128.74414,E,1,08,1.11,160.1,M,53.8,M,,*4D
109 10 53 39 4333.6863800128.74432159.9~ 00128.74432 159.9 1101010111 1100010100 1100101000 10000001001 10000111000 1011111000 1100111111 1101110001 1011101001 1101011101 1011010100 1011111111 10000011100 10000110111 1100001011 1100000011 1011111010 1011111000 21.063 50.484 1004.1 109779 16 1 6 58 51 3 $GNGGA,105339.00,4333.68638,N,00128.74432,E,1,08,1.10,159.9,M,53.8,M,,*44
110 10 53 40 4333.6860900128.74398159.9~ 00128.74398 159.9 1101010111 1100010100 1100101001 10000001011 10000110111 1011111000 1100111101 1101110110 1011101101 1101011101 1011010110 1100000001 10000100011 10000111011 1100000110 1100000000 1100000010 1011110111 21.063 50.515 1004.1 110779 16 1 5 59 51 3 $GNGGA,105340.00,4333.68609,N,00128.74398,E,1,08,1.10,159.9,M,53.8,M,,*4F
111 10 53 41 4333.6856500128.74378159.6~ 00128.74378 159.6 1101010111 1100010011 1100101000 10000000101 10000110001 1011110010 1100110101 1101110011 1011110011 1101011101 1011010011 1011111111 10000011111 10000111010 1100001010 1100000100 1100000101 1011111001 21.063 50.530 1004.1 111779 17 1 5 58 51 3 $GNGGA,105341.00,4333.68565,N,00128.74378,E,1,08,1.10,159.6,M,53.8,M,,*46
112 10 53 42 4333.6860700128.74394159.5~ 00128.74394 159.5 1101010111 1100010001 1100100110 10000001010 10000110101 1011110011 1100110110 1101100111 1011101101 1101011101 1011010101 1011111111 10000101110 10000111011 1100001100 1100000000 1011111111 1011111011 21.063 50.561 1004.1 112779 16 1 5 58 52 3 $GNGGA,105342.00,4333.68607,N,00128.74394,E,1,08,1.10,159.5,M,53.8,M,,*43
113 10 53 43 4333.6857600128.74391159.4~ 00128.74391 159.4 1101010111 1100010010 1100101000 10000001101 10000110101 1011110011 1100111100 1101110001 1011110101 1101011100 1011010110 1011111111 10000100111 10000111011 1100001100 1100000101 1100000000 1011111100 21.063 50.576 1004.1 113779 17 1 5 59 51 3 $GNGGA,105343.00,4333.68576,N,00128.74391,E,1,08,1.10,159.4,M,53.8,M,,*43
114 10 53 44 4333.6859300128.74405159.2~ 00128.74405 159.2 1101011000 1100010001 1100100110 10000001000 10000111000 1011110000 1100110001 1101100110 1011101010 1101011101 1011010100 1011111101 10000101010 10000111010 1100001000 1100000001 1011111111 1011111010 21.063 50.591 1004.1 114779 16 1 5 58 51 4 $GNGGA,105344.00,4333.68593,N,00128.74405,E,1,08,1.10,159.2,M,53.8,M,,*43
115 10 53 45 4333.6859900128.74411159.2~ 00128.74411 159.2 1101010111 1100010011 1100100110 10000001110 10000110110 1011110100 1100111001 1101101011 1011101100 1101011101 1011011000 1011111111 10000101101 10000111100 1100001000 1100000101 1100001011 1011111111 21.063 50.583 1004.1 115779 17 1 5 59 51 3 $GNGGA,105345.00,4333.68599,N,00128.74411,E,1,08,1.10,159.2,M,53.8,M,,*4D
116 10 53 46 4333.6857000128.74397159.1~ 00128.74397 159.1 1101010111 1100010101 1100101001 10000000111 10000110100 1011110011 1100111000 1101101011 1011101011 1101011101 1011010011 1011111110 10000100110 10000111100 1100000111 1100000001 1011111111 1011111000 21.063 50.553 1004.1 116779 16 1 6 58 51 3 $GNGGA,105346.00,4333.68570,N,00128.74397,E,1,08,1.10,159.1,M,53.8,M,,*43
117 10 53 47 4333.6856500128.74395159.5~ 00128.74395 159.5 1101010111 1100010010 1100100101 10000000111 10000110010 1011110111 1100111000 1101101001 1011101000 1101011101 1011010100 1011111101 10000100010 10000111000 1100000111 1100000001 1100000100 1011111110 21.063 50.530 1004.1 117779 16 1 5 59 51 3 $GNGGA,105347.00,4333.68565,N,00128.74395,E,1,08,1.10,159.5,M,53.8,M,,*40
118 10 53 48 4333.6854200128.74394159.2~ 00128.74394 159.2 1101010111 1100010011 1100100011 10000000111 10000110110 1011101111 1100110101 1101101100 1011011101 1101011101 1011010100 1100000000 10000100111 10000111100 1100001111 1100001010 1100000100 1011110111 21.063 50.545 1004.1 118779 17 1 5 58 51 3 $GNGGA,105348.00,4333.68542,N,00128.74394,E,1,08,1.10,159.2,M,53.8,M,,*4C
119 10 53 49 4333.6852700128.74378159.2~ 00128.74378 159.2 1101010111 1100010010 1100100101 10000001111 10000110101 1011110100 1100111000 1101101100 1011101101 1101011101 1011010110 1011111111 10000100100 10000111001 1100001010 1011111101 1011111110 1011111000 21.063 50.545 1004.1 119779 16 1 5 58 52 3 $GNGGA,105349.00,4333.68527,N,00128.74378,E,1,08,1.10,159.2,M,53.8,M,,*4C
120 10 53 50 4333.6848500128.74349158.9~ 00128.74349 158.9 1101010111 1100010001 1100100101 10000010000 10000110110 1011111011 1100111110 1101101011 1011101001 1101011101 1011011010 1100000001 10000011110 10000111010 1100001010 1100000110 1100000011 1011111011 21.063 50.507 1004.1 120779 17 1 5 58 51 3 $GNGGA,105350.00,4333.68485,N,00128.74349,E,1,08,1.10,158.9,M,53.8,M,,*45
121 10 53 51 4333.6844400128.74303158.8~ 00128.74303 158.8 1101010111 1100010011 1100100111 10000001111 10000110111 1011110000 1100111001 1101110101 1011110100 1101011101 1011010111 1100000000 10000100100 10000111010 1100001001 1100000100 1100000001 1011111000 21.063 50.461 1004.1 121779 16 1 5 58 52 3 $GNGGA,105351.00,4333.68444,N,00128.74303,E,1,08,1.10,158.8,M,53.8,M,,*46
122 10 53 52 4333.6841600128.74274158.8~ 00128.74274 158.8 1101010111 1100010010 1100100110 10000001111 10000110111 1011110011 1100111100 1101101110 1011101011 1101011100 1011010100 1011111110 10000101011 10000111110 1100001010 1100000011 1011111110 1011110011 21.063 50.423 1004.1 122779 17 1 5 59 51 3 $GNGGA,105352.00,4333.68416,N,00128.74274,E,1,08,1.10,158.8,M,53.8,M,,*43
123 10 53 53 4333.6839300128.74249158.9~ 00128.74249 158.9 1101010111 1100010011 1100101001 10000001110 10000110110 1011111001 1101000000 1101101111 1011110000 1101011101 1011010110 1100000000 10000100011 10000111010 1100001001 1100000110 1011111100 1011110101 21.063 50.408 1004.1 123779 16 2 5 58 51 3 $GNGGA,105353.00,4333.68393,N,00128.74249,E,1,08,1.10,158.9,M,53.8,M,,*47
124 10 53 54 4333.6838700128.74264158.9~ 00128.74264 158.9 1101010111 1100010011 1100100101 10000010000 10000111000 1011110100 1100110110 1101100111 1011101010 1101011101 1011010011 1011111111 10000100001 10000111011 1100001000 1100000000 1100000001 1011111110 21.063 50.377 1004.1 124779 16 1 5 59 51 3 $GNGGA,105354.00,4333.68387,N,00128.74264,E,1,08,1.10,158.9,M,53.8,M,,*4A
125 10 53 55 4333.6839700128.74273159.2~ 00128.74273 159.2 1101010111 1100010100 1100100111 10000001111 10000111000 1011110010 1100110101 1101101001 1011101001 1101011101 1011010100 1011111101 10000100110 10000111001 1100001111 1100000011 1100000010 1011111001 21.000 50.377 1004.1 125779 16 1 6 58 51 3 $GNGGA,105355.00,4333.68397,N,00128.74273,E,1,08,1.10,159.2,M,53.8,M,,*46
126 10 53 56 4333.6839900128.74279159.3~ 00128.74279 159.3 1101010111 1100010110 1100101001 10000010010 10000111000 1011101101 1100111000 1101101101 1011110001 1101011101 1011010110 1011111110 10000100110 10000111000 1100001110 1100001000 1011111010 1011110111 21.000 50.393 1004.1 126779 16 1 5 59 51 3 $GNGGA,105356.00,4333.68399,N,00128.74279,E,1,08,1.10,159.3,M,53.8,M,,*40
127 10 53 57 4333.6835900128.74253159.3~ 00128.74253 159.3 1101010111 1100001111 1100100010 10000001110 10000110101 1011111011 1100111111 1101110001 1011101000 1101011101 1011010100 1011111111 10000100111 10000111011 1100001011 1100000001 1100000001 1011111011 21.063 50.408 1004.1 127779 17 1 5 58 51 3 $GNGGA,105357.00,4333.68359,N,00128.74253,E,1,08,1.10,159.3,M,53.8,M,,*45
128 10 53 58 4333.6838400128.74276159.5~ 00128.74276 159.5 1101010111 1100010100 1100100111 10000001010 10000110100 1011101100 1100110100 1101110000 1011101100 1101011101 1011010111 1011111111 10000100110 10000111010 1100001001 1100000011 1011111110 1011111100 21.063 50.431 1004.1 128779 16 1 5 58 52 3 $GNGGA,105358.00,4333.68384,N,00128.74276,E,1,08,1.10,159.5,M,53.8,M,,*4B
129 10 53 59 4333.6836100128.74226159.4~ 00128.74226 159.4 1101010111 1100010000 1100100100 10000010011 10000111001 1011110101 1100111011 1101101101 1011100001 1101011101 1011010100 1011111110 10000100000 10000111001 1100001111 1100000110 1100000010 1011110101 21.063 50.416 1004.1 129779 17 1 5 59 51 3 $GNGGA,105359.00,4333.68361,N,00128.74226,E,1,08,1.10,159.4,M,53.8,M,,*45
130 10 54 00 4333.6836900128.74235159.5~ 00128.74235 159.5 1101010111 1100010011 1100100101 10000010010 10000111010 1011110010 1100111011 1101110001 1011100100 1101011101 1011011001 1100000001 10000100001 10000111000 1100001110 1100000001 1011111110 1011110111 21.000 50.400 1004.1 130779 16 1 5 58 51 4 $GNGGA,105400.00,4333.68369,N,00128.74235,E,1,08,1.10,159.5,M,53.8,M,,*45
131 10 54 01 4333.6837000128.74234159.6~ 00128.74234 159.6 1101010111 1100010101 1100100111 10000000111 10000110001 1011110011 1100111001 1101110000 1011101010 1101011101 1011010101 1011111110 10000100011 10000111010 1100001010 1100000100 1100000010 1011111100 21.000 50.385 1004.1 131779 17 1 5 59 51 3 $GNGGA,105401.00,4333.68370,N,00128.74234,E,1,08,1.10,159.6,M,53.8,M,,*4E
132 10 54 02 4333.6837800128.74235159.7~ 00128.74235 159.7 1101010111 1100010011 1100100101 10000001000 10000110101 1011110101 1100111010 1101101111 1011101001 1101011101 1011010110 1100000000 10000011111 10000111011 1100001101 1100001000 1011111111 1011111101 21.063 50.393 1004.1 132779 16 1 6 58 51 3 $GNGGA,105402.00,4333.68378,N,00128.74235,E,1,08,1.10,159.7,M,53.8,M,,*45
133 10 54 03 4333.6836200128.74238159.9~ 00128.74238 159.9 1101010111 1100010001 1100100110 10000000111 10000110011 1011110101 1100111001 1101110000 1011110001 1101011101 1011010111 1011111101 10000101001 10000111011 1100010001 1100000010 1100000111 1011111010 21.000 50.408 1004.1 133779 16 1 5 59 51 3 $GNGGA,105403.00,4333.68362,N,00128.74238,E,1,08,1.10,159.9,M,53.8,M,,*4C
134 10 54 04 4333.6837400128.74250160.3~ 00128.74250 160.3 1101010111 1100010100 1100100111 10000001100 10000110111 1011110111 1100111110 1101110101 1011110000 1101011101 1011010011 1011111111 10000100110 10000111001 1100001111 1100000100 1100000001 1011110101 21.063 50.431 1004.1 134779 17 1 5 58 51 3 $GNGGA,105404.00,4333.68374,N,00128.74250,E,1,08,1.10,160.3,M,53.8,M,,*42
135 10 54 05 4333.6840200128.74296160.3~ 00128.74296 160.3 1101010111 1100010001 1100100111 10000001101 10000111001 1011110010 1100111001 1101110110 1011110111 1101011101 1011011001 1011111111 10000100011 10000111100 1100001001 1100000000 1100000011 1011111001 21.063 50.545 1004.1 135779 16 1 5 58 52 3 $GNGGA,105405.00,4333.68402,N,00128.74296,E,1,08,1.10,160.3,M,53.8,M,,*4F
136 10 54 06 4333.6846100128.74361161.3~ 00128.74361 161.3 1101010111 1100010010 1100100110 10000001000 10000110101 1011110001 1100110111 1101110000 1011101110 1101011100 1011010110 1011111110 10000100010 10000111010 1100001010 1100000010 1100000000 1011111011 21.000 50.660 1004.1 136779 17 1 5 58 51 3 $GNGGA,105406.00,4333.68461,N,00128.74361,E,1,09,0.94,161.3,M,53.8,M,,*4D
137 10 54 07 4333.6850700128.74420162.2~ 00128.74420 162.2 1101011000 1100010101 1100100110 10000001101 10000110100 1011110001 1100111001 1101100110 1011100001 1101011101 1011011001 1100000000 10000100000 10000111000 1100001011 1011111110 1100000011 1011111000 21.000 50.660 1004.1 137779 16 1 5 58 52 3 $GNGGA,105407.00,4333.68507,N,00128.74420,E,1,09,0.94,162.2,M,53.8,M,,*4D
138 10 54 08 4333.6853300128.74434163.0~ 00128.74434 163.0 1101011000 1100010010 1100100100 10000001011 10000111001 1011110011 1100110100 1101101111 1011101111 1101011101 1011011000 1100000000 10000100010 10000111010 1100000100 1011111110 1011111010 1011110100 21.000 50.591 1004.1 138779 17 1 5 59 51 3 $GNGGA,105408.00,4333.68533,N,00128.74434,E,1,09,0.94,163.0,M,53.8,M,,*43
139 10 54 09 4333.6858300128.74485164.0~ 00128.74485 164.0 1101010111 1100010010 1100100100 10000001100 10000111000 1011110011 1100110100 1101101101 1011100111 1101011101 1011010110 1011111111 10000100100 10000111010 1100001000 1100000010 1011111110 1011111001 21.000 50.545 1004.1 139779 16 2 5 58 51 3 $GNGGA,105409.00,4333.68583,N,00128.74485,E,1,09,0.94,164.0,M,53.8,M,,*44
140 10 54 10 4333.6854900128.74445164.8~ 00128.74445 164.8 1101010111 1100010110 1100101000 10000001101 10000110111 1011110101 1100111010 1101111000 1011110101 1101011101 1011010110 1011111111 10000101000 10000111011 1100001010 1100000011 1011111001 1011111000 21.000 50.599 1004.1 140779 16 1 5 59 51 3 $GNGGA,105410.00,4333.68549,N,00128.74445,E,1,09,0.94,164.8,M,53.8,M,,*4E
141 10 54 11 4333.6859800128.74510165.3~ 00128.74510 165.3 1101010111 1100010000 1100100100 10000001110 10000110110 1011110001 1100110110 1101101101 1011101011 1101011101 1011010100 1011111111 10000101000 10000111010 1100001000 1100000010 1100000100 1011110110 21.000 50.644 1004.1 141779 16 1 6 58 51 3 $GNGGA,105411.00,4333.68598,N,00128.74510,E,1,09,0.94,165.3,M,53.8,M,,*48
142 10 54 12 4333.6862800128.74547165.7~ 00128.74547 165.7 1101010111 1100010101 1100100110 10000001110 10000110100 1011110101 1100111001 1101110001 1011101110 1101011101 1011011000 1100000001 10000100111 10000111010 1100001011 1100000001 1100001000 1011111110 21.000 50.675 1004.1 142779 16 1 5 59 51 3 $GNGGA,105412.00,4333.68628,N,00128.74547,E,1,09,0.94,165.7,M,53.8,M,,*45
143 10 54 13 4333.6863100128.74557166.4~ 00128.74557 166.4 1101010111 1100010011 1100100100 10000001100 10000111000 1011111001 1100111100 1101100111 1011100111 1101011101 1011010010 1011111100 10000100011 10000111010 1100010000 1100000010 1100000011 1011111111 21.000 50.675 1004.1 143779 17 1 5 58 51 3 $GNGGA,105413.00,4333.68631,N,00128.74557,E,1,09,0.94,166.4,M,53.8,M,,*4D
144 10 54 14 4333.6866200128.74581167.3~ 00128.74581 167.3 1101010111 1100010010 1100100101 10000001111 10000110110 1011110100 1100111001 1101101001 1011100101 1101011101 1011010010 1011111110 10000100011 10000111001 1100000101 1100000010 1011111111 1011111101 21.000 50.690 1004.1 144779 16 1 5 58 52 3 $GNGGA,105414.00,4333.68662,N,00128.74581,E,1,09,0.94,167.3,M,53.8,M,,*41
145 10 54 15 4333.6866500128.74567168.0~ 00128.74567 168.0 1101010111 1100010101 1100101000 10000001011 10000110101 1011101011 1100110010 1101101001 1011100111 1101011101 1011010111 1100000001 10000101011 10000111100 1100001100 1011111111 1100000001 1011111100 21.000 50.705 1004.1 145779 17 1 5 59 51 3 $GNGGA,105415.00,4333.68665,N,00128.74567,E,1,09,0.94,168.0,M,53.8,M,,*43
146 10 54 16 4333.6868000128.74562168.7~ 00128.74562 168.7 1101010111 1100010011 1100100110 10000001100 10000110111 1011110000 1100111000 1101110100 1011101111 1101011101 1011010011 1011111100 10000101000 10000111110 1100001000 1100000001 1100000000 1100000001 21.000 50.751 1004.1 146779 16 1 5 58 51 4 $GNGGA,105416.00,4333.68680,N,00128.74562,E,1,09,0.94,168.7,M,53.8,M,,*49
