id HH MM SS longitude latitude altitude adc_1_ch0 adc_1_ch1 adc_1_ch2 adc_1_ch3 adc_1_ch4 adc_1_ch5 adc_1_ch6 adc_1_ch7 adc_1_ch8 adc_2_ch0 adc_2_ch1 adc_2_ch2 adc_2_ch3 adc_2_ch4 adc_2_ch5 adc_2_ch6 adc_2_ch7 adc_2_ch8 temp hum pres t_prog t_gps t_split t_adc t_temp t_hum t_pres trame_gga
1 10 54 30 4333.6884600128.74479183.0~ 00128.74479 183.0 1101011000 1100010010 1100100110 10000001010 10000110011 1011110111 1100111101 1101101100 1011101110 1101011101 1011011001 1011111111 10000100101 10000111010 1100001011 1100000011 1100000100 1011111101 21.000 50.873 795.83 1463 16 1 5 58 52 3 $GNGGA,105430.00,4333.68846,N,00128.74479,E,1,09,0.94,183.0,M,53.8,M,,*40
2 10 54 32 4333.6894400128.74544185.4~ 00128.74544 185.4 1101010111 1100010011 1100101000 10000001011 10000110101 1011110010 1100111001 1101101110 1011101111 1101011101 1011010010 1011111101 10000101000 10000111001 1100001001 1011111110 1011111111 1100000000 21.000 50.934 1004.1 2623 16 1 5 59 51 3 $GNGGA,105432.00,4333.68944,N,00128.74544,E,1,09,0.94,185.4,M,53.8,M,,*4C
3 10 54 33 4333.6897500128.74554186.6~ 00128.74554 186.6 1101010111 1100010010 1100100110 10000001011 10000111001 1011110010 1100110101 1101101101 1011101010 1101011101 1011010111 1011111101 10000100011 10000111010 1100001011 1100000011 1100000000 1011111110 21.000 50.919 1004.1 3622 17 0 5 58 51 4 $GNGGA,105433.00,4333.68975,N,00128.74554,E,1,09,0.94,186.6,M,53.8,M,,*4F
4 10 54 34 4333.6901500128.74563188.0~ 00128.74563 188.0 1101010111 1100010000 1100100001 10000001110 10000111000 1011110100 1100110110 1101101010 1011100011 1101011101 1011010110 1011111111 10000100100 10000111010 1100001010 1011111101 1100000101 1011111100 21.000 50.934 1004.1 4622 16 0 6 59 51 4 $GNGGA,105434.00,4333.69015,N,00128.74563,E,1,09,0.94,188.0,M,53.8,M,,*4A
5 10 54 35 4333.6905100128.74578189.0~ 00128.74578 189.0 1101011000 1100010001 1100100111 10000001100 10000110111 1011110011 1100111010 1101101101 1011101010 1101011101 1011010100 1011111111 10000011111 10000111000 1100001110 1100000100 1100000111 1011111100 21.000 50.927 1004.1 5622 17 0 6 59 50 4 $GNGGA,105435.00,4333.69051,N,00128.74578,E,1,09,0.94,189.0,M,53.8,M,,*40
6 10 54 36 4333.6907200128.74574190.0~ 00128.74574 190.0 1101010111 1100010110 1100100110 10000001100 10000110110 1011110010 1100110100 1101100011 1011011111 1101011101 1011010101 1100000000 10000100010 10000111001 1100001101 1100000010 1011111101 1011111100 21.000 50.942 1004.1 6622 16 0 6 59 51 4 $GNGGA,105436.00,4333.69072,N,00128.74574,E,1,09,0.94,190.0,M,53.8,M,,*46
7 10 54 37 4333.6912300128.74614190.9~ 00128.74614 190.9 1101011000 1100010101 1100101000 10000001011 10000110011 1011101111 1100110011 1101101011 1011101000 1101011101 1011011000 1100000000 10000100011 10000111010 1100001000 1100000010 1100000000 1100000010 21.000 50.934 1004.1 7622 17 0 6 60 50 4 $GNGGA,105437.00,4333.69123,N,00128.74614,E,1,09,0.94,190.9,M,53.8,M,,*4E
8 10 54 38 4333.6913700128.74643191.7~ 00128.74643 191.7 1101010111 1100010011 1100100110 10000001001 10000110111 1011101111 1100110011 1101101100 1011101000 1101011101 1011010111 1011111111 10000100010 10000111011 1100001110 1100000000 1100000000 1011110100 21.000 50.942 1004.1 8622 16 0 6 59 50 5 $GNGGA,105438.00,4333.69137,N,00128.74643,E,1,09,0.94,191.7,M,53.8,M,,*49
9 10 54 39 4333.6915800128.74661192.5~ 00128.74661 192.5 1101010111 1100010011 1100100110 10000010000 10000110110 1011101111 1100110010 1101101111 1011101101 1101011101 1011010100 1011111110 10000101010 10000111100 1100000011 1011111101 1100000011 1011111000 21.000 50.965 1004.1 9622 16 0 6 60 50 4 $GNGGA,105439.00,4333.69158,N,00128.74661,E,1,09,0.94,192.5,M,53.8,M,,*40
10 10 54 40 4333.6917600128.74653193.3~ 00128.74653 193.3 1101010111 1100010001 1100100101 10000001101 10000110101 1011111010 1100111011 1101101101 1011101100 1101011101 1011010101 1011111110 10000101010 10000111101 1100000111 1011111111 1100000001 1011111000 21.000 50.988 1004.1 10622 16 0 7 59 50 4 $GNGGA,105440.00,4333.69176,N,00128.74653,E,1,09,0.94,193.3,M,53.8,M,,*44
11 10 54 41 4333.6923100128.74657193.9~ 00128.74657 193.9 1101010111 1100010010 1100100110 10000000101 10000110100 1011110010 1100110110 1101100111 1011100101 1101011101 1011010001 1011111110 10000100101 10000111011 1100001100 1011111110 1011111111 1011111100 21.000 51.011 1004.1 11622 16 0 6 60 50 4 $GNGGA,105441.00,4333.69231,N,00128.74657,E,1,09,0.94,193.9,M,53.8,M,,*4B
12 10 54 42 4333.6922000128.74644194.3~ 00128.74644 194.3 1101010111 1100010010 1100100111 10000001000 10000110101 1011110100 1100111000 1101101101 1011110010 1101011101 1011010110 1011111110 10000100011 10000111010 1100000110 1011111010 1100000001 1011111010 21.000 51.018 1004.1 12622 17 0 6 59 50 4 $GNGGA,105442.00,4333.69220,N,00128.74644,E,1,09,0.94,194.3,M,53.8,M,,*47
13 10 54 43 4333.6928400128.74657194.6~ 00128.74657 194.6 1101010111 1100010011 1100100101 10000000110 10000110100 1011110001 1100101111 1101110000 1011101110 1101011101 1011010110 1011111101 10000100100 10000111011 1100001010 1100000011 1011111111 1011111001 21.000 51.003 1004.1 13622 16 0 6 59 51 4 $GNGGA,105443.00,4333.69284,N,00128.74657,E,1,09,0.94,194.6,M,53.8,M,,*4F
14 10 54 44 4333.6928300128.74624194.8~ 00128.74624 194.8 1101010111 1100001110 1100100100 10000001100 10000110111 1011110111 1100111001 1101101001 1011100011 1101011101 1011011000 1100000000 10000100000 10000111000 1100001101 1100001010 1011111101 1011110001 21.000 50.965 1004.1 14622 17 0 6 60 50 4 $GNGGA,105444.00,4333.69283,N,00128.74624,E,1,09,0.94,194.8,M,53.8,M,,*45
15 10 54 45 4333.6926700128.74621195.1~ 00128.74621 195.1 1101010111 1100010000 1100100101 10000001001 10000110111 1011110100 1100110110 1101101010 1011100001 1101011101 1011011000 1011111111 10000101010 10000111010 1100001010 1100000100 1011111010 1011110111 21.000 50.881 1004.1 15622 16 0 6 59 50 5 $GNGGA,105445.00,4333.69267,N,00128.74621,E,1,09,0.94,195.1,M,53.8,M,,*43
16 10 54 46 4333.6928600128.74634195.6~ 00128.74634 195.6 1101010111 1100010010 1100100101 10000001100 10000111000 1011110010 1100111011 1101110000 1011100100 1101011101 1011011000 1011111110 10000101100 10000111100 1100001110 1100000111 1011111101 1011110110 21.000 50.881 1004.1 16622 17 0 6 60 50 4 $GNGGA,105446.00,4333.69286,N,00128.74634,E,1,09,0.94,195.6,M,53.8,M,,*4C
17 10 54 47 4333.6929700128.74653195.6~ 00128.74653 195.6 1101010111 1100010011 1100101001 10000001010 10000110101 1011110101 1100111011 1101110110 1011101110 1101011101 1011010100 1011111101 10000100110 10000111011 1100001110 1100000100 1100000011 1011111010 21.000 50.858 1004.1 17622 17 0 6 58 51 4 $GNGGA,105447.00,4333.69297,N,00128.74653,E,1,09,0.94,195.6,M,53.8,M,,*4C
18 10 54 48 4333.6930400128.74651195.8~ 00128.74651 195.8 1101010111 1100010010 1100100110 10000001100 10000110100 1011110101 1100111011 1101101000 1011100000 1101011101 1011010110 1100000001 10000100011 10000111001 1100001110 1100000010 1100000101 1011111100 21.000 50.843 1004.1 18622 16 0 5 59 51 4 $GNGGA,105448.00,4333.69304,N,00128.74651,E,1,09,0.94,195.8,M,53.8,M,,*44
19 10 54 49 4333.6929900128.74662196.0~ 00128.74662 196.0 1101010111 1100010010 1100100110 10000001001 10000110101 1011110000 1100110100 1101101101 1011101010 1101011101 1011011010 1100000010 10000011110 10000111001 1100001101 1100000010 1100000011 1100000100 21.000 50.828 1004.1 19622 17 1 5 58 51 3 $GNGGA,105449.00,4333.69299,N,00128.74662,E,1,09,0.94,196.0,M,53.8,M,,*4B
20 10 54 50 4333.6929400128.74655196.4~ 00128.74655 196.4 1101010111 1100010001 1100100110 10000001001 10000110100 1011111100 1101000100 1101110100 1011110010 1101011101 1011010111 1011111101 10000100011 10000111000 1100001010 1100000100 1011111101 1100000000 21.000 50.820 1004.1 20622 17 0 5 58 52 4 $GNGGA,105450.00,4333.69294,N,00128.74655,E,1,09,0.94,196.4,M,53.8,M,,*4E
21 10 54 51 4333.6932100128.74633196.8~ 00128.74633 196.8 1101010111 1100001111 1100100011 10000001001 10000110111 1011110001 1100110010 1101101000 1011101000 1101011101 1011010110 1011111101 10000100010 10000111010 1100001101 1011111110 1100000001 1011111110 21.000 50.828 1004.1 21622 17 0 5 58 51 4 $GNGGA,105451.00,4333.69321,N,00128.74633,E,1,09,0.94,196.8,M,53.8,M,,*4C
22 10 54 52 4333.6932700128.74594197.4~ 00128.74594 197.4 1101010111 1100010101 1100101001 10000001111 10000110110 1011101110 1100110110 1101100101 1011100101 1101011101 1011010011 1011111100 10000100010 10000111011 1100001101 1100000101 1100000101 1011111101 21.000 50.812 1004.1 22622 16 0 5 58 52 4 $GNGGA,105452.00,4333.69327,N,00128.74594,E,1,09,0.94,197.4,M,53.8,M,,*4A
23 10 54 53 4333.6937700128.74651197.6~ 00128.74651 197.6 1101011000 1100010000 1100100110 10000001111 10000110101 1011111000 1100111001 1101110010 1011101001 1101011101 1011010011 1011111110 10000100111 10000111011 1100001101 1100000011 1100000111 1011111111 21.000 50.820 1004.1 23622 17 0 5 59 51 4 $GNGGA,105453.00,4333.69377,N,00128.74651,E,1,09,0.94,197.6,M,53.8,M,,*46
24 10 54 54 4333.6939800128.74659197.8~ 00128.74659 197.8 1101010111 1100010100 1100100111 10000010001 10000110100 1011110110 1100111011 1101110000 1011101011 1101011101 1011010101 1011111111 10000100001 10000111011 1100001101 1100000011 1100000001 1011111000 21.000 50.873 1004.1 24622 16 2 5 58 51 3 $GNGGA,105454.00,4333.69398,N,00128.74659,E,1,09,0.94,197.8,M,53.8,M,,*46
25 10 54 55 4333.6943900128.74703197.8~ 00128.74703 197.8 1101010111 1100010010 1100101001 10000010000 10000111000 1011110010 1100110110 1101110000 1011101101 1101011101 1011010100 1011111111 10000100011 10000111011 1100001101 1100000011 1100000100 1011111011 21.000 50.881 1004.1 25622 16 1 5 59 51 3 $GNGGA,105455.00,4333.69439,N,00128.74703,E,1,09,0.94,197.8,M,53.8,M,,*45
26 10 54 56 4333.6948300128.74762198.2~ 00128.74762 198.2 1101011000 1100001111 1100100100 10000001110 10000110110 1011110100 1100111010 1101101100 1011101101 1101011101 1011011000 1011111101 10000100101 10000111011 1100001111 1100000101 1100000101 1011111100 21.000 50.835 1004.1 26622 16 1 6 58 51 3 $GNGGA,105456.00,4333.69483,N,00128.74762,E,1,09,0.94,198.2,M,53.8,M,,*45
27 10 54 57 4333.6941600128.74722198.7~ 00128.74722 198.7 1101010111 1100010011 1100101000 10000000101 10000110100 1011110001 1100110011 1101101110 1011101100 1101011101 1011010110 1011111110 10000100011 10000111010 1100000101 1100000001 1100000001 1011111000 21.000 50.873 1004.1 27622 16 1 5 59 51 3 $GNGGA,105457.00,4333.69416,N,00128.74722,E,1,09,0.94,198.7,M,53.8,M,,*49
28 10 54 58 4333.6943800128.74767199.0~ 00128.74767 199.0 1101011000 1100010010 1100101000 10000001101 10000111000 1011110100 1100111010 1101101101 1011110010 1101011101 1011010110 1011111111 10000100100 10000111001 1100001010 1100000101 1100000011 1011111001 21.000 50.889 1004.1 28622 17 1 5 58 51 3 $GNGGA,105458.00,4333.69438,N,00128.74767,E,1,09,0.94,199.0,M,53.8,M,,*4D
29 10 54 59 4333.6945200128.74783199.6~ 00128.74783 199.6 1101010111 1100010010 1100100100 10000001000 10000110101 1011111000 1100111011 1101100100 1011101000 1101011101 1011010110 1100000001 10000101001 10000111100 1100000110 1011111111 1100000100 1011111011 21.000 50.881 1004.1 29622 16 1 5 58 52 3 $GNGGA,105459.00,4333.69452,N,00128.74783,E,1,09,0.94,199.6,M,53.8,M,,*4C
30 10 55 00 4333.6949100128.74904200.1~ 00128.74904 200.1 1101010111 1100010000 1100100110 10000001101 10000110111 1011110101 1100111001 1101101111 1011101101 1101011101 1011010111 1100000000 10000100001 10000110111 1100001000 1100000010 1011111011 1011110100 21.000 50.873 1004.1 30622 17 1 5 59 51 3 $GNGGA,105500.00,4333.69491,N,00128.74904,E,1,09,0.94,200.1,M,53.8,M,,*4B
31 10 55 01 4333.6949700128.74912200.4~ 00128.74912 200.4 1101010111 1100010011 1100100111 10000001111 10000110110 1011110110 1100111011 1101100111 1011100100 1101011101 1011010111 1011111110 10000100001 10000111011 1100010010 1100000101 1100000001 1011111001 21.000 50.858 1004.1 31622 16 1 5 58 51 4 $GNGGA,105501.00,4333.69497,N,00128.74912,E,1,09,0.94,200.4,M,53.8,M,,*4E
32 10 55 02 4333.6946300128.74885201.1~ 00128.74885 201.1 1101010111 1100010010 1100100101 10000010001 10000111000 1011110000 1100111001 1101100100 1011100111 1101011101 1011011000 1100000000 10000100111 10000111010 1100001101 1100000101 1100000010 1011110110 21.000 50.843 1004.1 32622 17 1 5 59 51 3 $GNGGA,105502.00,4333.69463,N,00128.74885,E,1,09,0.94,201.1,M,53.8,M,,*4D
33 10 55 03 4333.6947300128.74880201.6~ 00128.74880 201.6 1101011000 1100001110 1100100001 10000001010 10000110001 1011110100 1100111000 1101101001 1011110001 1101011101 1011010011 1011111111 10000101000 10000111010 1100001010 1100000001 1100000111 1100000101 21.000 50.820 1004.1 33622 16 1 6 58 51 3 $GNGGA,105503.00,4333.69473,N,00128.74880,E,1,09,0.94,201.6,M,53.8,M,,*4F
34 10 55 04 4333.6945900128.74863202.0~ 00128.74863 202.0 1101010111 1100010011 1100100111 10000001010 10000110010 1011110001 1100110101 1101101000 1011101001 1101011101 1011010110 1011111110 10000011110 10000111000 1100001011 1011111111 1100000000 1011110110 21.000 50.797 1004.1 34622 16 1 5 59 51 3 $GNGGA,105504.00,4333.69459,N,00128.74863,E,1,09,0.94,202.0,M,53.8,M,,*48
35 10 55 05 4333.6942700128.74871202.3~ 00128.74871 202.3 1101010111 1100010010 1100100111 10000010000 10000110111 1011110010 1100111010 1101110000 1011101101 1101011101 1011010111 1100000001 10000011111 10000111010 1100001010 1011111111 1011111010 1011110001 21.000 50.759 1004.1 35622 17 1 5 58 51 3 $GNGGA,105505.00,4333.69427,N,00128.74871,E,1,08,1.02,202.3,M,53.8,M,,*4F
36 10 55 06 4333.6943500128.74855202.5~ 00128.74855 202.5 1101010111 1100010011 1100100101 10000001101 10000110111 1011110100 1100110101 1101110000 1011101100 1101011101 1011011000 1100000000 10000100011 10000111101 1100000111 1100000101 1100000101 1011111101 21.000 50.713 1004.1 36622 16 1 5 58 52 3 $GNGGA,105506.00,4333.69435,N,00128.74855,E,1,09,0.94,202.5,M,53.8,M,,*40
37 10 55 07 4333.6942500128.74847203.0~ 00128.74847 203.0 1101010111 1100010001 1100100100 10000010001 10000111001 1011101110 1100110100 1101101111 1011100101 1101011101 1011010111 1100000001 10000011111 10000111010 1100001010 1100000101 1100000011 1011111110 21.000 50.690 1004.1 37622 17 1 5 58 51 3 $GNGGA,105507.00,4333.69425,N,00128.74847,E,1,09,0.94,203.0,M,53.8,M,,*47
38 10 55 08 4333.6937800128.74831203.4~ 00128.74831 203.4 1101010111 1100010101 1100101000 10000001000 10000110110 1011111001 1100111101 1101110000 1011101001 1101011101 1011010110 1100000000 10000100011 10000111011 1100010001 1100000100 1011111101 1011110001 21.000 50.675 1004.1 38622 16 1 5 58 52 3 $GNGGA,105508.00,4333.69378,N,00128.74831,E,1,09,0.94,203.4,M,53.8,M,,*42
39 10 55 09 4333.6937000128.74831204.1~ 00128.74831 204.1 1101010111 1100010010 1100101000 10000001100 10000111000 1011110011 1100111011 1101101001 1011101000 1101011101 1011011000 1011111110 10000100000 10000111011 1100010001 1100000110 1011110110 1011101110 21.000 50.652 1004.1 39622 17 1 5 59 51 3 $GNGGA,105509.00,4333.69370,N,00128.74831,E,1,09,0.94,204.1,M,53.8,M,,*49
40 10 55 10 4333.6934400128.74832204.5~ 00128.74832 204.5 1101010111 1100010010 1100100111 10000001001 10000110101 1011110110 1100111101 1101101100 1011101011 1101011101 1011010101 1100000001 10000100011 10000111010 1100010010 1100000100 1100000000 1100000000 21.000 50.683 1004.1 40622 16 2 5 58 51 3 $GNGGA,105510.00,4333.69344,N,00128.74832,E,1,09,0.94,204.5,M,53.8,M,,*41
41 10 55 11 4333.6934200128.74834204.6~ 00128.74834 204.6 1101010111 1100010011 1100100111 10000001110 10000110111 1011110110 1100111001 1101101011 1011101101 1101011101 1011010101 1011111101 10000100100 10000111001 1100001011 1100000010 1100000101 1011111111 21.000 50.683 1004.1 41622 16 1 5 59 51 3 $GNGGA,105511.00,4333.69342,N,00128.74834,E,1,09,0.94,204.6,M,53.8,M,,*43
42 10 55 12 4333.6930400128.74832204.9~ 00128.74832 204.9 1101010111 1100010000 1100100011 10000001011 10000110110 1011110100 1100111101 1101101000 1011100000 1101011101 1011010111 1011111111 10000100010 10000111010 1100001011 1100000000 1011111111 1011111010 21.000 50.683 1004.1 42622 16 1 6 58 51 3 $GNGGA,105512.00,4333.69304,N,00128.74832,E,1,09,0.94,204.9,M,53.8,M,,*4B
43 10 55 13 4333.6931100128.74859205.1~ 00128.74859 205.1 1101010111 1100010110 1100101000 10000001000 10000110011 1011101111 1100110011 1101101111 1011110001 1101011101 1011011001 1100000010 10000100011 10000111010 1100001100 1011111101 1011111111 1011111010 21.000 50.736 1004.1 43622 16 1 5 59 51 3 $GNGGA,105513.00,4333.69311,N,00128.74859,E,1,09,0.94,205.1,M,53.8,M,,*4A
44 10 55 14 4333.6930200128.74857204.9~ 00128.74857 204.9 1101010111 1100010100 1100101000 10000000000 10000110011 1011110101 1100111011 1101110010 1011101111 1101011101 1011010011 1011111111 10000100001 10000111010 1100001011 1100001000 1100000110 1011111011 20.938 50.744 1004.1 44622 17 1 5 58 51 3 $GNGGA,105514.00,4333.69302,N,00128.74857,E,1,09,0.94,204.9,M,53.8,M,,*48
45 10 55 15 4333.6930900128.74887205.4~ 00128.74887 205.4 1101010111 1100010001 1100100110 10000001010 10000110011 1011110000 1100111000 1101110000 1011101010 1101011101 1011010101 1011111111 10000100001 10000111001 1100001101 1100000010 1100000001 1011110110 21.000 50.980 1004.1 45622 16 1 5 58 52 3 $GNGGA,105515.00,4333.69309,N,00128.74887,E,1,09,0.94,205.4,M,53.8,M,,*43
46 10 55 16 4333.6934000128.74930205.4~ 00128.74930 205.4 1101010111 1100010010 1100100110 10000001101 10000110110 1011110101 1100110101 1101101111 1011101111 1101011101 1011010110 1011111101 10000100010 10000111001 1100010000 1100001010 1011111111 1011111101 20.938 51.064 1004.1 46622 17 1 5 59 51 3 $GNGGA,105516.00,4333.69340,N,00128.74930,E,1,09,0.94,205.4,M,53.8,M,,*40
47 10 55 17 4333.6939200128.74951205.2~ 00128.74951 205.2 1101010111 1100010110 1100101001 10000001011 10000110100 1011110101 1100111101 1101101100 1011101110 1101011101 1011010110 1011111111 10000101000 10000111011 1100001101 1100000101 1011111100 1011111001 20.938 51.110 1004.1 47622 16 1 5 58 51 4 $GNGGA,105517.00,4333.69392,N,00128.74951,E,1,09,0.94,205.2,M,53.8,M,,*4F
48 10 55 18 4333.6939600128.74983205.4~ 00128.74983 205.4 1101010111 1100010001 1100100110 10000001100 10000110101 1011110001 1100110011 1101101110 1011101110 1101011101 1011011100 1100000010 10000100010 10000111001 1100001111 1100000111 1011111100 1011110101 20.938 51.110 1004.1 48622 17 1 5 59 51 3 $GNGGA,105518.00,4333.69396,N,00128.74983,E,1,09,0.94,205.4,M,53.8,M,,*4D
49 10 55 19 4333.6935500128.74941205.4~ 00128.74941 205.4 1101010111 1100010010 1100100110 10000010011 10000110101 1011110011 1100110111 1101110010 1011110001 1101011101 1011010111 1100000000 10000101001 10000111001 1100001110 1100000001 1100000110 1100000001 20.938 51.056 1004.1 49622 16 1 6 58 51 3 $GNGGA,105519.00,4333.69355,N,00128.74941,E,1,09,0.94,205.4,M,53.8,M,,*4D
50 10 55 20 4333.6938500128.74978205.4~ 00128.74978 205.4 1101010111 1100010011 1100100101 10000010001 10000110111 1011110011 1100110111 1101101100 1011100110 1101011101 1011011010 1100000011 10000100100 10000111010 1100000111 1011111110 1011111100 1011110100 21.000 51.018 1004.1 50622 16 1 5 59 51 3 $GNGGA,105520.00,4333.69385,N,00128.74978,E,1,09,0.94,205.4,M,53.8,M,,*40
51 10 55 21 4333.6934300128.74941205.3~ 00128.74941 205.3 1101010111 1100010010 1100100111 10000001100 10000110111 1011101111 1100111010 1101100111 1011100110 1101011101 1011010110 1011111101 10000101000 10000111011 1100001000 1100000001 1100000000 1011110101 20.938 50.965 1004.1 51622 17 1 5 58 51 3 $GNGGA,105521.00,4333.69343,N,00128.74941,E,1,09,0.94,205.3,M,53.8,M,,*46
52 10 55 22 4333.6934600128.74954205.4~ 00128.74954 205.4 1101011000 1100010001 1100100101 10000001101 10000110111 1011110001 1100110100 1101101011 1011110000 1101011101 1011010110 1011111101 10000100010 10000111001 1100001011 1100000000 1100000100 1011111110 20.938 50.889 1004.1 52622 16 1 5 58 52 3 $GNGGA,105522.00,4333.69346,N,00128.74954,E,1,09,0.94,205.4,M,53.8,M,,*43
53 10 55 23 4333.6936700128.74990205.6~ 00128.74990 205.6 1101010111 1100010011 1100100110 10000001001 10000110101 1011111010 1100111110 1101101111 1011110000 1101011101 1011010101 1011111110 10000100010 10000111100 1100001101 1100000011 1100000101 1100000100 20.938 50.843 1004.1 53622 17 1 5 58 51 3 $GNGGA,105523.00,4333.69367,N,00128.74990,E,1,09,0.94,205.6,M,53.8,M,,*4B
54 10 55 24 4333.6937000128.74999205.6~ 00128.74999 205.6 1101010111 1100010011 1100101000 10000001011 10000110110 1011111010 1100111010 1101101100 1011101010 1101011101 1011010011 1011111101 10000100100 10000111001 1100001011 1100000011 1100000010 1100000000 20.938 50.820 1004.1 54622 16 1 5 58 52 3 $GNGGA,105524.00,4333.69370,N,00128.74999,E,1,09,0.94,205.6,M,53.8,M,,*43
55 10 55 25 4333.6937500128.74968205.5~ 00128.74968 205.5 1101010111 1100010010 1100100110 10000000100 10000110001 1011110110 1100111001 1101101110 1011101001 1101011101 1011011010 1100000011 10000100000 10000111010 1100001101 1100000010 1100001011 1100000100 20.938 50.805 1004.1 55622 17 1 5 59 51 3 $GNGGA,105525.00,4333.69375,N,00128.74968,E,1,09,0.94,205.5,M,53.8,M,,*4A
56 10 55 26 4333.6933700128.74964205.0~ 00128.74964 205.0 1101010111 1100010000 1100100101 10000001101 10000111001 1011110101 1100111001 1101101111 1011101100 1101011101 1011011001 1100000010 10000100100 10000111011 1100000111 1100000001 1100000011 1011111111 20.938 50.789 1004.1 56622 16 2 5 58 51 3 $GNGGA,105526.00,4333.69337,N,00128.74964,E,1,08,1.10,205.0,M,53.8,M,,*4A
57 10 55 27 4333.6930300128.74970204.2~ 00128.74970 204.2 1101010111 1100010011 1100100110 10000000110 10000110100 1011101110 1100101100 1101110101 1011100100 1101011101 1011010100 1100000000 10000101001 10000111011 1100001011 1100000001 1100000111 1011111111 20.938 50.789 1004.1 57622 16 1 5 59 51 3 $GNGGA,105527.00,4333.69303,N,00128.74970,E,1,07,1.45,204.2,M,53.8,M,,*45
58 10 55 28 4333.6927300128.74951204.0~ 00128.74951 204.0 1101010111 1100010011 1100100110 10000001111 10000110111 1011110000 1100110111 1101101111 1011100100 1101011101 1011011010 1100000010 10000101000 10000111010 1100001110 1011111111 1011111010 1011110000 20.938 50.812 1004.1 58622 16 1 6 58 51 3 $GNGGA,105528.00,4333.69273,N,00128.74951,E,1,08,1.20,204.0,M,53.8,M,,*41
59 10 55 29 4333.6928200128.74947203.2~ 00128.74947 203.2 1101010111 1100010001 1100100101 10000001101 10000110101 1011110001 1100110110 1101101010 1011101001 1101011101 1011011001 1100000000 10000101010 10000111001 1100000010 1011111001 1011111100 1011110111 20.938 50.866 1004.1 59622 16 1 5 59 51 3 $GNGGA,105529.00,4333.69282,N,00128.74947,E,1,08,1.20,203.2,M,53.8,M,,*4C
60 10 55 30 4333.6928500128.74931202.7~ 00128.74931 202.7 1101010111 1100010001 1100100101 10000001100 10000111001 1011101110 1100110100 1101101110 1011101010 1101011101 1011010001 1011111011 10000100111 10000111011 1100010010 1100000110 1100000000 1011111001 20.938 50.873 1004.1 60622 17 1 5 58 51 3 $GNGGA,105530.00,4333.69285,N,00128.74931,E,1,09,0.94,202.7,M,53.8,M,,*49
61 10 55 31 4333.6929200128.74979201.9~ 00128.74979 201.9 1101010111 1100010100 1100100110 10000000110 10000110110 1011110010 1100111101 1101100111 1011101001 1101011101 1011010110 1100000000 10000100101 10000111010 1100001010 1011111110 1100000001 1011111001 20.938 50.873 1004.1 61622 16 1 5 58 52 3 $GNGGA,105531.00,4333.69292,N,00128.74979,E,1,09,0.94,201.9,M,53.8,M,,*4F
62 10 55 32 4333.6932400128.75003201.6~ 00128.75003 201.6 1101010111 1100010010 1100100110 10000001010 10000110100 1011110001 1100111100 1101101011 1011101100 1101011101 1011010101 1011111011 10000100101 10000111100 1100010010 1100000111 1100000100 1011111101 20.938 50.889 1004.1 62622 17 1 5 59 51 3 $GNGGA,105532.00,4333.69324,N,00128.75003,E,1,09,0.94,201.6,M,53.8,M,,*4A
63 10 55 33 4333.6932700128.75002201.3~ 00128.75002 201.3 1101010111 1100010011 1100100111 10000001010 10000110011 1011110010 1100111000 1101101101 1011100111 1101011101 1011010101 1011111111 10000011111 10000111000 1100001000 1100000100 1011111110 1011111000 20.938 50.927 1004.1 63622 16 1 5 58 51 4 $GNGGA,105533.00,4333.69327,N,00128.75002,E,1,09,0.94,201.3,M,53.8,M,,*4C
64 10 55 34 4333.6932000128.75006201.2~ 00128.75006 201.2 1101010111 1100010011 1100101001 10000001001 10000110001 1011110011 1100111011 1101101110 1011101010 1101011101 1011010111 1100000011 10000100001 10000111010 1100001111 1100000101 1011111100 1011110011 20.938 50.950 1004.1 64622 17 1 5 59 51 3 $GNGGA,105534.00,4333.69320,N,00128.75006,E,1,09,0.94,201.2,M,53.8,M,,*49
65 10 55 35 4333.6932900128.75006201.1~ 00128.75006 201.1 1101010111 1100010010 1100100110 10000001101 10000111000 1011110010 1100111000 1101101100 1011100110 1101011101 1011011001 1100000001 10000100111 10000111011 1100010001 1100000111 1100000010 1011111000 20.938 50.988 1004.1 65622 16 1 6 58 51 3 $GNGGA,105535.00,4333.69329,N,00128.75006,E,1,09,0.94,201.1,M,53.8,M,,*42
66 10 55 36 4333.6928900128.74941200.8~ 00128.74941 200.8 1101010111 1100010011 1100100110 10000001011 10000111000 1011110110 1100111101 1101101101 1011100101 1101011101 1011010101 1100000000 10000100011 10000111100 1100010000 1100000011 1100000000 1011111001 20.938 51.003 1004.1 66622 16 1 5 59 51 3 $GNGGA,105536.00,4333.69289,N,00128.74941,E,1,09,0.94,200.8,M,53.8,M,,*49
67 10 55 37 4333.6926800128.74923200.4~ 00128.74923 200.4 1101010111 1100010011 1100100110 10000000011 10000110011 1011110110 1100111111 1101101111 1011110000 1101011101 1011010011 1011111110 10000011110 10000111001 1100001101 1100000001 1011111110 1011111001 20.938 50.973 1004.1 67622 17 1 5 58 51 3 $GNGGA,105537.00,4333.69268,N,00128.74923,E,1,09,0.94,200.4,M,53.8,M,,*4F
68 10 55 38 4333.6930000128.74989200.3~ 00128.74989 200.3 1101010111 1100010010 1100100100 10000001000 10000110101 1011110111 1100111110 1101110100 1011110111 1101011101 1011011011 1100000010 10000100010 10000111000 1100001110 1100000100 1100000001 1100000100 20.938 50.934 1004.1 68622 16 1 5 58 52 3 $GNGGA,105538.00,4333.69300,N,00128.74989,E,1,09,0.94,200.3,M,53.8,M,,*48
69 10 55 39 4333.6929600128.74982200.4~ 00128.74982 200.4 1101010111 1100010100 1100100101 10000001011 10000110011 1011110010 1100110111 1101110001 1011101010 1101011101 1011010110 1011111101 10000101001 10000111100 1100001011 1100000000 1100000001 1011111111 20.938 50.980 1004.1 69622 17 1 5 58 51 3 $GNGGA,105539.00,4333.69296,N,00128.74982,E,1,09,0.94,200.4,M,53.8,M,,*4B
70 10 55 40 4333.6934600128.75004200.7~ 00128.75004 200.7 1101010111 1100010000 1100100101 10000010001 10000111000 1011111010 1100111110 1101110011 1011110111 1101011101 1011011010 1100000010 10000101001 10000111011 1100000110 1100000011 1100000000 1011111010 20.938 51.026 1004.1 70622 16 1 5 58 52 3 $GNGGA,105540.00,4333.69346,N,00128.75004,E,1,09,0.94,200.7,M,53.8,M,,*4C
71 10 55 41 4333.6936200128.74991200.4~ 00128.74991 200.4 1101010111 1100010010 1100100110 10000001011 10000110110 1011110110 1100111000 1101101100 1011110001 1101011101 1011010011 1011111110 10000101011 10000111011 1100001001 1100000011 1100000011 1100000001 20.938 51.064 1004.1 71622 17 1 5 59 51 3 $GNGGA,105541.00,4333.69362,N,00128.74991,E,1,08,1.20,200.4,M,53.8,M,,*43
72 10 55 42 4333.6933600128.74976199.9~ 00128.74976 199.9 1101010111 1100010101 1100101011 10000010011 10000110111 1011110111 1100111011 1101101101 1011101110 1101011101 1011011001 1100000000 10000100011 10000111010 1100000111 1100000001 1100000010 1011111001 20.938 51.087 1004.1 72622 16 2 5 58 51 3 $GNGGA,105542.00,4333.69336,N,00128.74976,E,1,08,1.20,199.9,M,53.8,M,,*46
73 10 55 43 4333.6931000128.74944199.4~ 00128.74944 199.4 1101010111 1100010101 1100100101 10000010001 10000111000 1011110111 1100111101 1101110001 1011101111 1101011101 1011010100 1011111110 10000100111 10000111010 1100010000 1100000001 1011111111 1011111010 20.938 51.079 1004.1 73622 16 1 5 59 51 3 $GNGGA,105543.00,4333.69310,N,00128.74944,E,1,08,1.20,199.4,M,53.8,M,,*4F
74 10 55 44 4333.6929700128.74980199.2~ 00128.74980 199.2 1101010111 1100010010 1100100110 10000010000 10000111011 1011101111 1100110100 1101110011 1011110011 1101011101 1011011000 1100000011 10000101000 10000111100 1100001000 1100000001 1011111011 1011111000 20.938 51.018 1004.1 74622 16 1 6 58 51 3 $GNGGA,105544.00,4333.69297,N,00128.74980,E,1,09,0.94,199.2,M,53.8,M,,*47
75 10 55 45 4333.6928100128.74930198.4~ 00128.74930 198.4 1101010111 1100010001 1100101000 10000001101 10000110110 1011110000 1100111011 1101101110 1011110000 1101011101 1011010100 1011111100 10000100101 10000111011 1100001001 1011111101 1011111111 1011110111 20.938 50.980 1004.1 75622 16 1 5 59 51 3 $GNGGA,105545.00,4333.69281,N,00128.74930,E,1,09,0.94,198.4,M,53.8,M,,*4D
76 10 55 46 4333.6920900128.74859197.9~ 00128.74859 197.9 1101010111 1100010101 1100101001 10000001100 10000110100 1011110100 1100110101 1101101111 1011110000 1101011101 1011011000 1100000000 10000100101 10000110110 1100001110 1100001000 1100000101 1100000000 20.938 50.957 1004.1 76622 17 1 5 58 51 3 $GNGGA,105546.00,4333.69209,N,00128.74859,E,1,09,0.94,197.9,M,53.8,M,,*42
77 10 55 47 4333.6918700128.74816197.1~ 00128.74816 197.1 1101010111 1100010011 1100101001 10000010010 10000111001 1011110110 1100111110 1101110010 1011101100 1101011101 1011010111 1011111111 10000100101 10000111011 1100001100 1011111111 1011111111 1011110100 20.938 50.957 1004.1 77622 16 1 5 58 52 3 $GNGGA,105547.00,4333.69187,N,00128.74816,E,1,08,1.10,197.1,M,53.8,M,,*49
78 10 55 48 4333.6917700128.74792196.1~ 00128.74792 196.1 1101010111 1100010110 1100101000 10000001110 10000110100 1011110011 1100111100 1101110001 1011101100 1101011101 1011010101 1011111111 10000100111 10000111011 1100001100 1100000010 1100000101 1100000111 21.000 50.957 1004.1 78622 17 1 5 59 51 3 $GNGGA,105548.00,4333.69177,N,00128.74792,E,1,08,1.10,196.1,M,53.8,M,,*4B
79 10 55 49 4333.6919400128.74790195.0~ 00128.74790 195.0 1101010111 1100010000 1100100100 10000001111 10000110101 1011110010 1100110110 1101110001 1011101111 1101011101 1011010100 1011111110 10000101101 10000111110 1100001100 1100000010 1100000001 1011111010 20.938 50.957 1004.1 79622 16 1 5 58 51 4 $GNGGA,105549.00,4333.69194,N,00128.74790,E,1,08,1.10,195.0,M,53.8,M,,*47
80 10 55 50 4333.6921900128.74801193.8~ 00128.74801 193.8 1101010111 1100010001 1100100100 10000001101 10000110101 1011110001 1100110110 1101100101 1011100101 1101011101 1011010100 1011111101 10000100111 10000111010 1100000111 1100000000 1100000011 1011111110 20.938 50.942 1004.1 80622 17 1 5 59 51 3 $GNGGA,105550.00,4333.69219,N,00128.74801,E,1,08,1.10,193.8,M,53.8,M,,*40
81 10 55 51 4333.6922100128.74827193.5~ 00128.74827 193.5 1101010111 1100010011 1100100110 10000010010 10000111000 1011110110 1100110101 1101101101 1011101010 1101011101 1011011001 1100000010 10000011110 10000111000 1100001110 1100001001 1100000010 1011111101 20.938 50.919 1004.1 81622 16 1 6 58 51 3 $GNGGA,105551.00,4333.69221,N,00128.74827,E,1,09,0.94,193.5,M,53.8,M,,*4F
82 10 55 52 4333.6919900128.74811192.7~ 00128.74811 192.7 1101010111 1100010110 1100101000 10000010000 10000110101 1011110111 1100111100 1101101010 1011101011 1101011101 1011011001 1100000000 10000100011 10000111010 1100000101 1100000011 1100000110 1011111111 20.938 50.873 1004.1 82622 16 1 5 59 51 3 $GNGGA,105552.00,4333.69199,N,00128.74811,E,1,09,0.94,192.7,M,53.8,M,,*4A
83 10 55 53 4333.6920100128.74815191.9~ 00128.74815 191.9 1101010111 1100010010 1100100110 10000001110 10000110111 1011110111 1100111000 1101101101 1011101000 1101011101 1011010100 1011111111 10000100001 10000111010 1100001001 1100000100 1100000000 1011110111 20.938 50.850 1004.1 83622 17 1 5 58 51 3 $GNGGA,105553.00,4333.69201,N,00128.74815,E,1,09,0.94,191.9,M,53.8,M,,*40
84 10 55 54 4333.6918900128.74840191.6~ 00128.74840 191.6 1101010111 1100010010 1100100101 10000001011 10000110110 1011110011 1100110111 1101101101 1011101100 1101011101 1011011000 1100000010 10000100010 10000111011 1100010000 1100000110 1011111100 1011111001 20.938 50.828 1004.1 84622 16 1 5 58 52 3 $GNGGA,105554.00,4333.69189,N,00128.74840,E,1,09,0.94,191.6,M,53.8,M,,*4B
85 10 55 55 4333.6922000128.74881191.1~ 00128.74881 191.1 1101011000 1100010010 1100101001 10000001110 10000110110 1011110110 1100111011 1101100110 1011100100 1101011101 1011010110 1100000000 10000100010 10000111001 1100000111 1100000000 1100000101 1100000000 20.938 50.820 1004.1 85622 17 1 5 58 51 3 $GNGGA,105555.00,4333.69220,N,00128.74881,E,1,09,0.94,191.1,M,53.8,M,,*40
86 10 55 56 4333.6922600128.74881190.9~ 00128.74881 190.9 1101010111 1100010011 1100100110 10000000111 10000110111 1011110010 1100111011 1101101100 1011100111 1101011101 1011011000 1100000000 10000100111 10000111011 1100001011 1100000010 1100000111 1011110111 20.938 50.850 1004.1 86622 16 1 5 58 52 3 $GNGGA,105556.00,4333.69226,N,00128.74881,E,1,09,0.94,190.9,M,53.8,M,,*4C
87 10 55 57 4333.6925400128.74915190.7~ 00128.74915 190.7 1101010111 1100010000 1100100100 10000001011 10000110101 1011111010 1100111101 1101100100 1011100001 1101011101 1011010111 1100000000 10000100110 10000111101 1100001111 1100000100 1100000111 1011111011 20.938 50.866 1004.1 87622 17 1 5 59 51 3 $GNGGA,105557.00,4333.69254,N,00128.74915,E,1,09,0.94,190.7,M,53.8,M,,*4A
88 10 55 58 4333.6922800128.74872190.5~ 00128.74872 190.5 1101010111 1100010101 1100101000 10000001001 10000110011 1011110111 1100111001 1101100101 1011101001 1101011101 1011010101 1100000001 10000011100 10000111000 1100000110 1011111100 1100000010 1011111100 20.938 50.858 1004.1 88622 16 2 5 58 51 3 $GNGGA,105558.00,4333.69228,N,00128.74872,E,1,09,0.94,190.5,M,53.8,M,,*4C
89 10 55 59 4333.6924600128.74873190.7~ 00128.74873 190.7 1101010111 1100010011 1100100101 10000010001 10000110110 1011101111 1100110111 1101101111 1011101011 1101011101 1011010101 1011111110 10000101010 10000111010 1100001010 1100000100 1011111101 1011110111 20.938 50.828 1004.1 89622 16 1 5 59 51 3 $GNGGA,105559.00,4333.69246,N,00128.74873,E,1,09,0.94,190.7,M,53.8,M,,*46
90 10 56 00 4333.6920100128.74819190.7~ 00128.74819 190.7 1101010111 1100010100 1100101001 10000001100 10000110100 1011101111 1100110111 1101110010 1011101000 1101011101 1011010111 1011111110 10000011110 10000111000 1100001101 1100000000 1100000000 1011111011 20.938 50.820 1004.1 90622 16 1 6 58 51 3 $GNGGA,105600.00,4333.69201,N,00128.74819,E,1,09,0.94,190.7,M,53.8,M,,*46
91 10 56 01 4333.6918700128.74751190.7~ 00128.74751 190.7 1101010111 1100010001 1100100101 10000010011 10000110101 1011110011 1100110100 1101101011 1011101100 1101011101 1011010110 1011111111 10000100010 10000111000 1100001100 1100000001 1100000010 1011111110 20.938 50.820 1004.1 91622 16 1 5 59 51 3 $GNGGA,105601.00,4333.69187,N,00128.74751,E,1,09,0.94,190.7,M,53.8,M,,*49
92 10 56 02 4333.6919100128.74742190.9~ 00128.74742 190.9 1101010111 1100010100 1100100111 10000010100 10000111001 1011110001 1100110100 1101101011 1011100111 1101011101 1011010111 1011111101 10000100001 10000111001 1100001000 1100000000 1100001110 1100000110 20.938 50.828 1004.1 92622 17 1 5 58 51 3 $GNGGA,105602.00,4333.69191,N,00128.74742,E,1,09,0.94,190.9,M,53.8,M,,*41
93 10 56 03 4333.6917400128.74700190.9~ 00128.74700 190.9 1101010111 1100010100 1100100111 10000010010 10000110101 1011110000 1100110110 1101100101 1011101011 1101011101 1011010110 1011111110 10000100010 10000111001 1100010000 1100000101 1100000011 1100000010 20.938 50.835 1004.1 93622 16 1 5 58 52 3 $GNGGA,105603.00,4333.69174,N,00128.74700,E,1,09,0.94,190.9,M,53.8,M,,*4D
94 10 56 04 4333.6917500128.74663190.7~ 00128.74663 190.7 1101010111 1100010011 1100101000 10000001110 10000110110 1011110010 1100111011 1101101111 1011101110 1101011101 1011011000 1100000010 10000100100 10000111011 1100010001 1100001001 1100000101 1011111011 20.938 50.835 1004.1 94622 17 1 5 59 51 3 $GNGGA,105604.00,4333.69175,N,00128.74663,E,1,09,0.94,190.7,M,53.8,M,,*41
95 10 56 05 4333.6918800128.74646191.3~ 00128.74646 191.3 1101010111 1100010001 1100100110 10000001101 10000111000 1011110101 1100111010 1101110010 1011110011 1101011101 1011010010 1011111110 10000101000 10000111011 1100001010 1100000011 1100000000 1011110101 20.938 50.828 1004.1 95622 16 1 5 58 51 4 $GNGGA,105605.00,4333.69188,N,00128.74646,E,1,09,0.94,191.3,M,53.8,M,,*40
96 10 56 06 4333.6920500128.74652191.2~ 00128.74652 191.2 1101010111 1100010010 1100100110 10000010001 10000110111 1011110011 1100111101 1101110001 1011110000 1101011101 1011010111 1100000000 10000100001 10000111001 1100001100 1100000000 1011111110 1011110010 20.938 50.820 1004.1 96622 17 1 5 59 51 3 $GNGGA,105606.00,4333.69205,N,00128.74652,E,1,09,0.94,191.2,M,53.8,M,,*41
97 10 56 07 4333.6917600128.74575191.3~ 00128.74575 191.3 1101010111 1100001111 1100100110 10000010101 10000111010 1011110011 1100111000 1101101110 1011101011 1101011101 1011010110 1100000000 10000100101 10000111010 1100001111 1100000000 1100000111 1011111010 20.938 50.812 1004.1 97622 16 1 6 58 51 3 $GNGGA,105607.00,4333.69176,N,00128.74575,E,1,09,0.94,191.3,M,53.8,M,,*40
98 10 56 08 4333.6923700128.74609192.0~ 00128.74609 192.0 1101011000 1100010001 1100100100 10000001100 10000111000 1011110100 1100111010 1101101001 1011101101 1101011101 1011011001 1100000000 10000100111 10000111010 1100001100 1100000011 1011111110 1011111000 20.938 50.805 1004.1 98622 16 1 5 59 51 3 $GNGGA,105608.00,4333.69237,N,00128.74609,E,1,08,1.07,192.0,M,53.8,M,,*4B
99 10 56 09 4333.6928100128.74572191.4~ 00128.74572 191.4 1101010111 1100010001 1100100101 10000010000 10000110111 1011110110 1100111001 1101101011 1011110001 1101011101 1011010011 1011111111 10000100010 10000111001 1100001000 1011111101 1100000110 1011111001 20.938 50.812 1004.1 99622 17 1 5 58 51 3 $GNGGA,105609.00,4333.69281,N,00128.74572,E,1,08,1.07,191.4,M,53.8,M,,*4F
100 10 56 10 4333.6928300128.74568191.8~ 00128.74568 191.8 1101010111 1100010000 1100100110 10000001100 10000110101 1011110101 1100111000 1101101001 1011110010 1101011101 1011011100 1100000001 10000100010 10000111011 1100001010 1100000001 1100000100 1011111100 20.938 50.820 1004.1 100622 16 1 5 58 52 3 $GNGGA,105610.00,4333.69283,N,00128.74568,E,1,09,0.94,191.8,M,53.8,M,,*48
101 10 56 11 4333.6931900128.74649191.7~ 00128.74649 191.7 1101010111 1100010011 1100101001 10000000101 10000110111 1011110100 1100111100 1101101010 1011101110 1101011101 1011010111 1100000001 10000100011 10000111011 1100001100 1100000101 1100000000 1011111011 20.938 50.835 1004.1 101622 17 1 5 58 51 3 $GNGGA,105611.00,4333.69319,N,00128.74649,E,1,09,0.94,191.7,M,53.8,M,,*44
102 10 56 12 4333.6933600128.74639191.6~ 00128.74639 191.6 1101010111 1100010101 1100100111 10000000101 10000110100 1011110100 1100111010 1101110100 1011110100 1101011101 1011011010 1100000011 10000100000 10000111010 1100001101 1100000100 1100001000 1011111111 20.938 50.866 1004.1 102622 16 1 5 58 52 3 $GNGGA,105612.00,4333.69336,N,00128.74639,E,1,09,0.94,191.6,M,53.8,M,,*4C
103 10 56 13 4333.6934500128.74660191.8~ 00128.74660 191.8 1101010111 1100010011 1100100111 10000001001 10000110111 1011110000 1100110101 1101101011 1011100010 1101011100 1011010110 1011111110 10000100100 10000111010 1100001100 1100000011 1100001000 1100000010 20.938 50.873 1004.1 103622 17 1 5 59 51 3 $GNGGA,105613.00,4333.69345,N,00128.74660,E,1,09,0.94,191.8,M,53.8,M,,*4B
104 10 56 14 4333.6939700128.74742192.0~ 00128.74742 192.0 1101010111 1100010101 1100100111 10000001001 10000111000 1011110011 1100110101 1101110101 1011101010 1101011101 1011010110 1011111110 10000100000 10000111001 1100001011 1100000011 1011111010 1011111100 20.938 50.911 1004.1 104622 16 2 5 58 51 3 $GNGGA,105614.00,4333.69397,N,00128.74742,E,1,09,0.94,192.0,M,53.8,M,,*49
105 10 56 15 4333.6944500128.74804192.4~ 00128.74804 192.4 1101010111 1100010010 1100100011 10000001110 10000111001 1011110010 1100111000 1101100111 1011101000 1101011101 1011010110 1011111011 10000101010 10000111011 1100001001 1100000000 1011111100 1011110100 20.938 50.942 1004.1 105622 16 1 5 59 51 3 $GNGGA,105615.00,4333.69445,N,00128.74804,E,1,09,0.94,192.4,M,53.8,M,,*49
106 10 56 16 4333.6944500128.74791191.7~ 00128.74791 191.7 1101010111 1100010000 1100100111 10000001001 10000110110 1011110110 1100111011 1101101011 1011101000 1101011101 1011010011 1011111101 10000100100 10000111011 1100001000 1100000011 1011111100 1011111100 20.938 50.965 1004.1 106622 16 1 6 58 51 3 $GNGGA,105616.00,4333.69445,N,00128.74791,E,1,08,1.09,191.7,M,53.8,M,,*4D
107 10 56 17 4333.6942600128.74774191.1~ 00128.74774 191.1 1101010111 1100010000 1100100110 10000001000 10000110101 1011110001 1100110110 1101100111 1011101101 1101011101 1011010100 1011111100 10000100000 10000111001 1100000111 1011111111 1100000100 1011111000 20.938 50.995 1004.1 107622 16 1 5 59 51 3 $GNGGA,105617.00,4333.69426,N,00128.74774,E,1,08,1.09,191.1,M,53.8,M,,*44
108 10 56 18 4333.6940600128.74752190.5~ 00128.74752 190.5 1101011000 1100010011 1100101000 10000001010 10000110101 1011111000 1100111001 1101100101 1011101010 1101011101 1011011000 1100000010 10000101010 10000111100 1100001100 1100000011 1100000001 1011110100 20.938 51.018 1004.1 108622 17 1 5 58 51 3 $GNGGA,105618.00,4333.69406,N,00128.74752,E,1,08,1.09,190.5,M,53.8,M,,*48
109 10 56 19 4333.6939400128.74745189.7~ 00128.74745 189.7 1101010111 1100010011 1100101000 10000001010 10000110011 1011110011 1100110110 1101100111 1011101111 1101011101 1011010111 1100000000 10000100100 10000111001 1100001101 1100000101 1011111101 1011110101 20.938 51.003 1004.1 109622 16 1 5 58 52 3 $GNGGA,105619.00,4333.69394,N,00128.74745,E,1,08,1.09,189.7,M,53.8,M,,*49
110 10 56 20 4333.6936900128.74741188.9~ 00128.74741 188.9 1101010111 1100010011 1100100111 10000001110 10000111010 1011110010 1100110111 1101101000 1011100111 1101011101 1011010111 1011111111 10000100010 10000111010 1100001101 1100000001 1100000000 1011111101 20.938 51.011 1004.1 110622 17 1 5 59 51 3 $GNGGA,105620.00,4333.69369,N,00128.74741,E,1,08,1.09,188.9,M,53.8,M,,*4A
111 10 56 21 4333.6933600128.74693188.5~ 00128.74693 188.5 1101010111 1100010011 1100100111 10000001010 10000110011 1011110000 1100110001 1101101101 1011101000 1101011101 1011010110 1011111110 10000011101 10000110111 1100001111 1100000010 1100000101 1100000000 20.938 51.148 1004.1 111622 16 1 5 58 51 4 $GNGGA,105621.00,4333.69336,N,00128.74693,E,1,08,1.09,188.5,M,53.8,M,,*43
112 10 56 22 4333.6929900128.74660188.1~ 00128.74660 188.1 1101010111 1100010010 1100101000 10000001100 10000110110 1011111010 1100111010 1101110001 1011101111 1101011101 1011010111 1011111111 10000100100 10000111011 1100001010 1011111111 1100000100 1100000000 20.938 51.751 1004.1 112622 17 1 5 59 51 3 $GNGGA,105622.00,4333.69299,N,00128.74660,E,1,08,1.09,188.1,M,53.8,M,,*4C
113 10 56 23 4333.6928600128.74675187.3~ 00128.74675 187.3 1101010111 1100010100 1100101001 10000001110 10000110111 1011111011 1100111110 1101101110 1011100100 1101011101 1011010101 1011111110 10000100110 10000111011 1100000110 1011111111 1100000001 1011111011 20.938 51.919 1004.1 113622 16 1 6 58 51 3 $GNGGA,105623.00,4333.69286,N,00128.74675,E,1,07,1.44,187.3,M,53.8,M,,*4C
114 10 56 24 4333.6922100128.74632186.4~ 00128.74632 186.4 1101010111 1100010011 1100101000 10000001001 10000110101 1011110101 1100111100 1101100101 1011101000 1101011101 1011010100 1011111101 10000100100 10000111011 1100001011 1011111111 1100000100 1011111111 20.938 51.743 1004.1 114622 16 1 5 59 51 3 $GNGGA,105624.00,4333.69221,N,00128.74632,E,1,07,1.44,186.4,M,53.8,M,,*43
115 10 56 25 4333.6921600128.74649185.5~ 00128.74649 185.5 1101010111 1100010011 1100100111 10000001011 10000110101 1011110001 1100111001 1101110001 1011110001 1101011101 1011010101 1011111111 10000011110 10000111001 1100001101 1100000011 1100000001 1011111110 20.938 51.529 1004.1 115622 17 1 5 58 51 3 $GNGGA,105625.00,4333.69216,N,00128.74649,E,1,07,1.44,185.5,M,53.8,M,,*48
116 10 56 26 4333.6920300128.74667185.0~ 00128.74667 185.0 1101010111 1100010001 1100100101 10000001001 10000110100 1011110111 1100111111 1101101100 1011110000 1101011101 1011011000 1011111110 10000100101 10000111100 1100001011 1100000010 1100000001 1011111010 20.938 51.362 1004.1 116622 16 1 5 58 52 3 $GNGGA,105626.00,4333.69203,N,00128.74667,E,1,08,1.20,185.0,M,53.8,M,,*4B
117 10 56 27 4333.6920500128.74677184.7~ 00128.74677 184.7 1101010111 1100010011 1100100110 10000001100 10000111001 1011111000 1100110110 1101101001 1011101011 1101011101 1011010111 1100000000 10000100000 10000111010 1100001111 1100001010 1100000011 1011110111 20.938 51.255 1004.1 117622 17 1 5 58 51 3 $GNGGA,105627.00,4333.69205,N,00128.74677,E,1,09,0.94,184.7,M,53.8,M,,*44
118 10 56 28 4333.6917200128.74671184.2~ 00128.74671 184.2 1101010111 1100010011 1100100110 10000001100 10000110101 1011110100 1100110111 1101101110 1011101000 1101011101 1011010111 1011111111 10000100111 10000111010 1100010000 1100000110 1100000101 1011110101 20.938 51.201 1004.1 118622 16 1 5 58 52 3 $GNGGA,105628.00,4333.69172,N,00128.74671,E,1,08,1.20,184.2,M,53.8,M,,*44
119 10 56 29 4333.6914600128.74640184.1~ 00128.74640 184.1 1101010111 1100010000 1100100100 10000001101 10000110011 1011110111 1100111000 1101101100 1011110010 1101011101 1011010011 1011111111 10000100101 10000111001 1100001011 1011111111 1011111110 1011111010 20.938 51.156 1004.1 119622 17 1 5 59 51 3 $GNGGA,105629.00,4333.69146,N,00128.74640,E,1,08,1.20,184.1,M,53.8,M,,*43
120 10 56 30 4333.6918900128.74703184.0~ 00128.74703 184.0 1101010111 1100010010 1100100110 10000001010 10000110101 1011110011 1100111010 1101101010 1011101100 1101011101 1011011000 1100000010 10000011110 10000111001 1100001111 1100000110 1011111100 1011111101 20.875 51.133 1004.1 120622 16 2 5 58 51 3 $GNGGA,105630.00,4333.69189,N,00128.74703,E,1,08,1.20,184.0,M,53.8,M,,*4F
121 10 56 31 4333.6919800128.74707184.0~ 00128.74707 184.0 1101010111 1100010001 1100100110 10000001100 10000110110 1011110001 1100111000 1101101101 1011100100 1101011101 1011010011 1011111110 10000100111 10000111000 1100001101 1100000101 1100000000 1011111111 20.938 51.049 1004.1 121622 16 1 5 59 51 3 $GNGGA,105631.00,4333.69198,N,00128.74707,E,1,08,1.20,184.0,M,53.8,M,,*4A
122 10 56 32 4333.6919800128.74738183.9~ 00128.74738 183.9 1101010111 1100010010 1100100110 10000010010 10000111001 1011111001 1100110010 1101100110 1011011101 1101011101 1011010011 1011111111 10000100101 10000111011 1100001110 1100000100 1011111111 1011111001 20.938 51.003 1004.1 122622 16 1 6 58 51 3 $GNGGA,105632.00,4333.69198,N,00128.74738,E,1,08,1.20,183.9,M,53.8,M,,*4B
123 10 56 33 4333.6921600128.74768183.9~ 00128.74768 183.9 1101010111 1100010010 1100101000 10000001100 10000110011 1011110110 1100111001 1101110000 1011101100 1101011101 1011011000 1100000000 10000100010 10000111010 1100001100 1100000011 1011111100 1011110100 20.938 50.988 1004.1 123622 16 1 5 59 51 3 $GNGGA,105633.00,4333.69216,N,00128.74768,E,1,08,1.20,183.9,M,53.8,M,,*4A
124 10 56 34 4333.6920900128.74740183.4~ 00128.74740 183.4 1101010111 1100010011 1100100100 10000010011 10000110111 1011110011 1100111011 1101101000 1011100100 1101011101 1011011001 1100000000 10000100111 10000111010 1100010000 1100000110 1100000000 1011110111 20.875 50.980 1004.1 124622 17 1 5 58 51 3 $GNGGA,105634.00,4333.69209,N,00128.74740,E,1,08,1.20,183.4,M,53.8,M,,*44
125 10 56 35 4333.6922800128.74788183.2~ 00128.74788 183.2 1101010111 1100010010 1100100111 10000000110 10000110100 1011101111 1100110100 1101110010 1011100100 1101011101 1011010110 1011111111 10000101001 10000111110 1100001110 1100000110 1100000100 1011111100 20.875 51.011 1004.1 125622 16 1 5 58 52 3 $GNGGA,105635.00,4333.69228,N,00128.74788,E,1,08,1.20,183.2,M,53.8,M,,*44
126 10 56 36 4333.6920500128.74727183.5~ 00128.74727 183.5 1101010111 1100010010 1100101000 10000001101 10000110111 1011110010 1100111000 1101110010 1011101100 1101011101 1011011010 1100000001 10000101010 10000111100 1100001010 1100000001 1100000010 1100000100 20.875 51.049 1004.1 126622 17 1 5 59 51 3 $GNGGA,105636.00,4333.69205,N,00128.74727,E,1,08,1.20,183.5,M,53.8,M,,*4A
127 10 56 37 4333.6921300128.74819183.6~ 00128.74819 183.6 1101010111 1100010001 1100100101 10000001111 10000110110 1011110000 1100111000 1101101110 1011101110 1101011101 1011011000 1100000000 10000101000 10000111010 1100001001 1011111100 1100000011 1100000010 20.938 51.049 1004.1 127622 16 1 5 58 51 4 $GNGGA,105637.00,4333.69213,N,00128.74819,E,1,08,1.20,183.6,M,53.8,M,,*4D
128 10 56 38 4333.6920000128.74895183.9~ 00128.74895 183.9 1101010111 1100010100 1100101001 10000000100 10000110000 1011110010 1100111010 1101101110 1011101000 1101011101 1011010110 1100000000 10000100110 10000111011 1100000111 1100000011 1100000000 1011111011 20.875 51.041 1004.1 128622 17 1 5 59 51 3 $GNGGA,105638.00,4333.69200,N,00128.74895,E,1,08,1.20,183.9,M,53.8,M,,*4B
129 10 56 39 4333.6920100128.74970183.9~ 00128.74970 183.9 1101010111 1100010010 1100100110 10000001100 10000110111 1011110100 1100111100 1101101110 1011110100 1101011101 1011010011 1011111100 10000100110 10000111010 1100001000 1011111110 1011111100 1011111101 20.938 51.026 1004.1 129622 16 1 6 58 51 3 $GNGGA,105639.00,4333.69201,N,00128.74970,E,1,08,1.20,183.9,M,53.8,M,,*41
130 10 56 40 4333.6924300128.75058184.0~ 00128.75058 184.0 1101010111 1100010011 1100100110 10000001110 10000110101 1011110000 1100111000 1101101010 1011110000 1101011101 1011010010 1011111100 10000100011 10000111010 1100001011 1100000111 1011111110 1011111010 20.938 51.018 1004.1 130622 16 1 5 59 51 3 $GNGGA,105640.00,4333.69243,N,00128.75058,E,1,08,1.20,184.0,M,53.8,M,,*45
131 10 56 41 4333.6922900128.75080184.1~ 00128.75080 184.1 1101010111 1100010010 1100100111 10000001010 10000110100 1011110100 1100111110 1101101000 1011100111 1101011101 1011010111 1011111110 10000100110 10000111000 1100001110 1100000111 1011111001 1011101110 20.875 51.049 1004.1 131622 17 1 5 58 51 3 $GNGGA,105641.00,4333.69229,N,00128.75080,E,1,08,1.20,184.1,M,53.8,M,,*4C
132 10 56 42 4333.6926600128.75143184.3~ 00128.75143 184.3 1101010111 1100010010 1100100100 10000010000 10000110110 1011110100 1100110111 1101101011 1011100110 1101011101 1011011000 1011111110 10000100100 10000111010 1100001001 1100000011 1011111010 1011111000 20.875 51.056 1004.1 132622 16 1 5 58 52 3 $GNGGA,105642.00,4333.69266,N,00128.75143,E,1,08,1.20,184.3,M,53.8,M,,*48
133 10 56 43 4333.6926000128.75123184.4~ 00128.75123 184.4 1101010111 1100010010 1100100101 10000001101 10000110110 1011110011 1100110100 1101110000 1011101101 1101011101 1011011000 1100000000 10000101100 10000111011 1100010000 1100000100 1100000110 1011111110 20.938 51.072 1004.1 133622 17 1 5 58 51 3 $GNGGA,105643.00,4333.69260,N,00128.75123,E,1,08,1.20,184.4,M,53.8,M,,*4E
134 10 56 44 4333.6926200128.75114184.3~ 00128.75114 184.3 1101011000 1100010001 1100100101 10000001111 10000111000 1011101001 1100110110 1101101010 1011101111 1101011101 1011010100 1011111101 10000100111 10000111100 1100001100 1100000110 1011111110 1011111001 20.875 51.125 1004.1 134622 16 1 5 58 52 3 $GNGGA,105644.00,4333.69262,N,00128.75114,E,1,08,1.20,184.3,M,53.8,M,,*48
135 10 56 45 4333.6927700128.75151184.4~ 00128.75151 184.4 1101010111 1100010001 1100100111 10000000111 10000110101 1011101110 1100110010 1101101000 1011100110 1101011101 1011010101 1011111101 10000100110 10000111000 1100001010 1100000001 1100000111 1011111111 20.938 51.163 1004.1 135622 17 1 5 59 51 3 $GNGGA,105645.00,4333.69277,N,00128.75151,E,1,08,1.20,184.4,M,53.8,M,,*4B
136 10 56 46 4333.6927500128.75130184.3~ 00128.75130 184.3 1101011000 1100010100 1100101000 10000001011 10000110011 1011110100 1100111001 1101101101 1011101011 1101011101 1011010111 1100000000 10000100111 10000111110 1100000011 1011111001 1100000001 1011111000 20.875 51.575 1004.1 136622 16 2 5 58 51 3 $GNGGA,105646.00,4333.69275,N,00128.75130,E,1,08,1.20,184.3,M,53.8,M,,*4A
137 10 56 47 4333.6928600128.75103184.4~ 00128.75103 184.4 1101010111 1100010110 1100101001 10000001010 10000110101 1011110100 1100111010 1101101101 1011101011 1101011101 1011010101 1011111110 10000100111 10000111001 1100001000 1011111110 1011111100 1011110100 20.875 51.514 1004.1 137622 16 1 5 59 51 3 $GNGGA,105647.00,4333.69286,N,00128.75103,E,1,08,1.20,184.4,M,53.8,M,,*40
138 10 56 48 4333.6929800128.75008183.9~ 00128.75008 183.9 1101010111 1100010100 1100100111 10000001011 10000110110 1011110101 1100111011 1101110000 1011110000 1101011101 1011010111 1011111101 10000100101 10000111011 1100000111 1011111111 1100000100 1011111110 20.875 51.354 1004.1 138622 16 1 6 58 51 3 $GNGGA,105648.00,4333.69298,N,00128.75008,E,1,08,1.20,183.9,M,53.8,M,,*40
139 10 56 49 4333.6928700128.75031183.8~ 00128.75031 183.8 1101010111 1100010101 1100100111 10000000110 10000110101 1011110100 1100110100 1101101110 1011110000 1101011101 1011010101 1011111111 10000100101 10000111010 1100001110 1100000001 1100001000 1011111111 20.875 51.308 1004.1 139622 16 1 5 59 51 3 $GNGGA,105649.00,4333.69287,N,00128.75031,E,1,08,1.20,183.8,M,53.8,M,,*44
140 10 56 50 4333.6930500128.75062184.3~ 00128.75062 184.3 1101010111 1100010001 1100100111 10000000110 10000110110 1011110110 1100110100 1101110001 1011110000 1101011101 1011011000 1011111110 10000100000 10000111010 1100001001 1100000000 1011111101 1011111001 20.875 51.255 1004.1 140622 17 1 5 58 51 3 $GNGGA,105650.00,4333.69305,N,00128.75062,E,1,08,1.20,184.3,M,53.8,M,,*4D
141 10 56 51 4333.6935200128.75076184.4~ 00128.75076 184.4 1101010111 1100010100 1100100111 10000001010 10000110110 1011110111 1100111011 1101110100 1011111100 1101011101 1011010000 1011111101 10000100110 10000111000 1100001011 1100000011 1100001001 1100000100 20.875 51.247 1004.1 141622 16 1 5 58 52 3 $GNGGA,105651.00,4333.69352,N,00128.75076,E,1,08,1.20,184.4,M,53.8,M,,*4C
142 10 56 52 4333.6937500128.75145184.3~ 00128.75145 184.3 1101010111 1100010010 1100101000 10000001100 10000110100 1011110001 1100111000 1101101000 1011101111 1101011101 1011010110 1100000001 10000100110 10000111100 1100001110 1100000110 1100000010 1011111110 20.875 51.224 1004.1 142622 17 1 5 59 51 3 $GNGGA,105652.00,4333.69375,N,00128.75145,E,1,08,1.20,184.3,M,53.8,M,,*4C
143 10 56 53 4333.6937700128.75153184.6~ 00128.75153 184.6 1101010111 1100010000 1100100100 10000001100 10000110111 1011110111 1100111110 1101110000 1011110110 1101011101 1011010110 1011111110 10000100111 10000111011 1100001110 1100000111 1011111111 1011111011 20.875 51.148 1004.1 143622 16 1 5 58 51 4 $GNGGA,105653.00,4333.69377,N,00128.75153,E,1,08,1.20,184.6,M,53.8,M,,*4D
144 10 56 54 4333.6941600128.75203184.2~ 00128.75203 184.2 1101010111 1100010100 1100100111 10000000110 10000110101 1011110011 1100110101 1101101001 1011101100 1101011101 1011010110 1100000000 10000100101 10000111100 1100001100 1011111111 1100000000 1011110111 20.875 51.072 1004.1 144622 17 1 5 59 51 3 $GNGGA,105654.00,4333.69416,N,00128.75203,E,1,08,1.20,184.2,M,53.8,M,,*48
145 10 56 55 4333.6941500128.75215184.1~ 00128.75215 184.1 1101010111 1100010100 1100100111 10000001011 10000111010 1011110001 1100111001 1101101111 1011101010 1101011101 1011010111 1100000010 10000011011 10000111000 1100000101 1011111101 1100000011 1011111111 20.875 51.079 1004.1 145622 16 1 6 58 51 3 $GNGGA,105655.00,4333.69415,N,00128.75215,E,1,08,1.20,184.1,M,53.8,M,,*4E
146 10 56 56 4333.6943500128.75293184.3~ 00128.75293 184.3 1101010111 1100010001 1100100111 10000010011 10000111001 1011110011 1100111100 1101101100 1011100110 1101011101 1011010111 1100000000 10000100101 10000111000 1100001001 1011111111 1011111011 1011110110 20.875 51.148 1004.1 146622 16 1 5 59 51 3 $GNGGA,105656.00,4333.69435,N,00128.75293,E,1,08,1.20,184.3,M,53.8,M,,*43
147 10 56 57 4333.6943700128.75287184.2~ 00128.75287 184.2 1101010111 1100010100 1100101001 10000010000 10000110111 1011110010 1100111100 1101101110 1011110001 1101011101 1011010111 1011111110 10000100001 10000111001 1100001001 1100000100 1011111110 1011111010 20.875 51.156 1004.1 147622 17 1 5 58 51 3 $GNGGA,105657.00,4333.69437,N,00128.75287,E,1,08,1.20,184.2,M,53.8,M,,*44
148 10 56 58 4333.6948300128.75379184.6~ 00128.75379 184.6 1101010111 1100010001 1100100011 10000010000 10000111001 1011101111 1100110100 1101101110 1011101101 1101011101 1011010111 1011111110 10000100011 10000110111 1100001100 1100000110 1100000011 1011111001 20.875 51.156 1004.1 148622 16 1 5 58 52 3 $GNGGA,105658.00,4333.69483,N,00128.75379,E,1,08,1.20,184.6,M,53.8,M,,*40
149 10 56 59 4333.6945400128.75386184.6~ 00128.75386 184.6 1101010111 1100010100 1100100111 10000010010 10000110111 1011110001 1100111001 1101101100 1011101110 1101011101 1011011011 1100000000 10000100011 10000111011 1100000011 1011111110 1100000010 1011111100 20.875 51.178 1004.1 149622 17 1 5 58 51 3 $GNGGA,105659.00,4333.69454,N,00128.75386,E,1,08,1.20,184.6,M,53.8,M,,*4B
150 10 57 00 4333.6948600128.75413184.5~ 00128.75413 184.5 1101010111 1100010011 1100100110 10000010100 10000110110 1011110001 1100111000 1101101101 1011101010 1101011101 1011010111 1100000000 10000100011 10000111100 1100001000 1100000001 1100000010 1011111100 20.875 51.148 1004.1 150622 16 1 5 58 52 3 $GNGGA,105700.00,4333.69486,N,00128.75413,E,1,08,1.20,184.5,M,53.8,M,,*41
151 10 57 01 4333.6946700128.75414184.3~ 00128.75414 184.3 1101010111 1100010101 1100101001 10000001100 10000110111 1011110110 1100110100 1101101100 1011101000 1101011101 1011010101 1011111110 10000101111 10000111100 1100001110 1100000101 1100000010 1100000001 20.875 51.117 1004.1 151622 17 1 5 59 51 3 $GNGGA,105701.00,4333.69467,N,00128.75414,E,1,08,1.20,184.3,M,53.8,M,,*4E
152 10 57 02 4333.6946900128.75394184.3~ 00128.75394 184.3 1101010111 1100010100 1100101001 10000010000 10000110110 1011110100 1100110111 1101101110 1011100110 1101011101 1011010101 1011111101 10000100111 10000111001 1100010000 1100000110 1100000000 1011111011 20.875 51.079 1004.1 152622 16 2 5 58 51 3 $GNGGA,105702.00,4333.69469,N,00128.75394,E,1,08,1.20,184.3,M,53.8,M,,*4C
153 10 57 03 4333.6947000128.75408184.7~ 00128.75408 184.7 1101010111 1100010001 1100100111 10000010000 10000110111 1011110110 1100111000 1101101100 1011101010 1101011101 1011010110 1011111111 10000100010 10000111100 1100001001 1100000001 1100000111 1100000011 20.875 51.102 1004.1 153622 16 1 5 59 51 3 $GNGGA,105703.00,4333.69470,N,00128.75408,E,1,08,1.20,184.7,M,53.8,M,,*43
154 10 57 04 4333.6948400128.75433184.9~ 00128.75433 184.9 1101010111 1100010000 1100100101 10000010000 10000110100 1011110100 1100111001 1101101101 1011100111 1101011101 1011010100 1011111101 10000100011 10000111001 1100000111 1011111101 1011111111 1011111011 20.875 51.156 1004.1 154622 16 1 6 58 51 3 $GNGGA,105704.00,4333.69484,N,00128.75433,E,1,08,1.20,184.9,M,53.8,M,,*49
155 10 57 05 4333.6952100128.75427185.3~ 00128.75427 185.3 1101011000 1100010000 1100100110 10000000110 10000110110 1011110001 1100111000 1101110100 1011101011 1101011101 1011010101 1011111111 10000011010 10000111011 1100001011 1100000001 1100000011 1011111111 20.875 51.156 1004.1 155622 16 1 5 59 51 3 $GNGGA,105705.00,4333.69521,N,00128.75427,E,1,08,1.20,185.3,M,53.8,M,,*48
156 10 57 06 4333.6952400128.75427185.2~ 00128.75427 185.2 1101010111 1100010010 1100100101 10000001011 10000110110 1011110010 1100110111 1101101011 1011101000 1101011101 1011010110 1011111110 10000100001 10000111011 1100001111 1100000101 1100001000 1100000101 20.938 51.148 1004.1 156622 17 1 5 58 51 3 $GNGGA,105706.00,4333.69524,N,00128.75427,E,1,08,1.20,185.2,M,53.8,M,,*4F
157 10 57 07 4333.6954700128.75467186.0~ 00128.75467 186.0 1101010111 1100010100 1100101000 10000001000 10000110100 1011110000 1100110000 1101100111 1011100100 1101011101 1011010001 1011111100 10000100101 10000111011 1100001101 1100000011 1100000001 1100000001 20.875 51.102 1004.1 157622 16 1 5 58 52 3 $GNGGA,105707.00,4333.69547,N,00128.75467,E,1,08,1.20,186.0,M,53.8,M,,*4E
