id HH MM SS longitude latitude altitude adc_1_ch0 adc_1_ch1 adc_1_ch2 adc_1_ch3 adc_1_ch4 adc_1_ch5 adc_1_ch6 adc_1_ch7 adc_1_ch8 adc_2_ch0 adc_2_ch1 adc_2_ch2 adc_2_ch3 adc_2_ch4 adc_2_ch5 adc_2_ch6 adc_2_ch7 adc_2_ch8 temp hum pres t_prog t_gps t_split t_adc t_temp t_hum t_pres trame_gga
1 10 57 39 4333.6960500128.75601190.7~ 00128.75601 190.7 1101010111 1100010011 1100100111 10000010001 10000111000 1011110110 1100111000 1101101100 1011101110 1101011101 1011010101 1100000010 10000100101 10000111001 1100010001 1100000111 1100000000 1011111111 20.875 51.888 795.83 1463 17 7 7 58 52 3 $GNGGA,105739.00,4333.69605,N,00128.75601,E,1,08,0.98,190.7,M,53.8,M,,*46
2 10 57 40 4333.6958600128.75558191.1~ 00128.75558 191.1 1101010111 1100010001 1100100101 10000000111 10000110100 1011110110 1100111100 1101101111 1011101011 1101011101 1011010111 1100000000 10000100000 10000111010 1100010101 1100001010 1011111111 1011111111 20.875 52.468 1004.1 2463 18 7 7 58 51 3 $GNGGA,105740.00,4333.69586,N,00128.75558,E,1,08,0.98,191.1,M,53.8,M,,*48
3 10 57 41 4333.6957300128.75540191.4~ 00128.75540 191.4 1101010111 1100010011 1100101001 10000001100 10000110111 1011110111 1100111010 1101101111 1011101010 1101011101 1011011011 1100000001 10000100101 10000111010 1100010001 1100000110 1100001000 1011111111 20.875 52.399 1004.1 3463 16 7 7 58 52 3 $GNGGA,105741.00,4333.69573,N,00128.75540,E,1,07,1.63,191.4,M,53.8,M,,*45
4 10 57 42 4333.6954900128.75504191.8~ 00128.75504 191.8 1101010111 1100010101 1100101001 10000001101 10000110101 1011110111 1100111101 1101101100 1011101010 1101011101 1011011010 1100000100 10000100101 10000111010 1100001101 1100000101 1100000000 1011111000 20.875 52.163 1004.1 4463 17 7 7 59 51 3 $GNGGA,105742.00,4333.69549,N,00128.75504,E,1,07,1.63,191.8,M,53.8,M,,*43
5 10 57 43 4333.6954100128.75505192.2~ 00128.75505 192.2 1101010111 1100010000 1100100101 10000010011 10000111000 1011101110 1100110011 1101101010 1011101010 1101011101 1011010100 1011111101 10000101010 10000111011 1100001011 1100000000 1011111111 1011111000 20.875 51.926 1004.1 5463 16 8 7 58 51 3 $GNGGA,105743.00,4333.69541,N,00128.75505,E,1,07,1.63,192.2,M,53.8,M,,*42
6 10 57 44 4333.6952400128.75485192.4~ 00128.75485 192.4 1101010111 1100010011 1100101011 10000001110 10000110111 1011110011 1100110111 1101101111 1011101110 1101011101 1011010110 1011111111 10000100100 10000111000 1100000110 1011111100 1100000010 1011111010 20.875 51.858 1004.1 6463 17 7 7 59 51 3 $GNGGA,105744.00,4333.69524,N,00128.75485,E,1,07,1.63,192.4,M,53.8,M,,*49
7 10 57 45 4333.6950100128.75470192.8~ 00128.75470 192.8 1101010111 1100010011 1100101001 10000010000 10000111001 1011110100 1100110110 1101101001 1011101011 1101011101 1011010011 1011111110 10000100000 10000111000 1100001111 1100000101 1011111000 1011111010 20.875 51.774 1004.1 7463 16 8 7 58 51 3 $GNGGA,105745.00,4333.69501,N,00128.75470,E,1,07,1.63,192.8,M,53.8,M,,*49
8 10 57 46 4333.6950300128.75479193.0~ 00128.75479 193.0 1101010111 1100010000 1100100101 10000010100 10000111010 1011110101 1100111100 1101101101 1011110100 1101011101 1011010101 1011111101 10000100000 10000110111 1100010001 1100000001 1011111001 1011110001 20.875 51.705 1004.1 8463 16 7 7 58 52 3 $GNGGA,105746.00,4333.69503,N,00128.75479,E,1,07,1.63,193.0,M,53.8,M,,*48
9 10 57 47 4333.6947900128.75436193.4~ 00128.75436 193.4 1101011000 1100010000 1100100101 10000001101 10000110100 1011110011 1100111010 1101101110 1011101101 1101011101 1011010111 1011111101 10000100000 10000111011 1100001010 1100000001 1100000000 1011111010 20.875 51.590 1004.1 9463 16 7 8 58 51 3 $GNGGA,105747.00,4333.69479,N,00128.75436,E,1,07,1.63,193.4,M,53.8,M,,*4A
10 10 57 48 4333.6947400128.75420193.5~ 00128.75420 193.5 1101010111 1100010001 1100100100 10000001001 10000110110 1011110101 1100110111 1101110101 1011110100 1101011101 1011010111 1011111110 10000100100 10000111010 1100001100 1100000101 1100000000 1011111100 20.875 51.568 1004.1 10463 16 7 7 58 52 3 $GNGGA,105748.00,4333.69474,N,00128.75420,E,1,07,1.63,193.5,M,53.8,M,,*4E
11 10 57 49 4333.6949800128.75477193.4~ 00128.75477 193.4 1101010111 1100010010 1100100100 10000001111 10000110101 1011111000 1100111100 1101110001 1011101100 1101011101 1011011001 1100000000 10000100000 10000111001 1100001001 1100000010 1100000001 1011111011 20.875 51.529 1004.1 11463 17 7 7 59 51 3 $GNGGA,105749.00,4333.69498,N,00128.75477,E,1,07,1.63,193.4,M,53.8,M,,*4E
12 10 57 50 4333.6953400128.75544193.1~ 00128.75544 193.1 1101010111 1100010010 1100100101 10000010000 10000110111 1011101110 1100110111 1101110000 1011101111 1101011101 1011010110 1011111111 10000100001 10000111001 1100001101 1100000110 1100000000 1011111110 20.875 51.423 1004.1 12463 16 7 7 58 51 4 $GNGGA,105750.00,4333.69534,N,00128.75544,E,1,08,1.20,193.1,M,53.8,M,,*4D
13 10 57 51 4333.6956300128.75584193.2~ 00128.75584 193.2 1101010111 1100010011 1100100110 10000010100 10000111001 1011110100 1100111001 1101110101 1011110111 1101011101 1011010100 1011111101 10000100101 10000111011 1100000101 1011111110 1011111010 1011110101 20.875 51.331 1004.1 13463 17 7 7 59 51 3 $GNGGA,105751.00,4333.69563,N,00128.75584,E,1,08,1.20,193.2,M,53.8,M,,*41
14 10 57 52 4333.6958000128.75622193.1~ 00128.75622 193.1 1101010111 1100010010 1100100100 10000001001 10000110100 1011110100 1100111100 1101101011 1011101111 1101011101 1011010100 1011111110 10000011101 10000111010 1100001110 1100001000 1100001011 1100001000 20.875 51.293 1004.1 14464 16 8 7 58 51 3 $GNGGA,105752.00,4333.69580,N,00128.75622,E,1,08,1.20,193.1,M,53.8,M,,*43
15 10 57 53 4333.6963500128.75710192.5~ 00128.75710 192.5 1101010111 1100010100 1100100111 10000001001 10000110101 1011110110 1100111011 1101101100 1011101111 1101011101 1011010111 1011111101 10000100000 10000111010 1100001001 1100000100 1100000000 1011111101 20.875 51.293 1004.1 15464 17 7 7 59 51 3 $GNGGA,105753.00,4333.69635,N,00128.75710,E,1,08,1.20,192.5,M,53.8,M,,*4A
16 10 57 54 4333.6969200128.75819192.0~ 00128.75819 192.0 1101010111 1100010001 1100100110 10000001000 10000110101 1011111000 1100111011 1101100110 1011100100 1101011101 1011010010 1011111101 10000100110 10000111011 1100001101 1100001001 1100000001 1011110111 20.875 51.339 1004.1 16464 16 7 8 58 51 3 $GNGGA,105754.00,4333.69692,N,00128.75819,E,1,08,1.20,192.0,M,53.8,M,,*43
17 10 57 55 4333.6966400128.75706191.1~ 00128.75706 191.1 1101010111 1100010010 1100101000 10000001110 10000110111 1011110001 1100110100 1101101100 1011101010 1101011101 1011011000 1011111110 10000101001 10000111001 1100001001 1100000000 1100000101 1011110111 20.875 51.316 1004.1 17464 16 7 7 58 52 3 $GNGGA,105755.00,4333.69664,N,00128.75706,E,1,09,0.94,191.1,M,53.8,M,,*47
18 10 57 56 4333.6965200128.75663191.0~ 00128.75663 191.0 1101010111 1100010100 1100101001 10000010001 10000110111 1011110001 1100111001 1101110010 1011101100 1101011101 1011011000 1100000000 10000101100 10000111010 1100000111 1100000010 1100000100 1011111000 20.875 51.262 1004.1 18464 16 7 8 58 51 3 $GNGGA,105756.00,4333.69652,N,00128.75663,E,1,09,0.94,191.0,M,53.8,M,,*42
19 10 57 57 4333.6959700128.75579191.3~ 00128.75579 191.3 1101010111 1100010010 1100100101 10000001101 10000111000 1011110010 1100111000 1101101110 1011100110 1101011101 1011010111 1011111111 10000101000 10000111100 1100000110 1100000011 1100000011 1011110110 20.875 51.209 1004.1 19464 16 7 7 58 52 3 $GNGGA,105757.00,4333.69597,N,00128.75579,E,1,08,1.02,191.3,M,53.8,M,,*4D
20 10 57 58 4333.6957100128.75480191.5~ 00128.75480 191.5 1101010111 1100010000 1100100100 10000001011 10000110000 1011110111 1100111100 1101110000 1011110110 1101011101 1011010101 1100000001 10000101001 10000111011 1100001010 1100000100 1100000110 1011111111 20.875 51.240 1004.1 20464 17 7 7 59 51 3 $GNGGA,105758.00,4333.69571,N,00128.75480,E,1,09,0.94,191.5,M,53.8,M,,*44
21 10 57 59 4333.6955800128.75458191.5~ 00128.75458 191.5 1101010111 1100010100 1100100111 10000010000 10000111000 1011110001 1100110111 1101101111 1011110001 1101011101 1011010101 1100000000 10000100010 10000111000 1100001011 1100000010 1011111010 1011111010 20.875 51.278 1004.1 21464 16 8 7 58 51 3 $GNGGA,105759.00,4333.69558,N,00128.75458,E,1,08,1.02,191.5,M,53.8,M,,*44
22 10 58 00 4333.6954400128.75439191.7~ 00128.75439 191.7 1101010111 1100010010 1100101000 10000001110 10000110101 1011110000 1100110110 1101101101 1011100111 1101011101 1011010100 1011111101 10000100100 10000110111 1100001000 1100000000 1100000111 1100000000 20.875 51.323 1004.1 22464 17 7 7 59 51 3 $GNGGA,105800.00,4333.69544,N,00128.75439,E,1,08,1.02,191.7,M,53.8,M,,*4F
23 10 58 01 4333.6952400128.75416192.0~ 00128.75416 192.0 1101010111 1100010001 1100100100 10000001110 10000110101 1011110010 1100110011 1101101101 1011101110 1101011101 1011010111 1011111110 10000100111 10000111010 1100001101 1011111100 1011111100 1011111001 20.875 51.362 1004.1 23464 16 8 7 58 51 3 $GNGGA,105801.00,4333.69524,N,00128.75416,E,1,08,1.02,192.0,M,53.8,M,,*41
24 10 58 02 4333.6948900128.75319192.1~ 00128.75319 192.1 1101010111 1100010011 1100100111 10000010001 10000110101 1011110010 1100111001 1101100111 1011101101 1101011101 1011011100 1100000010 10000101010 10000111101 1100000101 1100000101 1100000000 1011111010 20.875 51.392 1004.1 24464 17 7 7 59 51 3 $GNGGA,105802.00,4333.69489,N,00128.75319,E,1,08,1.02,192.1,M,53.8,M,,*4D
25 10 58 03 4333.6945500128.75231192.2~ 00128.75231 192.2 1101010111 1100010010 1100100101 10000001111 10000110100 1011110100 1100111001 1101101011 1011101100 1101011101 1011011000 1100000000 10000101100 10000111010 1100001011 1100000001 1100000100 1011111111 20.875 51.362 1004.1 25464 16 7 8 58 51 3 $GNGGA,105803.00,4333.69455,N,00128.75231,E,1,09,0.94,192.2,M,53.8,M,,*4A
26 10 58 04 4333.6947200128.75208191.9~ 00128.75208 191.9 1101010111 1100010101 1100101000 10000001010 10000110110 1011110101 1100110100 1101110000 1011101100 1101011101 1011010110 1011111110 10000100111 10000111011 1100001010 1100001000 1011111100 1011110011 20.875 51.484 1004.1 26464 16 7 7 58 52 3 $GNGGA,105804.00,4333.69472,N,00128.75208,E,1,09,0.94,191.9,M,53.8,M,,*4A
27 10 58 05 4333.6947200128.75196191.7~ 00128.75196 191.7 1101010111 1100010001 1100100011 10000001101 10000110110 1011110011 1100111100 1101110000 1011101001 1101011101 1011010100 1011111110 10000100111 10000111010 1100001100 1100000011 1100000000 1011110010 20.875 51.529 1004.1 27464 17 7 7 59 51 3 $GNGGA,105805.00,4333.69472,N,00128.75196,E,1,09,0.94,191.7,M,53.8,M,,*41
28 10 58 06 4333.6945600128.75151191.9~ 00128.75151 191.9 1101010111 1100010011 1100101000 10000001011 10000110111 1011110111 1100111001 1101110011 1011110000 1101011101 1011010101 1011111111 10000100111 10000111001 1100001001 1011111111 1100000000 1011110101 20.875 51.499 1004.1 28464 16 7 7 58 51 4 $GNGGA,105806.00,4333.69456,N,00128.75151,E,1,08,1.02,191.9,M,53.8,M,,*4E
29 10 58 07 4333.6944800128.75123191.6~ 00128.75123 191.6 1101010111 1100010100 1100100111 10000010000 10000111000 1011110010 1100110111 1101101101 1011101001 1101011101 1011010110 1011111110 10000101000 10000111010 1100001110 1100000110 1011111101 1011110100 20.875 51.529 1004.1 29464 17 7 7 59 51 3 $GNGGA,105807.00,4333.69448,N,00128.75123,E,1,08,1.02,191.6,M,53.8,M,,*4A
30 10 58 08 4333.6946200128.75141191.1~ 00128.75141 191.1 1101010111 1100010010 1100100100 10000001011 10000110100 1011110101 1100111100 1101101101 1011100111 1101011101 1011010011 1011111110 10000101001 10000111001 1100001101 1100000101 1011111010 1011110000 20.875 51.583 1004.1 30464 16 8 7 58 51 3 $GNGGA,105808.00,4333.69462,N,00128.75141,E,1,07,1.44,191.1,M,53.8,M,,*43
31 10 58 09 4333.6949100128.75168190.8~ 00128.75168 190.8 1101010111 1100010010 1100101000 10000001011 10000110101 1011111010 1100111100 1101101100 1011101011 1101011101 1011010110 1011111111 10000101000 10000111100 1100001100 1100000111 1100000000 1011110011 20.875 51.568 1004.1 31464 17 7 7 59 51 3 $GNGGA,105809.00,4333.69491,N,00128.75168,E,1,07,1.44,190.8,M,53.8,M,,*4D
32 10 58 10 4333.6947400128.75130190.4~ 00128.75130 190.4 1101010111 1100010111 1100101001 10000001011 10000110011 1011101101 1100110111 1101101111 1011101010 1101011101 1011010101 1011111101 10000101010 10000111011 1100001010 1011111101 1100000011 1011111011 20.875 51.476 1004.1 32464 16 7 8 58 51 3 $GNGGA,105810.00,4333.69474,N,00128.75130,E,1,08,1.02,190.4,M,53.8,M,,*42
33 10 58 11 4333.6949100128.75162190.2~ 00128.75162 190.2 1101010111 1100010100 1100100100 10000001100 10000110111 1011110001 1100111000 1101101010 1011101011 1101011101 1011010110 1011111011 10000101000 10000111000 1100000111 1100000010 1100000100 1011111111 20.875 51.400 1004.1 33464 16 7 7 58 52 3 $GNGGA,105811.00,4333.69491,N,00128.75162,E,1,07,1.44,190.2,M,53.8,M,,*44
34 10 58 12 4333.6950000128.75155189.9~ 00128.75155 189.9 1101010111 1100010010 1100100110 10000010111 10000111001 1011110001 1100111010 1101101010 1011101011 1101011101 1011011000 1100000000 10000101010 10000111011 1100001011 1100000101 1011111011 1011111000 20.875 51.453 1004.1 34464 16 7 8 58 51 3 $GNGGA,105812.00,4333.69500,N,00128.75155,E,1,07,1.44,189.9,M,53.8,M,,*49
35 10 58 13 4333.6951200128.75195189.9~ 00128.75195 189.9 1101010111 1100010010 1100100100 10000001100 10000110100 1011101101 1100110110 1101101011 1011101110 1101011101 1011010100 1011111110 10000100001 10000110110 1100001101 1100000101 1100000011 1011111100 20.875 51.545 1004.1 35464 16 7 7 58 52 3 $GNGGA,105813.00,4333.69512,N,00128.75195,E,1,07,1.44,189.9,M,53.8,M,,*47
36 10 58 14 4333.6952200128.75178189.7~ 00128.75178 189.7 1101011000 1100010001 1100100101 10000010000 10000110101 1011110011 1100110101 1101101100 1011101010 1101011101 1011010000 1011111011 10000101101 10000111010 1100001001 1011111101 1100000101 1100000010 20.875 51.659 1004.1 36464 17 7 7 59 51 3 $GNGGA,105814.00,4333.69522,N,00128.75178,E,1,07,1.44,189.7,M,53.8,M,,*4E
37 10 58 15 4333.6954100128.75189189.5~ 00128.75189 189.5 1101010111 1100010100 1100101001 10000010001 10000111010 1011101110 1100111000 1101101010 1011101100 1101011101 1011010100 1100000000 10000100011 10000110111 1100001011 1100000010 1100000010 1100000000 20.875 51.667 1004.1 37464 16 8 7 58 51 3 $GNGGA,105815.00,4333.69541,N,00128.75189,E,1,08,1.20,189.5,M,53.8,M,,*4B
38 10 58 16 4333.6956100128.75196189.0~ 00128.75196 189.0 1101011000 1100010101 1100101000 10000010001 10000110111 1011101111 1100111000 1101101011 1011101001 1101011101 1011010111 1100000001 10000101011 10000111011 1100001000 1100000011 1011111111 1011111010 20.875 51.690 1004.1 38464 17 7 7 59 51 3 $GNGGA,105816.00,4333.69561,N,00128.75196,E,1,07,1.44,189.0,M,53.8,M,,*4C
39 10 58 17 4333.6960100128.75183188.5~ 00128.75183 188.5 1101010111 1100010100 1100100010 10000001001 10000110100 1011110001 1100111001 1101100110 1011100010 1101011101 1011010111 1100000000 10000100101 10000111010 1100001110 1100001000 1100001000 1100000000 20.875 51.720 1004.1 39464 16 8 7 58 51 3 $GNGGA,105817.00,4333.69601,N,00128.75183,E,1,07,1.44,188.5,M,53.8,M,,*48
40 10 58 18 4333.6964100128.75201187.6~ 00128.75201 187.6 1101010111 1100010010 1100100110 10000001000 10000110101 1011110000 1100110101 1101101100 1011110101 1101011101 1011010101 1011111111 10000101000 10000111101 1100000110 1100000010 1011111100 1011111110 20.875 51.819 1004.1 40464 17 7 7 59 51 3 $GNGGA,105818.00,4333.69641,N,00128.75201,E,1,07,1.44,187.6,M,53.8,M,,*46
41 10 58 19 4333.6968800128.75270187.2~ 00128.75270 187.2 1101010111 1100010001 1100100100 10000010001 10000110111 1011110010 1100110111 1101101110 1011110011 1101011101 1011011001 1100000000 10000101010 10000111101 1100001010 1011111101 1100000111 1100000111 20.875 51.896 1004.1 41464 16 7 8 58 51 3 $GNGGA,105819.00,4333.69688,N,00128.75270,E,1,08,1.20,187.2,M,53.8,M,,*4D
42 10 58 20 4333.6968100128.75253186.5~ 00128.75253 186.5 1101010111 1100010010 1100101000 10000010000 10000110100 1011110010 1100110110 1101101101 1011100110 1101011101 1011011011 1100000100 10000100110 10000111000 1100001001 1100000000 1011111110 1011110000 20.875 51.865 1004.1 42464 16 7 7 58 52 3 $GNGGA,105820.00,4333.69681,N,00128.75253,E,1,07,1.63,186.5,M,53.8,M,,*41
43 10 58 21 4333.6968200128.75229186.0~ 00128.75229 186.0 1101010111 1100010001 1100100110 10000001100 10000110100 1011110100 1100111110 1101101101 1011101101 1101011101 1011010001 1011111100 10000100110 10000111001 1100001100 1011111111 1011111011 1011111001 20.875 52.064 1004.1 43464 17 7 7 59 51 3 $GNGGA,105821.00,4333.69682,N,00128.75229,E,1,07,1.63,186.0,M,53.8,M,,*4B
44 10 58 22 4333.6972300128.75278185.6~ 00128.75278 185.6 1101010111 1100010010 1100100011 10000001111 10000111000 1011110000 1100110010 1101110011 1011110000 1101011101 1011010111 1011111100 10000100011 10000111010 1100001010 1100000011 1100000010 1011111001 20.875 52.155 1004.1 44464 16 7 7 58 51 4 $GNGGA,105822.00,4333.69723,N,00128.75278,E,1,08,1.20,185.6,M,53.8,M,,*4B
45 10 58 23 4333.6976500128.75397185.1~ 00128.75397 185.1 1101010111 1100010010 1100100110 10000001101 10000110101 1011110011 1100111000 1101101110 1011101010 1101011101 1011011010 1100000000 10000100010 10000111001 1100001010 1100000101 1011111110 1011111111 20.875 51.964 1004.1 45464 17 7 7 59 51 3 $GNGGA,105823.00,4333.69765,N,00128.75397,E,1,08,1.20,185.1,M,53.8,M,,*4F
46 10 58 24 4333.6975800128.75396185.0~ 00128.75396 185.0 1101010111 1100010010 1100100111 10000001101 10000110101 1011110010 1100111001 1101101011 1011100100 1101011101 1011011000 1011111111 10000101001 10000111011 1100001010 1100000000 1100000011 1100000010 20.875 51.865 1004.1 46464 16 8 7 58 51 3 $GNGGA,105824.00,4333.69758,N,00128.75396,E,1,08,1.20,185.0,M,53.8,M,,*46
47 10 58 25 4333.6970900128.75288184.7~ 00128.75288 184.7 1101010111 1100010011 1100100101 10000010001 10000110111 1011110010 1100111010 1101110111 1011101010 1101011101 1011010111 1100000001 10000100011 10000111010 1100001000 1100000001 1100000110 1100000100 20.875 51.743 1004.1 47464 17 7 7 59 51 3 $GNGGA,105825.00,4333.69709,N,00128.75288,E,1,07,1.63,184.7,M,53.8,M,,*43
48 10 58 26 4333.6971000128.75277184.5~ 00128.75277 184.5 1101010111 1100010011 1100100101 10000001100 10000110101 1011110011 1100111001 1101101011 1011100110 1101011101 1011011001 1100000001 10000101001 10000111010 1100001111 1100000101 1100000011 1011111000 20.875 51.682 1004.1 48464 16 7 8 58 51 3 $GNGGA,105826.00,4333.69710,N,00128.75277,E,1,08,1.20,184.5,M,53.8,M,,*42
49 10 58 27 4333.6961400128.75024184.2~ 00128.75024 184.2 1101010111 1100010111 1100101000 10000010010 10000110110 1011110110 1100111000 1101100111 1011101010 1101011101 1011011000 1100000000 10000100010 10000111010 1100001101 1100001010 1100001000 1011111110 20.875 51.903 1004.1 49464 16 7 7 58 52 3 $GNGGA,105827.00,4333.69614,N,00128.75024,E,1,09,0.94,184.2,M,53.8,M,,*4A
50 10 58 28 4333.6954700128.74821184.4~ 00128.74821 184.4 1101010111 1100010100 1100101000 10000001100 10000110100 1011110000 1100111011 1101101101 1011100010 1101011101 1011011000 1100000010 10000100111 10000111101 1100001001 1100000100 1100000111 1100000110 20.875 52.094 1004.1 50464 16 7 8 58 51 3 $GNGGA,105828.00,4333.69547,N,00128.74821,E,1,09,0.94,184.4,M,53.8,M,,*4A
51 10 58 29 4333.6947600128.74618185.1~ 00128.74618 185.1 1101010111 1100010101 1100101001 10000000111 10000110100 1011110100 1100111101 1101101010 1011100111 1101011100 1011010101 1011111111 10000100010 10000111000 1100001100 1100000010 1011111001 1011111001 20.875 52.155 1004.1 51464 16 7 7 58 52 3 $GNGGA,105829.00,4333.69476,N,00128.74618,E,1,09,0.94,185.1,M,53.8,M,,*48
52 10 58 30 4333.6943000128.74510185.9~ 00128.74510 185.9 1101010111 1100010010 1100100111 10000001001 10000111001 1011101101 1100110011 1101101110 1011100100 1101011100 1011010100 1011111111 10000100100 10000111010 1100001100 1100000100 1100000010 1011111001 20.875 52.170 1004.1 52464 17 7 7 59 51 3 $GNGGA,105830.00,4333.69430,N,00128.74510,E,1,09,0.94,185.9,M,53.8,M,,*41
53 10 58 31 4333.6934900128.74437187.4~ 00128.74437 187.4 1101010111 1100010011 1100101010 10000001110 10000111001 1011110000 1100110100 1101101001 1011011111 1101011101 1011011000 1100000010 10000100111 10000111011 1100001011 1100000000 1100000100 1100000001 20.875 52.102 1004.1 53464 16 8 7 58 51 3 $GNGGA,105831.00,4333.69349,N,00128.74437,E,1,09,0.94,187.4,M,53.8,M,,*42
54 10 58 32 4333.6931100128.74362188.2~ 00128.74362 188.2 1101010111 1100010011 1100101001 10000001110 10000110111 1011111000 1100111111 1101100110 1011011111 1101011101 1011010100 1011111110 10000100110 10000111001 1100001000 1100000001 1100000101 1100000001 20.875 51.896 1004.1 54464 17 7 7 59 51 3 $GNGGA,105832.00,4333.69311,N,00128.74362,E,1,08,1.02,188.2,M,53.8,M,,*4D
55 10 58 33 4333.6935100128.74463188.0~ 00128.74463 188.0 1101011000 1100010010 1100100110 10000010000 10000110110 1011110000 1100110110 1101100111 1011101100 1101011101 1011010011 1011111100 10000101001 10000111011 1100000111 1100000110 1011111100 1011111001 20.875 51.735 1004.1 55464 16 8 7 58 51 3 $GNGGA,105833.00,4333.69351,N,00128.74463,E,1,07,1.43,188.0,M,53.8,M,,*46
56 10 58 34 4333.6937700128.74551188.5~ 00128.74551 188.5 1101010111 1100010001 1100100101 10000010001 10000110101 1011101111 1100110100 1101101101 1011101011 1101011101 1011010111 1011111110 10000100010 10000111001 1100001010 1100000111 1011111001 1011110111 20.875 51.644 1004.1 56464 17 7 7 59 51 3 $GNGGA,105834.00,4333.69377,N,00128.74551,E,1,07,1.43,188.5,M,53.8,M,,*40
57 10 58 35 4333.6940900128.74633188.5~ 00128.74633 188.5 1101010111 1100010001 1100100011 10000010001 10000110111 1011110011 1100111011 1101101111 1011110000 1101011101 1011010101 1011111101 10000100011 10000111001 1100001010 1100000101 1011111111 1011111011 20.875 51.552 1004.1 57464 16 7 8 58 51 3 $GNGGA,105835.00,4333.69409,N,00128.74633,E,1,07,1.43,188.5,M,53.8,M,,*48
58 10 58 36 4333.6944100128.74706188.8~ 00128.74706 188.8 1101010111 1100010011 1100100110 10000001101 10000110101 1011111000 1100111111 1101100111 1011100100 1101011101 1011010110 1011111111 10000101000 10000111010 1100001111 1100000100 1011111110 1011111001 20.875 51.507 1004.1 58464 16 7 7 58 52 3 $GNGGA,105836.00,4333.69441,N,00128.74706,E,1,07,1.43,188.8,M,53.8,M,,*4D
59 10 58 37 4333.6946500128.74742188.6~ 00128.74742 188.6 1101010111 1100010010 1100100110 10000000111 10000110010 1011110001 1100111101 1101101100 1011101010 1101011101 1011010111 1011111111 10000101011 10000111010 1100001001 1100001000 1011111110 1011111010 20.875 52.117 1004.1 59464 17 7 7 59 51 3 $GNGGA,105837.00,4333.69465,N,00128.74742,E,1,07,1.43,188.6,M,53.8,M,,*44
60 10 58 38 4333.6949100128.74784188.3~ 00128.74784 188.3 1101010111 1100010011 1100101000 10000001010 10000110111 1011110100 1100111101 1101101110 1011100001 1101011101 1011011010 1100000001 10000100111 10000111001 1100001101 1100000001 1100000101 1100000000 20.875 51.941 1004.1 60464 16 7 7 58 51 4 $GNGGA,105838.00,4333.69491,N,00128.74784,E,1,07,1.43,188.3,M,53.8,M,,*4F
61 10 58 39 4333.6949200128.74753188.0~ 00128.74753 188.0 1101010111 1100010010 1100101000 10000010011 10000110111 1011110000 1100111011 1101101100 1011100011 1101011100 1011011000 1011111110 10000100011 10000111000 1100000110 1011111110 1011111011 1011110010 20.875 51.804 1004.1 61464 17 7 7 59 51 3 $GNGGA,105839.00,4333.69492,N,00128.74753,E,1,07,1.43,188.0,M,53.8,M,,*44
62 10 58 40 4333.6951800128.74781187.6~ 00128.74781 187.6 1101010111 1100010100 1100101000 10000001110 10000111001 1011110110 1100111110 1101110001 1011101001 1101011101 1011010100 1011111100 10000100111 10000111001 1100001010 1100000011 1100000010 1011111010 20.875 51.682 1004.1 62464 16 8 7 58 51 3 $GNGGA,105840.00,4333.69518,N,00128.74781,E,1,07,1.43,187.6,M,53.8,M,,*4F
63 10 58 41 4333.6953500128.74765187.1~ 00128.74765 187.1 1101010111 1100010001 1100100101 10000001001 10000110010 1011110010 1100110110 1101110000 1011110001 1101011101 1011010111 1011111100 10000100101 10000111100 1100001010 1100000010 1100000001 1011111100 20.875 51.583 1004.1 63464 17 7 7 59 51 3 $GNGGA,105841.00,4333.69535,N,00128.74765,E,1,07,1.43,187.1,M,53.8,M,,*4C
64 10 58 42 4333.6954100128.74753186.7~ 00128.74753 186.7 1101010111 1100010001 1100100011 10000001100 10000110110 1011110010 1100110111 1101101001 1011100100 1101011101 1011011100 1100000001 10000101000 10000111010 1100001000 1100000001 1100000110 1100000000 20.875 51.499 1004.1 64464 16 7 8 58 51 3 $GNGGA,105842.00,4333.69541,N,00128.74753,E,1,07,1.43,186.7,M,53.8,M,,*4E
65 10 58 43 4333.6955300128.74743186.2~ 00128.74743 186.2 1101010111 1100010010 1100100100 10000000111 10000110010 1011110110 1100111011 1101101010 1011101100 1101011101 1011011000 1011111111 10000100011 10000111010 1100001100 1100000100 1100001010 1011111100 20.875 51.453 1004.1 65464 16 7 7 58 52 3 $GNGGA,105843.00,4333.69553,N,00128.74743,E,1,07,1.43,186.2,M,53.8,M,,*48
66 10 58 44 4333.6957200128.74770185.6~ 00128.74770 185.6 1101010111 1100010001 1100100100 10000001001 10000110101 1011110110 1100111100 1101110100 1011110100 1101011101 1011010111 1100000000 10000100111 10000111010 1100001000 1100000011 1100000111 1011111001 20.875 51.430 1004.1 66464 16 7 8 58 51 3 $GNGGA,105844.00,4333.69572,N,00128.74770,E,1,07,1.43,185.6,M,53.8,M,,*4B
67 10 58 45 4333.6958600128.74791185.1~ 00128.74791 185.1 1101010111 1100010000 1100100101 10000001100 10000110110 1011110100 1100111011 1101101111 1011110000 1101011101 1011011000 1100000010 10000100111 10000111010 1100001000 1100000001 1100000010 1011110111 20.875 51.438 1004.1 67464 16 7 7 58 52 3 $GNGGA,105845.00,4333.69586,N,00128.74791,E,1,07,1.43,185.1,M,53.8,M,,*49
68 10 58 46 4333.6958900128.74846184.5~ 00128.74846 184.5 1101010111 1100010001 1100100110 10000010000 10000110101 1011110010 1100111001 1101101101 1011101100 1101011101 1011010110 1011111111 10000101010 10000111011 1100001011 1100000101 1100000001 1011111000 20.875 51.400 1004.1 68464 17 7 7 59 51 3 $GNGGA,105846.00,4333.69589,N,00128.74846,E,1,07,1.43,184.5,M,53.8,M,,*45
69 10 58 47 4333.6959100128.74837184.2~ 00128.74837 184.2 1101010111 1100010010 1100100101 10000000011 10000110011 1011110011 1100111100 1101110001 1011100110 1101011101 1011010111 1011111111 10000100101 10000111000 1100001011 1100000011 1100000110 1011111110 20.875 51.613 1004.1 69464 16 8 7 58 51 3 $GNGGA,105847.00,4333.69591,N,00128.74837,E,1,07,1.43,184.2,M,53.8,M,,*4C
70 10 58 48 4333.6960000128.74790183.6~ 00128.74790 183.6 1101010111 1100010010 1100101001 10000001100 10000111001 1011101110 1100110110 1101101110 1011101001 1101011101 1011010010 1011111101 10000100100 10000111010 1100001110 1100000101 1011111101 1011110100 20.875 51.728 1004.1 70464 17 7 7 59 51 3 $GNGGA,105848.00,4333.69600,N,00128.74790,E,1,07,1.43,183.6,M,53.8,M,,*49
71 10 58 49 4333.6961100128.74765183.1~ 00128.74765 183.1 1101010111 1100010011 1100100110 10000001011 10000110110 1011110001 1100110100 1101110001 1011101010 1101011101 1011010100 1011111100 10000101100 10000111101 1100001111 1100000110 1011111101 1011110001 20.875 51.758 1004.1 71464 16 8 7 58 51 3 $GNGGA,105849.00,4333.69611,N,00128.74765,E,1,07,1.43,183.1,M,53.8,M,,*45
72 10 58 50 4333.6960700128.74720182.4~ 00128.74720 182.4 1101010111 1100010000 1100100111 10000001101 10000110111 1011110000 1100110100 1101101100 1011101000 1101011101 1011010110 1011111101 10000100110 10000111011 1100001001 1011111101 1011111110 1011111011 20.875 51.652 1004.1 72464 17 7 7 59 51 3 $GNGGA,105850.00,4333.69607,N,00128.74720,E,1,07,1.43,182.4,M,53.8,M,,*4F
73 10 58 51 4333.6961600128.74711181.6~ 00128.74711 181.6 1101010111 1100010101 1100100110 10000001011 10000111001 1011110100 1100110101 1101101110 1011101000 1101011101 1011011001 1100000010 10000100001 10000111001 1100001011 1100000101 1100000101 1011111010 20.875 51.697 1004.1 73464 16 7 8 58 51 3 $GNGGA,105851.00,4333.69616,N,00128.74711,E,1,07,1.43,181.6,M,53.8,M,,*4D
74 10 58 52 4333.6960600128.74685181.2~ 00128.74685 181.2 1101010111 1100010001 1100100111 10000001100 10000111010 1011110011 1100111000 1101101110 1011101010 1101011101 1011010111 1100000010 10000100100 10000111010 1100000101 1011111101 1011111111 1011110111 20.875 51.743 1004.1 74464 16 7 7 58 52 3 $GNGGA,105852.00,4333.69606,N,00128.74685,E,1,07,1.43,181.2,M,53.8,M,,*47
75 10 58 53 4333.6960200128.74663180.6~ 00128.74663 180.6 1101010111 1100010011 1100100100 10000000111 10000110100 1011110100 1100111011 1101101100 1011100000 1101011101 1011010011 1011111101 10000101000 10000111011 1100001000 1100000000 1100001000 1011111011 20.875 51.636 1004.1 75464 17 7 7 59 51 3 $GNGGA,105853.00,4333.69602,N,00128.74663,E,1,07,1.43,180.6,M,53.8,M,,*4F
76 10 58 54 4333.6961700128.74673180.0~ 00128.74673 180.0 1101010111 1100010011 1100100111 10000001100 10000111000 1011110011 1100110110 1101101001 1011100100 1101011101 1011010111 1011111111 10000101000 10000111010 1100001010 1100000100 1100001000 1011111100 20.875 51.621 1004.1 76464 16 7 7 58 51 4 $GNGGA,105854.00,4333.69617,N,00128.74673,E,1,07,1.43,180.0,M,53.8,M,,*4B
77 10 58 55 4333.6961700128.74703179.7~ 00128.74703 179.7 1101010111 1100010001 1100100110 10000001111 10000110101 1011110110 1100111010 1101101111 1011110010 1101011101 1011011000 1100000000 10000100010 10000111010 1100001100 1100000100 1100000010 1011110111 20.875 51.545 1004.1 77464 17 7 7 59 51 3 $GNGGA,105855.00,4333.69617,N,00128.74703,E,1,07,1.43,179.7,M,53.8,M,,*4D
78 10 58 56 4333.6963100128.74751179.3~ 00128.74751 179.3 1101010111 1100010111 1100101011 10000001111 10000110101 1011110110 1100111110 1101111001 1011110010 1101011101 1011010101 1100000000 10000100011 10000111000 1100000110 1100000000 1100000110 1100000001 20.875 51.468 1004.1 78464 16 8 7 58 51 3 $GNGGA,105856.00,4333.69631,N,00128.74751,E,1,07,1.43,179.3,M,53.8,M,,*49
79 10 58 57 4333.6963800128.74794179.1~ 00128.74794 179.1 1101010111 1100010011 1100100110 10000001011 10000110100 1011110100 1100111010 1101101101 1011110001 1101011101 1011011001 1100000010 10000100100 10000111011 1100001010 1100000001 1100001010 1100000011 20.875 51.674 1004.1 79464 17 7 7 59 51 3 $GNGGA,105857.00,4333.69638,N,00128.74794,E,1,07,1.43,179.1,M,53.8,M,,*4A
80 10 58 58 4333.6963900128.74789178.9~ 00128.74789 178.9 1101010111 1100010001 1100100100 10000010101 10000111001 1011110000 1100110110 1101101111 1011110010 1101011101 1011010101 1011111101 10000101001 10000111011 1100001010 1011111110 1011111101 1011110010 20.875 51.728 1004.1 80464 16 7 8 58 51 3 $GNGGA,105858.00,4333.69639,N,00128.74789,E,1,07,1.43,178.9,M,53.8,M,,*41
81 10 58 59 4333.6966500128.74820178.5~ 00128.74820 178.5 1101010111 1100010011 1100100101 10000010010 10000110101 1011110110 1100111010 1101110001 1011110000 1101011101 1011010011 1011111110 10000100110 10000111001 1100000010 1011111010 1100000110 1011111111 20.875 51.598 1004.1 81464 16 7 7 58 52 3 $GNGGA,105859.00,4333.69665,N,00128.74820,E,1,07,1.43,178.5,M,53.8,M,,*49
82 10 59 00 4333.6966900128.74823177.9~ 00128.74823 177.9 1101010111 1100010010 1100100111 10000001101 10000110011 1011110011 1100111000 1101101111 1011100111 1101011101 1011010111 1100000000 10000100101 10000111010 1100001100 1100000001 1100000111 1011111110 20.875 51.468 1004.1 82464 16 7 8 58 51 3 $GNGGA,105900.00,4333.69669,N,00128.74823,E,1,07,1.43,177.9,M,53.8,M,,*48
83 10 59 01 4333.6968600128.74827177.0~ 00128.74827 177.0 1101010111 1100010010 1100100101 10000001101 10000111001 1011110111 1100111100 1101110010 1011110010 1101011101 1011010110 1011111111 10000100001 10000111001 1100000110 1011111011 1011111101 1011110011 20.875 51.362 1004.1 83464 16 7 7 58 52 3 $GNGGA,105901.00,4333.69686,N,00128.74827,E,1,07,1.43,177.0,M,53.8,M,,*45
84 10 59 02 4333.6969900128.74789176.2~ 00128.74789 176.2 1101010111 1100010011 1100100110 10000000101 10000110111 1011110010 1100111000 1101110010 1011110000 1101011101 1011010111 1100000000 10000100101 10000111001 1100001110 1100000100 1100000000 1011111111 20.875 51.262 1004.1 84464 17 7 7 59 51 3 $GNGGA,105902.00,4333.69699,N,00128.74789,E,1,07,1.43,176.2,M,53.8,M,,*40
85 10 59 03 4333.6974100128.74818175.6~ 00128.74818 175.6 1101010111 1100010001 1100100111 10000001101 10000110101 1011110011 1100110110 1101110110 1011110001 1101011101 1011010100 1100000000 10000100011 10000111010 1100000111 1100000001 1100001000 1011111110 20.875 51.209 1004.1 85464 16 8 7 58 51 3 $GNGGA,105903.00,4333.69741,N,00128.74818,E,1,07,1.43,175.6,M,53.8,M,,*45
86 10 59 04 4333.6976400128.74854175.0~ 00128.74854 175.0 1101010111 1100010010 1100100111 10000001010 10000110110 1011111000 1100110111 1101101111 1011110100 1101011101 1011010101 1011111110 10000101011 10000111101 1100001110 1100001001 1011111100 1011111010 20.875 51.209 1004.1 86464 17 7 7 59 51 3 $GNGGA,105904.00,4333.69764,N,00128.74854,E,1,07,1.43,175.0,M,53.8,M,,*4B
87 10 59 05 4333.6980500128.74870174.1~ 00128.74870 174.1 1101010111 1100010101 1100100110 10000010000 10000110101 1011101101 1100110000 1101101001 1011101110 1101011101 1011010111 1011111111 10000101111 10000111110 1100010000 1100000111 1011111111 1011111000 20.875 51.148 1004.1 87464 16 8 7 58 51 3 $GNGGA,105905.00,4333.69805,N,00128.74870,E,1,07,1.43,174.1,M,53.8,M,,*44
88 10 59 06 4333.6981500128.74861173.8~ 00128.74861 173.8 1101010111 1100010100 1100100111 10000010001 10000111001 1011110011 1100110100 1101110000 1011110010 1101011101 1011010100 1011111111 10000100011 10000110111 1100001011 1100000100 1100000011 1011111000 20.875 51.102 1004.1 88464 17 7 7 59 51 3 $GNGGA,105906.00,4333.69815,N,00128.74861,E,1,08,1.20,173.8,M,53.8,M,,*42
89 10 59 07 4333.6979100128.74858173.8~ 00128.74858 173.8 1101010111 1100010001 1100100110 10000000111 10000110110 1011111000 1100111110 1101101101 1011101111 1101011101 1011011000 1100000001 10000101001 10000111011 1100001100 1100000110 1100001000 1100000000 20.875 51.194 1004.1 89464 16 7 8 58 51 3 $GNGGA,105907.00,4333.69791,N,00128.74858,E,1,08,1.20,173.8,M,53.8,M,,*4A
90 10 59 08 4333.6980700128.74864173.4~ 00128.74864 173.4 1101010111 1100010001 1100100100 10000000111 10000110111 1011101110 1100110101 1101101110 1011110001 1101011101 1011010101 1011111111 10000100110 10000111001 1100001011 1100000010 1011111110 1100000100 20.875 51.308 1004.1 90464 16 7 7 58 52 3 $GNGGA,105908.00,4333.69807,N,00128.74864,E,1,08,1.20,173.4,M,53.8,M,,*46
91 10 59 09 4333.6980600128.74878173.2~ 00128.74878 173.2 1101010111 1100010100 1100100111 10000001001 10000110011 1011110010 1100110101 1101110011 1011101111 1101011101 1011010011 1011111110 10000100110 10000111100 1100000111 1100000011 1100001001 1100000000 20.875 51.308 1004.1 91464 17 7 7 59 51 3 $GNGGA,105909.00,4333.69806,N,00128.74878,E,1,08,1.20,173.2,M,53.8,M,,*4D
92 10 59 10 4333.6980700128.74896173.1~ 00128.74896 173.1 1101011000 1100010011 1100100111 10000001100 10000110100 1011110111 1101000000 1101101111 1011101100 1101011101 1011010100 1011111101 10000100101 10000111011 1100001010 1100000001 1100000011 1100000010 20.875 51.278 1004.1 92464 16 7 7 58 51 4 $GNGGA,105910.00,4333.69807,N,00128.74896,E,1,08,1.20,173.1,M,53.8,M,,*47
93 10 59 11 4333.6981400128.74898172.9~ 00128.74898 172.9 1101011000 1100010001 1100100101 10000001010 10000110011 1011110101 1100111100 1101101001 1011101001 1101011101 1011011000 1011111110 10000101000 10000111011 1100001100 1100000100 1011111101 1100000000 20.875 51.217 1004.1 93464 17 7 7 59 51 3 $GNGGA,105911.00,4333.69814,N,00128.74898,E,1,08,1.20,172.9,M,53.8,M,,*43
94 10 59 12 4333.6984500128.74906172.9~ 00128.74906 172.9 1101010111 1100010100 1100101010 10000010001 10000110101 1011110000 1100110011 1101101100 1011101111 1101011101 1011010101 1011111110 10000100001 10000111010 1100001011 1100000001 1100000100 1011111111 20.875 51.293 1004.1 94464 16 8 7 58 51 3 $GNGGA,105912.00,4333.69845,N,00128.74906,E,1,08,1.20,172.9,M,53.8,M,,*42
95 10 59 13 4333.6983800128.74938173.0~ 00128.74938 173.0 1101010111 1100010011 1100100111 10000010100 10000111011 1011110000 1100110110 1101101101 1011110001 1101011101 1011010110 1100000000 10000011111 10000111011 1100001010 1100000100 1100000000 1100000000 20.875 51.377 1004.1 95464 17 7 7 59 51 3 $GNGGA,105913.00,4333.69838,N,00128.74938,E,1,08,1.20,173.0,M,53.8,M,,*4C
96 10 59 14 4333.6983200128.74958172.8~ 00128.74958 172.8 1101011000 1100010000 1100100110 10000010010 10000110110 1011101110 1100110011 1101110100 1011110101 1101011101 1011011000 1100000000 10000101010 10000111011 1100001100 1100000100 1011111110 1011110011 20.875 51.461 1004.1 96464 16 7 8 58 51 3 $GNGGA,105914.00,4333.69832,N,00128.74958,E,1,08,1.20,172.8,M,53.8,M,,*4E
97 10 59 15 4333.6982700128.74994172.5~ 00128.74994 172.5 1101010111 1100010010 1100100110 10000010010 10000110111 1011110011 1100110111 1101100010 1011100011 1101011101 1011011011 1100000010 10000100000 10000111001 1100001101 1100000001 1011111000 1011110100 20.875 51.499 1004.1 97464 16 7 7 58 52 3 $GNGGA,105915.00,4333.69827,N,00128.74994,E,1,08,1.20,172.5,M,53.8,M,,*46
98 10 59 16 4333.6983200128.74995171.7~ 00128.74995 171.7 1101010111 1100010011 1100100110 10000010110 10000111010 1011111000 1100111011 1101110011 1011110000 1101011101 1011010110 1100000000 10000100110 10000111011 1100001010 1100000100 1011111110 1011111010 20.875 51.514 1004.1 98464 16 7 8 58 51 3 $GNGGA,105916.00,4333.69832,N,00128.74995,E,1,08,1.20,171.7,M,53.8,M,,*41
99 10 59 17 4333.6980900128.75041171.3~ 00128.75041 171.3 1101010111 1100010110 1100101000 10000001111 10000110100 1011110100 1100110111 1101110000 1011101100 1101011101 1011011001 1100000001 10000100101 10000111010 1100001100 1100000001 1011111101 1011111010 20.875 51.560 1004.1 99464 16 7 7 58 52 3 $GNGGA,105917.00,4333.69809,N,00128.75041,E,1,08,1.20,171.3,M,53.8,M,,*4D
100 10 59 18 4333.6979600128.75064171.0~ 00128.75064 171.0 1101010111 1100010001 1100100100 10000010001 10000111001 1011110100 1100111001 1101101100 1011110001 1101011101 1011010101 1011111111 10000100111 10000111001 1100001001 1100000111 1011111011 1011111011 20.875 51.545 1004.1 100464 17 7 7 59 51 3 $GNGGA,105918.00,4333.69796,N,00128.75064,E,1,08,1.20,171.0,M,53.8,M,,*4F
101 10 59 19 4333.6977300128.75072171.2~ 00128.75072 171.2 1101010111 1100010010 1100100100 10000001101 10000111000 1011110011 1100111000 1101101101 1011101111 1101011101 1011010111 1100000001 10000100101 10000111011 1100001101 1100000011 1011111011 1011111000 20.875 51.514 1004.1 101464 16 8 7 58 51 3 $GNGGA,105919.00,4333.69773,N,00128.75072,E,1,08,1.20,171.2,M,53.8,M,,*40
102 10 59 20 4333.6975600128.75084171.4~ 00128.75084 171.4 1101010111 1100010010 1100100110 10000001101 10000110111 1011111001 1100111110 1101101101 1011100100 1101011101 1011010100 1011111100 10000100100 10000111001 1100001010 1100000011 1011111101 1011110001 20.875 51.484 1004.1 102464 17 7 7 59 51 3 $GNGGA,105920.00,4333.69756,N,00128.75084,E,1,08,1.20,171.4,M,53.8,M,,*42
103 10 59 21 4333.6973000128.75085171.6~ 00128.75085 171.6 1101010111 1100010000 1100100110 10000001000 10000110100 1011110010 1100111000 1101101101 1011101000 1101011101 1011011000 1100000001 10000100010 10000111001 1100010010 1100001010 1100000011 1011110010 20.875 51.453 1004.1 103464 16 8 7 58 51 3 $GNGGA,105921.00,4333.69730,N,00128.75085,E,1,08,1.20,171.6,M,53.8,M,,*40
104 10 59 22 4333.6971200128.75056171.8~ 00128.75056 171.8 1101010111 1100010000 1100100101 10000001101 10000110110 1011110001 1100110110 1101100010 1011100101 1101011101 1011011001 1100000000 10000011110 10000111010 1100001101 1100000010 1011111110 1011110101 20.875 51.499 1004.1 104464 17 7 7 59 51 3 $GNGGA,105922.00,4333.69712,N,00128.75056,E,1,08,1.20,171.8,M,53.8,M,,*43
105 10 59 23 4333.6966400128.75025172.3~ 00128.75025 172.3 1101010111 1100010100 1100101000 10000010001 10000110101 1011101101 1100110101 1101101010 1011100111 1101011101 1011011011 1100000000 10000100000 10000111000 1100001010 1011111111 1100000100 1100000000 20.875 51.491 1004.1 105464 16 7 8 58 51 3 $GNGGA,105923.00,4333.69664,N,00128.75025,E,1,08,1.20,172.3,M,53.8,M,,*4E
106 10 59 24 4333.6964000128.74993172.5~ 00128.74993 172.5 1101010111 1100010011 1100100110 10000001000 10000110101 1011110100 1100111011 1101101101 1011100010 1101011101 1011010110 1011111111 10000100111 10000111000 1100001100 1100000110 1100001010 1011111100 20.875 51.499 1004.1 106464 16 7 7 58 52 3 $GNGGA,105924.00,4333.69640,N,00128.74993,E,1,08,1.20,172.5,M,53.8,M,,*4C
107 10 59 25 4333.6962400128.74978172.7~ 00128.74978 172.7 1101010111 1100010100 1100101001 10000010111 10000111001 1011110101 1100111011 1101110000 1011100101 1101011101 1011010111 1100000001 10000101010 10000111011 1100001010 1100000001 1100000000 1011110100 20.875 51.507 1004.1 107464 17 7 7 59 51 3 $GNGGA,105925.00,4333.69624,N,00128.74978,E,1,08,1.20,172.7,M,53.8,M,,*48
108 10 59 26 4333.6959800128.75002173.5~ 00128.75002 173.5 1101010111 1100010011 1100101000 10000000010 10000110101 1011101111 1100110010 1101101110 1011101010 1101011101 1011010001 1011111100 10000100100 10000111001 1100001100 1100000100 1100000100 1011111010 20.875 51.476 1004.1 108464 16 7 7 58 51 4 $GNGGA,105926.00,4333.69598,N,00128.75002,E,1,08,1.20,173.5,M,53.8,M,,*49
109 10 59 27 4333.6961300128.75026173.8~ 00128.75026 173.8 1101010111 1100010011 1100100110 10000000100 10000110001 1011110010 1100111000 1101101011 1011101001 1101011101 1011010110 1011111110 10000101001 10000111100 1100001101 1100000100 1011111110 1011111010 20.875 51.423 1004.1 109464 17 7 7 59 51 3 $GNGGA,105927.00,4333.69613,N,00128.75026,E,1,08,1.20,173.8,M,53.8,M,,*43
110 10 59 28 4333.6959000128.75024173.9~ 00128.75024 173.9 1101010111 1100010011 1100101010 10000001010 10000110010 1011110100 1100110011 1101101101 1011101001 1101011101 1011010100 1100000000 10000100101 10000111110 1100001101 1100000000 1011111001 1011111000 20.875 51.560 1004.1 110464 16 8 7 58 51 3 $GNGGA,105928.00,4333.69590,N,00128.75024,E,1,08,1.20,173.9,M,53.8,M,,*47
111 10 59 29 4333.6957400128.75013173.9~ 00128.75013 173.9 1101010111 1100010001 1100100101 10000001100 10000111001 1011111000 1100111111 1101101100 1011101101 1101011101 1011011011 1100000001 10000100010 10000111010 1100010000 1100000101 1011111110 1011111001 20.875 51.652 1004.1 111464 17 7 7 59 51 3 $GNGGA,105929.00,4333.69574,N,00128.75013,E,1,09,0.93,173.9,M,53.8,M,,*40
112 10 59 30 4333.6956400128.74991174.3~ 00128.74991 174.3 1101011000 1100010010 1100100110 10000001011 10000111000 1011110011 1100111001 1101101000 1011100101 1101011101 1011010111 1011111111 10000100100 10000111011 1100001100 1100000011 1100000010 1011111101 20.875 51.613 1004.1 112464 16 7 8 58 51 3 $GNGGA,105930.00,4333.69564,N,00128.74991,E,1,09,0.93,174.3,M,53.8,M,,*46
113 10 59 31 4333.6951800128.74948174.3~ 00128.74948 174.3 1101010111 1100010000 1100100101 10000001010 10000110111 1011110001 1100110101 1101100111 1011011100 1101011101 1011010110 1011111111 10000100000 10000111010 1100001011 1100000000 1100000001 1011110111 20.875 51.545 1004.1 113464 16 7 7 58 52 3 $GNGGA,105931.00,4333.69518,N,00128.74948,E,1,09,0.93,174.3,M,53.8,M,,*48
114 10 59 32 4333.6948700128.74891174.3~ 00128.74891 174.3 1101010111 1100010011 1100100110 10000001001 10000110101 1011110000 1100110101 1101101101 1011101001 1101011101 1011011000 1100000000 10000100001 10000111001 1100001000 1100000000 1011111011 1011111001 20.875 51.476 1004.1 114464 16 7 8 58 51 3 $GNGGA,105932.00,4333.69487,N,00128.74891,E,1,09,0.93,174.3,M,53.8,M,,*49
115 10 59 33 4333.6944000128.74855174.1~ 00128.74855 174.1 1101010111 1100010010 1100100101 10000000111 10000110110 1011110010 1100110111 1101101001 1011011111 1101011101 1011010100 1011111110 10000100010 10000111010 1100000111 1011111111 1100000100 1011111100 20.875 51.438 1004.1 115464 16 7 7 58 52 3 $GNGGA,105933.00,4333.69440,N,00128.74855,E,1,09,0.93,174.1,M,53.8,M,,*49
116 10 59 34 4333.6942300128.74793174.1~ 00128.74793 174.1 1101010111 1100010011 1100100111 10000001010 10000110100 1011101111 1100110111 1101100011 1011100011 1101011101 1011010100 1011111110 10000100101 10000111010 1100010010 1100000101 1100000001 1011111011 20.875 51.369 1004.1 116464 17 7 7 59 51 3 $GNGGA,105934.00,4333.69423,N,00128.74793,E,1,09,0.93,174.1,M,53.8,M,,*4E
117 10 59 35 4333.6938800128.74745174.1~ 00128.74745 174.1 1101010111 1100010100 1100100111 10000001001 10000110101 1011110101 1100111100 1101101110 1011100101 1101011101 1011010110 1011111111 10000100010 10000111100 1100001011 1100000010 1011111110 1011110101 20.875 51.453 1004.1 117464 16 8 7 58 51 3 $GNGGA,105935.00,4333.69388,N,00128.74745,E,1,09,0.93,174.1,M,53.8,M,,*42
118 10 59 36 4333.6934000128.74681174.3~ 00128.74681 174.3 1101010111 1100010010 1100100101 10000001001 10000110101 1011110001 1100110101 1101111001 1011101001 1101011101 1011010110 1100000001 10000100011 10000111001 1100001010 1100000010 1100001100 1100000001 20.875 51.652 1004.1 118464 17 7 7 59 51 3 $GNGGA,105936.00,4333.69340,N,00128.74681,E,1,09,0.93,174.3,M,53.8,M,,*4E
119 10 59 37 4333.6929600128.74632174.5~ 00128.74632 174.5 1101010111 1100010100 1100100110 10000010001 10000110111 1011110100 1100111101 1101110110 1011101101 1101011101 1011001111 1011111010 10000101010 10000111010 1100001111 1100000101 1100000001 1011111110 20.875 51.865 1004.1 119464 16 8 7 58 51 3 $GNGGA,105937.00,4333.69296,N,00128.74632,E,1,09,0.93,174.5,M,53.8,M,,*4B
120 10 59 38 4333.6924500128.74587174.8~ 00128.74587 174.8 1101010111 1100010010 1100100110 10000001111 10000110101 1011110111 1100111010 1101100111 1011100011 1101011101 1011010111 1011111111 10000100101 10000111010 1100000111 1011111101 1100000110 1011111000 20.875 51.896 1004.1 120464 17 7 7 59 51 3 $GNGGA,105938.00,4333.69245,N,00128.74587,E,1,09,0.93,174.8,M,53.8,M,,*4A
121 10 59 39 4333.6919300128.74531175.1~ 00128.74531 175.1 1101010111 1100010010 1100100101 10000001011 10000110010 1011110001 1100111001 1101101110 1011110010 1101011101 1011011010 1100000001 10000100110 10000111100 1100001001 1011111111 1011111111 1011111011 20.875 51.964 1004.1 121464 16 7 8 58 51 3 $GNGGA,105939.00,4333.69193,N,00128.74531,E,1,09,0.93,175.1,M,53.8,M,,*46
122 10 59 40 4333.6916700128.74502174.9~ 00128.74502 174.9 1101010111 1100010010 1100100111 10000010000 10000111000 1011110011 1100111100 1101110010 1011101111 1101011101 1011010111 1011111111 10000100001 10000111001 1100001101 1100000111 1100000110 1100000001 20.875 51.949 1004.1 122464 16 7 7 58 52 3 $GNGGA,105940.00,4333.69167,N,00128.74502,E,1,09,0.93,174.9,M,53.8,M,,*4A
123 10 59 41 4333.6911600128.74448175.0~ 00128.74448 175.0 1101010111 1100010001 1100100101 10000001011 10000110011 1011110011 1100110101 1101101111 1011110000 1101011101 1011010101 1011111110 10000100011 10000111001 1100000101 1011111111 1100000110 1011111001 20.875 51.819 1004.1 123464 17 7 7 59 51 3 $GNGGA,105941.00,4333.69116,N,00128.74448,E,1,09,0.93,175.0,M,53.8,M,,*4A
124 10 59 42 4333.6909400128.74434174.7~ 00128.74434 174.7 1101010111 1100010010 1100100101 10000000100 10000110100 1011110100 1100111000 1101101110 1011101111 1101011101 1011010110 1100000001 10000101000 10000111011 1100000111 1011111110 1100000110 1100000001 20.875 51.629 1004.1 124464 16 7 7 58 51 4 $GNGGA,105942.00,4333.69094,N,00128.74434,E,1,09,0.93,174.7,M,53.8,M,,*4F
125 10 59 43 4333.6908900128.74423174.4~ 00128.74423 174.4 1101010111 1100010000 1100100100 10000001101 10000110100 1011110001 1100111000 1101110000 1011101110 1101011101 1011010100 1100000001 10000100011 10000111010 1100001100 1100000010 1100000101 1011111010 20.875 51.545 1004.1 125464 17 7 7 59 51 3 $GNGGA,105943.00,4333.69089,N,00128.74423,E,1,08,0.98,174.4,M,53.8,M,,*4D
126 10 59 44 4333.6906900128.74418174.2~ 00128.74418 174.2 1101010111 1100010100 1100100111 10000000111 10000110100 1011110000 1100110011 1101110000 1011100010 1101011101 1011010110 1011111101 10000011110 10000111000 1100001110 1100000011 1100000101 1011110111 20.875 51.575 1004.1 126464 16 8 7 58 51 3 $GNGGA,105944.00,4333.69069,N,00128.74418,E,1,08,0.98,174.2,M,53.8,M,,*4A
127 10 59 45 4333.6905100128.74396174.0~ 00128.74396 174.0 1101010111 1100001111 1100100100 10000001101 10000111000 1011101111 1100110011 1101110011 1011101101 1101011101 1011010110 1011111110 10000101010 10000111100 1100001000 1100000010 1100000010 1011111111 20.875 51.575 1004.1 127464 17 7 7 59 51 3 $GNGGA,105945.00,4333.69051,N,00128.74396,E,1,08,0.98,174.0,M,53.8,M,,*43
128 10 59 46 4333.6903400128.74365174.0~ 00128.74365 174.0 1101010111 1100010100 1100100111 10000001111 10000110110 1011110010 1100111000 1101101010 1011101000 1101011101 1011010011 1011111110 10000100101 10000110111 1100001010 1011111111 1100000100 1100000010 20.875 51.606 1004.1 128464 16 7 8 58 51 3 $GNGGA,105946.00,4333.69034,N,00128.74365,E,1,08,0.98,174.0,M,53.8,M,,*4F
129 10 59 47 4333.6903100128.74365173.7~ 00128.74365 173.7 1101011000 1100010101 1100100110 10000001101 10000110110 1011110010 1100110111 1101110000 1011110011 1101011101 1011010101 1100000000 10000100010 10000111010 1100001010 1100000010 1100000001 1011110110 20.875 51.575 1004.1 129464 16 7 7 58 52 3 $GNGGA,105947.00,4333.69031,N,00128.74365,E,1,09,0.93,173.7,M,53.8,M,,*41
130 10 59 48 4333.6902100128.74345173.6~ 00128.74345 173.6 1101010111 1100010100 1100100101 10000001101 10000110100 1011110010 1100110011 1101101110 1011110010 1101011101 1011010111 1100000001 10000100010 10000111001 1100001101 1100000100 1100000000 1011111101 20.875 51.590 1004.1 130464 16 7 8 58 51 3 $GNGGA,105948.00,4333.69021,N,00128.74345,E,1,09,0.93,173.6,M,53.8,M,,*4C
131 10 59 49 4333.6901100128.74320173.3~ 00128.74320 173.3 1101010111 1100010011 1100100111 10000001111 10000110110 1011110101 1100111100 1101101010 1011101001 1101011101 1011011001 1100000000 10000011111 10000111011 1100001101 1100000000 1100000101 1011111100 20.875 51.606 1004.1 131464 16 7 7 58 52 3 $GNGGA,105949.00,4333.69011,N,00128.74320,E,1,08,1.20,173.3,M,53.8,M,,*40
132 10 59 50 4333.6900000128.74303173.0~ 00128.74303 173.0 1101010111 1100010010 1100101000 10000000111 10000110100 1011110100 1100110101 1101110011 1011110101 1101011101 1011010101 1011111101 10000100010 10000111011 1100001011 1100000010 1100000100 1011111110 20.875 51.583 1004.1 132464 17 7 7 59 51 3 $GNGGA,105950.00,4333.69000,N,00128.74303,E,1,08,1.20,173.0,M,53.8,M,,*4A
133 10 59 51 4333.6900100128.74304172.6~ 00128.74304 172.6 1101010111 1100010101 1100101010 10000010000 10000110110 1011110011 1100111000 1101110001 1011101010 1101011101 1011011100 1100000000 10000101010 10000111010 1100001110 1100000001 1011111100 1011110111 20.875 51.690 1004.1 133464 16 8 7 58 51 3 $GNGGA,105951.00,4333.69001,N,00128.74304,E,1,08,1.20,172.6,M,53.8,M,,*4A
134 10 59 52 4333.6899700128.74287172.2~ 00128.74287 172.2 1101010111 1100010011 1100100110 10000001111 10000110101 1011110001 1100111101 1101101010 1011101101 1101011101 1011010010 1011111100 10000101000 10000111100 1100001100 1100000100 1100000100 1011111111 20.875 51.705 1004.1 134464 17 7 7 59 51 3 $GNGGA,105952.00,4333.68997,N,00128.74287,E,1,08,1.20,172.2,M,53.8,M,,*40
135 10 59 53 4333.6899100128.74260171.9~ 00128.74260 171.9 1101010111 1100010010 1100101000 10000010000 10000111000 1011110100 1100111001 1101110001 1011110100 1101011101 1011011000 1100000000 10000100100 10000111001 1100001000 1100000100 1100000100 1011110101 20.875 51.590 1004.1 135464 16 8 7 58 51 3 $GNGGA,105953.00,4333.68991,N,00128.74260,E,1,08,1.20,171.9,M,53.8,M,,*46
136 10 59 54 4333.6897200128.74229171.8~ 00128.74229 171.8 1101010111 1100010011 1100100110 10000001100 10000111011 1011110011 1100111000 1101101010 1011101010 1101011101 1011010111 1011111111 10000100011 10000111010 1100001001 1100000001 1011111100 1011110110 20.875 51.568 1004.1 136464 17 7 7 59 51 3 $GNGGA,105954.00,4333.68972,N,00128.74229,E,1,08,1.20,171.8,M,53.8,M,,*40
137 10 59 55 4333.6896300128.74201171.7~ 00128.74201 171.7 1101010111 1100010001 1100100101 10000010010 10000111000 1011101011 1100110111 1101101000 1011101011 1101011101 1011011001 1100000001 10000100110 10000111010 1100001101 1100000111 1100000001 1011101101 20.875 51.613 1004.1 137464 16 7 8 58 51 3 $GNGGA,105955.00,4333.68963,N,00128.74201,E,1,08,1.20,171.7,M,53.8,M,,*44
138 10 59 56 4333.6896600128.74176171.4~ 00128.74176 171.4 1101010111 1100010011 1100100111 10000001100 10000110011 1011110011 1100111001 1101101001 1011101011 1101011101 1011010101 1011111111 10000101011 10000111001 1100001101 1100000011 1011111100 1011110001 20.875 51.613 1004.1 138464 16 7 7 58 52 3 $GNGGA,105956.00,4333.68966,N,00128.74176,E,1,08,1.20,171.4,M,53.8,M,,*42
139 10 59 57 4333.6896200128.74159171.3~ 00128.74159 171.3 1101010111 1100010100 1100100110 10000010000 10000111000 1011110100 1100111000 1101101101 1011110001 1101011101 1011011001 1100000000 10000100110 10000111011 1100001100 1100000100 1011111101 1100000001 20.875 51.613 1004.1 139464 17 7 7 59 51 3 $GNGGA,105957.00,4333.68962,N,00128.74159,E,1,08,1.20,171.3,M,53.8,M,,*4D
140 10 59 58 4333.6896000128.74152171.0~ 00128.74152 171.0 1101010111 1100010000 1100100111 10000000101 10000110010 1011110111 1100111010 1101101011 1011101101 1101011101 1011011000 1100000000 10000101000 10000111100 1100001000 1100000001 1011111110 1011111110 20.875 51.644 1004.1 140464 16 7 7 58 51 4 $GNGGA,105958.00,4333.68960,N,00128.74152,E,1,08,1.20,171.0,M,53.8,M,,*48
141 10 59 59 4333.6895800128.74135170.7~ 00128.74135 170.7 1101011000 1100010101 1100101001 10000001010 10000110110 1011110010 1100110101 1101101101 1011110000 1101011101 1011010111 1100000000 10000101010 10000111101 1100001111 1100000111 1011111010 1011110111 20.875 51.598 1004.1 141464 17 7 7 59 51 3 $GNGGA,105959.00,4333.68958,N,00128.74135,E,1,08,1.20,170.7,M,53.8,M,,*45
142 11 00 00 4333.6895100128.74096170.6~ 00128.74096 170.6 1101010111 1100010011 1100100110 10000001101 10000110110 1011110101 1100111001 1101100100 1011100010 1101011101 1011010110 1011111111 10000101010 10000111011 1100001010 1100000100 1011111111 1011111011 20.875 51.590 1004.1 142464 16 8 7 58 51 3 $GNGGA,110000.00,4333.68951,N,00128.74096,E,1,08,0.98,170.6,M,53.8,M,,*46
143 11 00 01 4333.6894900128.74070170.3~ 00128.74070 170.3 1101010111 1100010100 1100100110 10000001011 10000110011 1011110010 1100111000 1101101100 1011101100 1101011101 1011011010 1011111110 10000011010 10000110110 1100000110 1100000001 1011111111 1011110101 20.875 51.606 1004.1 143464 17 7 7 59 51 3 $GNGGA,110001.00,4333.68949,N,00128.74070,E,1,07,1.64,170.3,M,53.8,M,,*4E
144 11 00 02 4333.6895000128.74054170.0~ 00128.74054 170.0 1101010111 1100010101 1100101011 10000001000 10000110111 1011110010 1100111001 1101101101 1011101111 1101011101 1011011010 1100000010 10000100110 10000111010 1100001000 1100000110 1011111110 1011111011 20.875 51.575 1004.1 144464 16 7 8 58 51 3 $GNGGA,110002.00,4333.68950,N,00128.74054,E,1,07,1.64,170.0,M,53.8,M,,*40
145 11 00 03 4333.6895200128.74041169.6~ 00128.74041 169.6 1101010111 1100010100 1100100110 10000001000 10000110011 1011101111 1100110010 1101110000 1011101011 1101011101 1011010110 1100000000 10000100110 10000111011 1100000101 1100000100 1011111101 1011110111 20.875 51.590 1004.1 145464 16 7 7 58 52 3 $GNGGA,110003.00,4333.68952,N,00128.74041,E,1,07,1.64,169.6,M,53.8,M,,*49
146 11 00 04 4333.6894200128.74018169.6~ 00128.74018 169.6 1101011000 1100010011 1100100110 10000010011 10000111001 1011111001 1100111110 1101101110 1011101100 1101011101 1011010111 1011111111 10000100010 10000111011 1100001100 1100000100 1100000000 1011111010 20.875 51.583 1004.1 146464 16 7 8 58 51 3 $GNGGA,110004.00,4333.68942,N,00128.74018,E,1,08,0.98,169.6,M,53.8,M,,*4E
147 11 00 05 4333.6893100128.73980169.8~ 00128.73980 169.8 1101011000 1100010011 1100100100 10000001011 10000110011 1011110111 1100111011 1101100111 1011101100 1101011101 1011010100 1011111101 10000101001 10000111010 1100001001 1100000001 1100000100 1011111011 20.875 51.529 1004.1 147464 16 7 7 58 52 3 $GNGGA,110005.00,4333.68931,N,00128.73980,E,1,08,0.98,169.8,M,53.8,M,,*4A
148 11 00 06 4333.6891200128.73943169.9~ 00128.73943 169.9 1101010111 1100010011 1100100101 10000001111 10000110111 1011110100 1100110111 1101101000 1011101000 1101011101 1011010100 1100000000 10000100011 10000111010 1100001111 1100000100 1011111111 1011110111 20.875 51.438 1004.1 148464 17 7 7 59 51 3 $GNGGA,110006.00,4333.68912,N,00128.73943,E,1,08,0.98,169.9,M,53.8,M,,*46
149 11 00 07 4333.6889900128.73894170.2~ 00128.73894 170.2 1101010111 1100010010 1100100111 10000001110 10000110110 1011110101 1100110010 1101100111 1011101100 1101011101 1011010111 1100000010 10000100010 10000111011 1100001101 1100000101 1100000010 1011111100 20.875 51.438 1004.1 149464 16 8 7 58 51 3 $GNGGA,110007.00,4333.68899,N,00128.73894,E,1,08,0.98,170.2,M,53.8,M,,*4D
150 11 00 08 4333.6887700128.73842170.7~ 00128.73842 170.7 1101010111 1100010001 1100100100 10000010101 10000110111 1011110011 1100110110 1101101001 1011100101 1101011101 1011010101 1011111111 10000100110 10000111010 1100001101 1100000100 1100000011 1011111100 20.875 51.377 1004.1 150464 17 7 7 59 51 3 $GNGGA,110008.00,4333.68877,N,00128.73842,E,1,08,0.98,170.7,M,53.8,M,,*4C
151 11 00 09 4333.6885900128.73805171.0~ 00128.73805 171.0 1101010111 1100010000 1100100101 10000010011 10000111000 1011110100 1100111000 1101101100 1011110100 1101011101 1011010101 1011111110 10000100011 10000111011 1100001010 1100000010 1011111001 1011111011 20.875 51.415 1004.1 151464 16 8 7 58 51 3 $GNGGA,110009.00,4333.68859,N,00128.73805,E,1,08,0.98,171.0,M,53.8,M,,*44
152 11 00 10 4333.6884700128.73781171.2~ 00128.73781 171.2 1101010111 1100010000 1100100100 10000010011 10000110101 1011110001 1100110001 1101101111 1011101001 1101011101 1011011001 1100000011 10000100110 10000111001 1100001011 1100000010 1100000001 1011110000 20.875 51.453 1004.1 152464 17 7 7 59 51 3 $GNGGA,110010.00,4333.68847,N,00128.73781,E,1,08,0.98,171.2,M,53.8,M,,*42
153 11 00 11 4333.6882700128.73726171.8~ 00128.73726 171.8 1101010111 1100010100 1100100111 10000010000 10000110110 1011110101 1100111011 1101101011 1011100111 1101011101 1011010110 1100000000 10000101001 10000111001 1100001101 1100000011 1100000110 1100000001 20.875 51.522 1004.1 153464 16 7 8 58 51 3 $GNGGA,110011.00,4333.68827,N,00128.73726,E,1,08,0.98,171.8,M,53.8,M,,*42
154 11 00 12 4333.6881800128.73709171.7~ 00128.73709 171.7 1101010111 1100010011 1100100101 10000001101 10000110100 1011111000 1100111101 1101101101 1011101010 1101011101 1011010101 1011111110 10000100101 10000111000 1100001101 1100001000 1100000100 1011111110 20.875 51.552 1004.1 154464 16 7 7 58 52 3 $GNGGA,110012.00,4333.68818,N,00128.73709,E,1,08,0.98,171.7,M,53.8,M,,*4F
155 11 00 13 4333.6881000128.73695171.7~ 00128.73695 171.7 1101010111 1100010010 1100100111 10000010010 10000111000 1011111001 1101000001 1101101100 1011101110 1101011101 1011010101 1011111111 10000101010 10000111011 1100001101 1100000011 1100000010 1011111101 20.875 51.568 1004.1 155464 17 7 7 59 51 3 $GNGGA,110013.00,4333.68810,N,00128.73695,E,1,08,0.98,171.7,M,53.8,M,,*42
156 11 00 14 4333.6879900128.73667171.9~ 00128.73667 171.9 1101010111 1100010111 1100101100 10000001100 10000110110 1011110101 1100111010 1101110100 1011101101 1101011100 1011011000 1011111110 10000101010 10000111011 1100001010 1100000011 1100000001 1011110110 20.875 51.568 1004.1 156464 16 7 7 58 51 4 $GNGGA,110014.00,4333.68799,N,00128.73667,E,1,08,0.98,171.9,M,53.8,M,,*48
157 11 00 15 4333.6878800128.73646172.1~ 00128.73646 172.1 1101011000 1100010000 1100100100 10000001000 10000110100 1011110010 1100111000 1101110001 1011100111 1101011101 1011010101 1011111111 10000101100 10000111100 1100000110 1100000001 1100000011 1011111100 20.875 51.590 1004.1 157464 17 7 7 59 51 3 $GNGGA,110015.00,4333.68788,N,00128.73646,E,1,08,0.98,172.1,M,53.8,M,,*41
