id HH MM SS longitude latitude altitude adc_1_ch0 adc_1_ch1 adc_1_ch2 adc_1_ch3 adc_1_ch4 adc_1_ch5 adc_1_ch6 adc_1_ch7 adc_1_ch8 adc_2_ch0 adc_2_ch1 adc_2_ch2 adc_2_ch3 adc_2_ch4 adc_2_ch5 adc_2_ch6 adc_2_ch7 adc_2_ch8 temp hum pres t_prog t_gps t_split t_adc t_temp t_hum t_pres trame_gga
1 11 06 12 4333.6854800128.73952156.2~ 00128.73952 156.2 1101010111 1100010101 1100101010 10000010101 10000111010 1011101111 1100111010 1101110100 1011110010 1101011101 1011011001 1100000000 10000100010 10000111011 1100001101 1100000011 1100000010 1011111010 20.938 51.446 795.83 1471 18 7 7 59 51 3 $GNGGA,110612.00,4333.68548,N,00128.73952,E,1,08,0.99,156.2,M,53.8,M,,*40
2 11 06 13 4333.6849900128.73857157.8~ 00128.73857 157.8 1101010111 1100010001 1100100011 10000001011 10000111000 1011101010 1100110000 1101110010 1011101011 1101011101 1011011011 1100000010 10000101001 10000111010 1100000110 1100000001 1011111110 1011110101 21.000 51.514 1004.2 2471 16 8 7 58 51 3 $GNGGA,110613.00,4333.68499,N,00128.73857,E,1,08,0.99,157.8,M,53.8,M,,*43
3 11 06 14 4333.6846000128.73776159.2~ 00128.73776 159.2 1101010111 1100010011 1100100100 10000001010 10000110101 1011110110 1100111001 1101101101 1011101111 1101011101 1011011000 1011111111 10000100101 10000111010 1100001011 1100000001 1100000111 1011111000 20.938 51.484 1004.2 3471 16 7 7 58 52 3 $GNGGA,110614.00,4333.68460,N,00128.73776,E,1,09,0.93,159.2,M,53.8,M,,*41
4 11 06 15 4333.6845800128.73759159.3~ 00128.73759 159.3 1101010111 1100010101 1100101010 10000010101 10000111011 1011110101 1100111000 1101110001 1011101101 1101011101 1011010101 1011111110 10000100010 10000111001 1100001100 1100000001 1100000010 1011110111 20.938 51.461 1004.2 4471 16 7 8 58 51 3 $GNGGA,110615.00,4333.68458,N,00128.73759,E,1,08,1.19,159.3,M,53.8,M,,*45
5 11 06 16 4333.6845700128.73747159.6~ 00128.73747 159.6 1101010111 1100010010 1100100101 10000001001 10000110011 1011110011 1100111000 1101101110 1011101110 1101011101 1011011010 1100000010 10000011111 10000111001 1100000111 1100000010 1100000001 1011111010 20.938 51.438 1004.2 5471 16 7 7 58 52 3 $GNGGA,110616.00,4333.68457,N,00128.73747,E,1,08,1.19,159.6,M,53.8,M,,*43
6 11 06 17 4333.6847200128.73766159.7~ 00128.73766 159.7 1101010111 1100010010 1100100101 10000001100 10000110100 1011110101 1100111101 1101101110 1011110000 1101011101 1011010110 1011111110 10000100100 10000111001 1100001001 1100000010 1100000100 1011111010 20.938 51.446 1004.2 6471 17 7 7 59 51 3 $GNGGA,110617.00,4333.68472,N,00128.73766,E,1,08,1.19,159.7,M,53.8,M,,*47
7 11 06 18 4333.6846500128.73754160.6~ 00128.73754 160.6 1101011000 1100001110 1100100011 10000001101 10000110100 1011110011 1100111100 1101110010 1011101111 1101011101 1011010100 1011111101 10000100101 10000110111 1100010011 1100000111 1100000010 1011111000 20.938 51.507 1004.2 7471 16 7 7 58 51 4 $GNGGA,110618.00,4333.68465,N,00128.73754,E,1,08,0.98,160.6,M,53.8,M,,*4C
8 11 06 19 4333.6844300128.73715161.5~ 00128.73715 161.5 1101010111 1100010010 1100100100 10000001101 10000110101 1011110010 1100111010 1101100000 1011100110 1101011101 1011010110 1011111111 10000101011 10000111010 1100001100 1011111110 1100000100 1011111010 20.938 51.560 1004.2 8471 17 7 7 59 51 3 $GNGGA,110619.00,4333.68443,N,00128.73715,E,1,08,0.98,161.5,M,53.8,M,,*4E
9 11 06 20 4333.6843700128.73694162.4~ 00128.73694 162.4 1101010111 1100010011 1100100110 10000001011 10000110101 1011110000 1100110100 1101101110 1011101110 1101011101 1011010101 1011111100 10000100001 10000111001 1100001011 1100000001 1100000010 1011111100 20.938 51.629 1004.2 9472 16 8 7 58 51 3 $GNGGA,110620.00,4333.68437,N,00128.73694,E,1,08,0.98,162.4,M,53.8,M,,*4D
10 11 06 21 4333.6839600128.73617163.4~ 00128.73617 163.4 1101010111 1100010011 1100100111 10000001010 10000110011 1011110110 1100111101 1101101110 1011100111 1101011101 1011010110 1100000001 10000101010 10000111100 1100001000 1100000011 1100001000 1100000011 20.938 51.682 1004.2 10472 17 7 7 59 51 3 $GNGGA,110621.00,4333.68396,N,00128.73617,E,1,08,0.98,163.4,M,53.8,M,,*4A
11 11 06 22 4333.6837700128.73573164.4~ 00128.73573 164.4 1101011000 1100010011 1100100110 10000001100 10000110101 1011110110 1100111001 1101101101 1011100011 1101011101 1011010010 1011111100 10000101010 10000111011 1100001110 1100001000 1100000010 1011111001 20.938 51.720 1004.2 11472 16 7 8 58 51 3 $GNGGA,110622.00,4333.68377,N,00128.73573,E,1,08,0.98,164.4,M,53.8,M,,*40
12 11 06 23 4333.6836900128.73552165.1~ 00128.73552 165.1 1101010111 1100010010 1100101001 10000001000 10000110111 1011110011 1100111010 1101110011 1011101011 1101011101 1011010100 1011111111 10000101100 10000111100 1100010001 1100001000 1011111111 1011110001 20.938 51.720 1004.2 12472 16 7 7 58 52 3 $GNGGA,110623.00,4333.68369,N,00128.73552,E,1,08,0.98,165.1,M,53.8,M,,*49
13 11 06 24 4333.6833200128.73478166.0~ 00128.73478 166.0 1101010111 1100010010 1100100101 10000001100 10000111001 1011110011 1100111100 1101101111 1011110010 1101011101 1011011001 1011111110 10000101010 10000111010 1100001000 1100000001 1100000010 1011111110 20.938 51.705 1004.2 13472 16 7 8 58 51 3 $GNGGA,110624.00,4333.68332,N,00128.73478,E,1,08,0.98,166.0,M,53.8,M,,*4B
14 11 06 25 4333.6829200128.73398166.7~ 00128.73398 166.7 1101010111 1100010010 1100100111 10000001001 10000110101 1011110000 1100110110 1101101110 1011101011 1101011101 1011011000 1100000000 10000100001 10000111001 1100000111 1011111110 1100000111 1100000110 20.938 51.751 1004.2 14472 16 7 7 58 52 3 $GNGGA,110625.00,4333.68292,N,00128.73398,E,1,08,0.98,166.7,M,53.8,M,,*4F
15 11 06 26 4333.6825300128.73317167.4~ 00128.73317 167.4 1101010111 1100010011 1100100110 10000001100 10000110110 1011101111 1100111000 1101101001 1011100011 1101011101 1011010111 1100000000 10000101000 10000111010 1100001011 1100000110 1100000110 1100000100 20.938 51.766 1004.2 15472 17 7 7 59 51 3 $GNGGA,110626.00,4333.68253,N,00128.73317,E,1,08,0.98,167.4,M,53.8,M,,*44
16 11 06 27 4333.6821600128.73244168.0~ 00128.73244 168.0 1101010111 1100010101 1100101000 10000001101 10000110100 1011101100 1100110101 1101110011 1011101100 1101011101 1011011000 1100000001 10000100110 10000111000 1100001010 1100000101 1011111110 1011111011 20.938 51.789 1004.2 16472 16 8 7 58 51 3 $GNGGA,110627.00,4333.68216,N,00128.73244,E,1,08,0.98,168.0,M,53.8,M,,*48
17 11 06 28 4333.6820600128.73221168.7~ 00128.73221 168.7 1101011000 1100010010 1100100110 10000001110 10000110011 1011110100 1100111001 1101110010 1011101101 1101011101 1011011000 1011111111 10000100110 10000111010 1100001011 1011111110 1011111111 1011111011 20.938 51.796 1004.2 17472 17 7 7 59 51 3 $GNGGA,110628.00,4333.68206,N,00128.73221,E,1,08,0.98,168.7,M,53.8,M,,*42
18 11 06 29 4333.6822100128.73242168.9~ 00128.73242 168.9 1101010111 1100010001 1100100101 10000010000 10000111000 1011110001 1100110110 1101110000 1011101111 1101011101 1011010010 1011111101 10000100100 10000110111 1100001110 1100000101 1100000001 1011111000 20.938 51.781 1004.2 18472 16 8 7 58 51 3 $GNGGA,110629.00,4333.68221,N,00128.73242,E,1,08,0.98,168.9,M,53.8,M,,*4D
19 11 06 30 4333.6825200128.73298169.1~ 00128.73298 169.1 1101010111 1100010001 1100100110 10000010001 10000110100 1011111000 1100111101 1101110010 1011110000 1101011101 1011010101 1011111110 10000101000 10000111001 1100001001 1100000010 1011111111 1011111100 20.938 51.774 1004.2 19472 17 7 7 59 51 3 $GNGGA,110630.00,4333.68252,N,00128.73298,E,1,08,0.98,169.1,M,53.8,M,,*4F
20 11 06 31 4333.6825500128.73303169.5~ 00128.73303 169.5 1101010111 1100001100 1100100001 10000001110 10000110110 1011110011 1100110111 1101101100 1011101000 1101011101 1011011000 1100000000 10000100110 10000111000 1100001000 1011111101 1100000000 1011111000 20.938 51.774 1004.2 20472 16 7 8 58 51 3 $GNGGA,110631.00,4333.68255,N,00128.73303,E,1,08,0.98,169.5,M,53.8,M,,*4E
21 11 06 32 4333.6825600128.73303169.9~ 00128.73303 169.9 1101010111 1100010010 1100100101 10000001000 10000110100 1011110010 1100110110 1101101011 1011101110 1101011101 1011011011 1100000010 10000100100 10000111010 1100001010 1100000100 1100000111 1100000110 20.938 51.774 1004.2 21472 16 7 7 58 52 3 $GNGGA,110632.00,4333.68256,N,00128.73303,E,1,08,0.98,169.9,M,53.8,M,,*42
22 11 06 33 4333.6822200128.73240170.4~ 00128.73240 170.4 1101010111 1100010010 1100101001 10000001011 10000110010 1011110000 1100110100 1101101000 1011100100 1101011101 1011011000 1011111101 10000101000 10000111100 1100001001 1100000100 1011111110 1011110110 20.938 51.774 1004.2 22472 17 7 7 59 51 3 $GNGGA,110633.00,4333.68222,N,00128.73240,E,1,08,0.98,170.4,M,53.8,M,,*43
23 11 06 34 4333.6822300128.73239170.5~ 00128.73239 170.5 1101010111 1100010110 1100101000 10000001100 10000110111 1011110011 1100111001 1101101101 1011100011 1101011101 1011010111 1011111111 10000101011 10000111100 1100001011 1100000100 1100000101 1011111110 20.938 51.735 1004.2 23472 16 7 7 58 51 4 $GNGGA,110634.00,4333.68223,N,00128.73239,E,1,08,0.98,170.5,M,53.8,M,,*4A
24 11 06 35 4333.6822500128.73247170.9~ 00128.73247 170.9 1101011000 1100010011 1100101000 10000001110 10000110100 1011110101 1100110111 1101101111 1011100100 1101011100 1011010110 1011111111 10000100010 10000111000 1100010010 1100000010 1100000110 1100000010 20.938 51.743 1004.2 24472 17 7 7 59 51 3 $GNGGA,110635.00,4333.68225,N,00128.73247,E,1,08,0.98,170.9,M,53.8,M,,*48
25 11 06 36 4333.6825600128.73310171.2~ 00128.73310 171.2 1101010111 1100010010 1100100110 10000001011 10000110010 1011110011 1100110011 1101100100 1011011111 1101011101 1011010101 1011111110 10000100110 10000111001 1100001000 1100000001 1100000010 1100000011 20.938 51.743 1004.2 25472 16 8 7 58 51 3 $GNGGA,110636.00,4333.68256,N,00128.73310,E,1,08,0.98,171.2,M,53.8,M,,*46
26 11 06 37 4333.6824900128.73303171.6~ 00128.73303 171.6 1101010111 1100010001 1100100101 10000001010 10000110111 1011110000 1100110110 1101101111 1011101101 1101011101 1011010111 1100000000 10000100000 10000110111 1100001111 1100000100 1100000001 1011111010 20.938 51.583 1004.2 26472 17 7 7 59 51 3 $GNGGA,110637.00,4333.68249,N,00128.73303,E,1,08,0.98,171.6,M,53.8,M,,*4F
27 11 06 38 4333.6825800128.73319171.8~ 00128.73319 171.8 1101010111 1100010001 1100100101 10000001001 10000111001 1011110010 1100111001 1101101101 1011101101 1101011101 1011010100 1011111111 10000101111 10000111100 1100001001 1011111110 1100001010 1011111110 20.875 51.476 1004.2 27472 16 7 8 58 51 3 $GNGGA,110638.00,4333.68258,N,00128.73319,E,1,08,0.98,171.8,M,53.8,M,,*45
28 11 06 39 4333.6826100128.73322171.8~ 00128.73322 171.8 1101011000 1100010010 1100101001 10000010010 10000111011 1011111001 1101000011 1101101010 1011100101 1101011101 1011010110 1011111110 10000101000 10000111011 1100001011 1100000001 1100001100 1100000001 20.938 51.407 1004.2 28472 16 7 7 58 52 3 $GNGGA,110639.00,4333.68261,N,00128.73322,E,1,08,0.98,171.8,M,53.8,M,,*46
29 11 06 40 4333.6823900128.73279172.2~ 00128.73279 172.2 1101010111 1100010101 1100101000 10000011000 10000111001 1011110100 1100111100 1101110010 1011110010 1101011101 1011011001 1100000000 10000100101 10000111001 1100001101 1100000101 1100000110 1011111110 20.938 51.331 1004.2 29472 16 7 8 58 51 3 $GNGGA,110640.00,4333.68239,N,00128.73279,E,1,08,0.98,172.2,M,53.8,M,,*43
30 11 06 41 4333.6824600128.73294172.5~ 00128.73294 172.5 1101010111 1100010011 1100100110 10000010101 10000111000 1011110010 1100111000 1101101111 1011101000 1101011101 1011011000 1011111111 10000100000 10000111000 1100010011 1100001001 1100001010 1011111110 20.938 51.270 1004.2 30472 16 7 7 58 52 3 $GNGGA,110641.00,4333.68246,N,00128.73294,E,1,08,0.98,172.5,M,53.8,M,,*4E
31 11 06 42 4333.6820800128.73225173.1~ 00128.73225 173.1 1101010111 1100010000 1100100010 10000001110 10000110101 1011111000 1101000010 1101101000 1011100101 1101011101 1011011001 1100000001 10000100101 10000111010 1100001010 1100000111 1100001001 1011111111 20.938 51.201 1004.2 31472 17 7 7 59 51 3 $GNGGA,110642.00,4333.68208,N,00128.73225,E,1,08,0.98,173.1,M,53.8,M,,*48
32 11 06 43 4333.6818500128.73184173.3~ 00128.73184 173.3 1101011000 1100001111 1100011111 10000001001 10000110100 1011110110 1100111101 1101101100 1011100011 1101011101 1011010110 1011111101 10000100100 10000111001 1100000110 1100000001 1100000011 1011111110 20.938 51.285 1004.2 32472 16 8 7 58 51 3 $GNGGA,110643.00,4333.68185,N,00128.73184,E,1,08,0.98,173.3,M,53.8,M,,*45
33 11 06 44 4333.6815900128.73137173.3~ 00128.73137 173.3 1101011000 1100010001 1100100001 10000001110 10000110101 1011110001 1100110011 1101101110 1011100111 1101011101 1011010101 1011111100 10000100011 10000111001 1100001000 1100000101 1100000101 1011110110 20.938 51.362 1004.2 33472 17 7 7 59 51 3 $GNGGA,110644.00,4333.68159,N,00128.73137,E,1,07,1.04,173.3,M,53.8,M,,*40
34 11 06 45 4333.6813000128.73084173.5~ 00128.73084 173.5 1101010111 1100010011 1100101001 10000010101 10000111100 1011110001 1100111000 1101101101 1011100100 1101011101 1011010011 1011111100 10000100001 10000111010 1100010000 1100000101 1100000010 1011111111 20.938 51.278 1004.2 34472 16 8 7 58 51 3 $GNGGA,110645.00,4333.68130,N,00128.73084,E,1,08,0.98,173.5,M,53.8,M,,*4A
35 11 06 46 4333.6812900128.73087173.5~ 00128.73087 173.5 1101010111 1100001111 1100100011 10000001011 10000110100 1011110000 1100110101 1101101110 1011100110 1101011101 1011010111 1100000000 10000100110 10000111001 1100000101 1100000000 1011111010 1011111010 20.938 51.278 1004.2 35472 17 7 7 59 51 3 $GNGGA,110646.00,4333.68129,N,00128.73087,E,1,08,0.98,173.5,M,53.8,M,,*42
36 11 06 47 4333.6811700128.73067173.8~ 00128.73067 173.8 1101011000 1100010100 1100100110 10000010010 10000110111 1011111000 1100111111 1101110010 1011101111 1101011101 1011011100 1011111110 10000100110 10000111011 1100001100 1100000100 1100000000 1011110111 20.938 51.507 1004.2 36472 16 7 8 58 51 3 $GNGGA,110647.00,4333.68117,N,00128.73067,E,1,08,0.98,173.8,M,53.8,M,,*4D
37 11 06 48 4333.6811900128.73070173.8~ 00128.73070 173.8 1101010111 1100010101 1100101011 10000000111 10000110100 1011110110 1100111101 1101101010 1011100101 1101011101 1011011011 1100000011 10000100010 10000111000 1100001001 1100000101 1100000100 1011111110 20.938 51.575 1004.2 37472 16 7 7 58 52 3 $GNGGA,110648.00,4333.68119,N,00128.73070,E,1,08,0.98,173.8,M,53.8,M,,*4A
38 11 06 49 4333.6811200128.73054173.8~ 00128.73054 173.8 1101010111 1100010100 1100100101 10000010000 10000110011 1011101111 1100110011 1101101101 1011101101 1101011101 1011011010 1100000010 10000100101 10000111010 1100001001 1100000010 1011111101 1011110010 20.938 51.697 1004.2 38472 17 7 7 59 51 3 $GNGGA,110649.00,4333.68112,N,00128.73054,E,1,08,0.98,173.8,M,53.8,M,,*46
39 11 06 50 4333.6811400128.73053173.9~ 00128.73053 173.9 1101011000 1100010101 1100101000 10000001101 10000110111 1011110101 1100111101 1101110000 1011110111 1101011101 1011010101 1100000001 10000100011 10000111000 1100001000 1100000010 1100000001 1011111110 20.938 51.720 1004.2 39472 16 7 7 58 51 4 $GNGGA,110650.00,4333.68114,N,00128.73053,E,1,08,0.98,173.9,M,53.8,M,,*4E
40 11 06 51 4333.6811300128.73055174.0~ 00128.73055 174.0 1101010111 1100010101 1100101010 10000000110 10000110011 1011101111 1100111000 1101101010 1011101011 1101011101 1011011010 1100000000 10000101001 10000111001 1100001000 1100000101 1100000110 1011111101 20.938 51.682 1004.2 40472 17 7 7 59 51 3 $GNGGA,110651.00,4333.68113,N,00128.73055,E,1,08,0.98,174.0,M,53.8,M,,*40
41 11 06 52 4333.6810300128.73033174.0~ 00128.73033 174.0 1101010111 1100001111 1100100001 10000000100 10000110010 1011110000 1100110101 1101101111 1011110011 1101011101 1011010110 1011111111 10000101001 10000111001 1100000110 1011111011 1011111011 1011111100 20.938 51.690 1004.2 41472 16 8 7 58 51 3 $GNGGA,110652.00,4333.68103,N,00128.73033,E,1,08,0.98,174.0,M,53.8,M,,*42
42 11 06 53 4333.6810300128.73029173.9~ 00128.73029 173.9 1101010111 1100010011 1100100101 10000001000 10000110110 1011101111 1100110110 1101101100 1011101100 1101011101 1011010110 1011111111 10000100000 10000111001 1100001111 1100000011 1011111111 1011111000 20.938 51.560 1004.2 42472 17 7 7 59 51 3 $GNGGA,110653.00,4333.68103,N,00128.73029,E,1,09,0.93,173.9,M,53.8,M,,*4C
43 11 06 54 4333.6811100128.73039173.7~ 00128.73039 173.7 1101010111 1100010110 1100100111 10000001000 10000110100 1011110101 1100111010 1101101100 1011101100 1101011101 1011010111 1011111111 10000100110 10000111001 1100001110 1100000101 1011111111 1011111100 20.938 51.560 1004.2 43472 16 7 8 58 51 3 $GNGGA,110654.00,4333.68111,N,00128.73039,E,1,09,0.93,173.7,M,53.8,M,,*47
44 11 06 55 4333.6812400128.73066173.7~ 00128.73066 173.7 1101010111 1100010000 1100100010 10000001110 10000110111 1011110110 1100111110 1101101010 1011101011 1101011101 1011011001 1100000010 10000101000 10000111001 1100001010 1100000101 1100000100 1011111010 20.938 51.590 1004.2 44472 16 7 7 58 52 3 $GNGGA,110655.00,4333.68124,N,00128.73066,E,1,09,0.93,173.7,M,53.8,M,,*4A
45 11 06 56 4333.6809800128.73017173.7~ 00128.73017 173.7 1101011000 1100010010 1100100101 10000010110 10000110111 1011110010 1100110110 1101101110 1011100011 1101011101 1011010100 1011111110 10000101011 10000111010 1100001010 1100000011 1011111010 1011110101 20.938 51.629 1004.2 45472 16 7 8 58 51 3 $GNGGA,110656.00,4333.68098,N,00128.73017,E,1,09,0.93,173.7,M,53.8,M,,*49
46 11 06 57 4333.6808900128.72998173.8~ 00128.72998 173.8 1101011000 1100010001 1100100111 10000010101 10000110111 1011110110 1100111100 1101101110 1011110000 1101011101 1011011000 1011111110 10000101100 10000111011 1100001110 1100001000 1011111001 1011110001 20.938 51.652 1004.2 46472 16 7 7 58 52 3 $GNGGA,110657.00,4333.68089,N,00128.72998,E,1,09,0.93,173.8,M,53.8,M,,*48
47 11 06 58 4333.6808800128.72999173.8~ 00128.72999 173.8 1101010111 1100010010 1100100011 10000010010 10000110110 1011111001 1100111110 1101101101 1011101110 1101011101 1011010100 1011111100 10000100111 10000111010 1100001111 1100000011 1100000011 1100000101 20.938 51.682 1004.2 47472 17 7 7 59 51 3 $GNGGA,110658.00,4333.68088,N,00128.72999,E,1,09,0.93,173.8,M,53.8,M,,*47
48 11 06 59 4333.6808700128.72997173.4~ 00128.72997 173.4 1101010111 1100001110 1100100100 10000001110 10000110101 1011110100 1100111001 1101101101 1011101010 1101011101 1011011000 1100000010 10000101010 10000111011 1100001011 1100000011 1100000101 1100000001 20.938 51.682 1004.2 48472 16 8 7 58 51 3 $GNGGA,110659.00,4333.68087,N,00128.72997,E,1,09,0.93,173.4,M,53.8,M,,*4B
49 11 07 00 4333.6810300128.73027173.3~ 00128.73027 173.3 1101010111 1100010001 1100100110 10000001011 10000110101 1011110111 1100111011 1101110010 1011101101 1101011101 1011011011 1100000010 10000100111 10000111011 1100001111 1100000111 1100000101 1011111100 20.938 51.652 1004.2 49472 17 7 7 59 51 3 $GNGGA,110700.00,4333.68103,N,00128.73027,E,1,08,0.98,173.3,M,53.8,M,,*45
50 11 07 01 4333.6810500128.73026173.2~ 00128.73026 173.2 1101010111 1100010000 1100100101 10000001100 10000110110 1011110101 1100111011 1101101010 1011101010 1101011101 1011010100 1011111111 10000100010 10000111000 1100001110 1100001010 1100001001 1011111110 20.938 51.644 1004.2 50472 16 8 7 58 51 3 $GNGGA,110701.00,4333.68105,N,00128.73026,E,1,09,0.93,173.2,M,53.8,M,,*48
51 11 07 02 4333.6810000128.73011173.0~ 00128.73011 173.0 1101010111 1100010011 1100100110 10000001110 10000110110 1011110010 1100111000 1101100110 1011100111 1101011101 1011010110 1011111110 10000101010 10000111011 1100001110 1100000111 1100000010 1011111011 20.938 51.652 1004.2 51472 17 7 7 59 51 3 $GNGGA,110702.00,4333.68100,N,00128.73011,E,1,09,0.93,173.0,M,53.8,M,,*48
52 11 07 03 4333.6810500128.73017172.9~ 00128.73017 172.9 1101011000 1100010101 1100101001 10000010000 10000111001 1011110101 1100111011 1101101011 1011110001 1101011101 1011011000 1100000000 10000101000 10000111011 1100001110 1100000110 1100000101 1100000010 20.938 51.682 1004.2 52472 16 7 8 58 51 3 $GNGGA,110703.00,4333.68105,N,00128.73017,E,1,09,0.93,172.9,M,53.8,M,,*42
53 11 07 04 4333.6811100128.73028173.1~ 00128.73028 173.1 1101011000 1100010010 1100100111 10000001101 10000110111 1011110011 1100111100 1101101101 1011110000 1101011101 1011010111 1011111110 10000101001 10000111011 1100001001 1100000010 1100000100 1011111100 20.938 51.652 1004.2 53472 16 7 7 58 52 3 $GNGGA,110704.00,4333.68111,N,00128.73028,E,1,09,0.93,173.1,M,53.8,M,,*45
54 11 07 05 4333.6812100128.73052173.0~ 00128.73052 173.0 1101010111 1100010111 1100101000 10000010010 10000111001 1011101011 1100110101 1101101110 1011101001 1101011101 1011011000 1011111110 10000101001 10000111100 1100001010 1100000001 1100000101 1011111111 20.938 51.613 1004.2 54472 17 7 7 59 51 3 $GNGGA,110705.00,4333.68121,N,00128.73052,E,1,07,1.23,173.0,M,53.8,M,,*4F
55 11 07 06 4333.6814500128.73104173.0~ 00128.73104 173.0 1101010111 1100010101 1100101000 10000001110 10000110101 1011110111 1100111100 1101101111 1011101001 1101011101 1011010010 1011111101 10000101101 10000111010 1100001011 1100000101 1100000001 1011111000 20.938 51.568 1004.2 55472 16 7 7 58 51 4 $GNGGA,110706.00,4333.68145,N,00128.73104,E,1,07,1.23,173.0,M,53.8,M,,*4C
56 11 07 07 4333.6815200128.73111172.9~ 00128.73111 172.9 1101010111 1100010001 1100100011 10000001010 10000110100 1011110101 1100111001 1101101011 1011101010 1101011101 1011011010 1100000000 10000101101 10000111011 1100001001 1011111011 1100000110 1011111100 20.938 51.522 1004.2 56472 17 7 7 59 51 3 $GNGGA,110707.00,4333.68152,N,00128.73111,E,1,08,0.97,172.9,M,53.8,M,,*46
57 11 07 08 4333.6811700128.73043173.3~ 00128.73043 173.3 1101011000 1100010010 1100100110 10000001100 10000110101 1011110000 1100110111 1101101110 1011101000 1101011101 1011011000 1011111111 10000100101 10000111001 1100001010 1100000110 1011111111 1011111100 20.938 51.476 1004.2 57472 16 8 7 58 51 3 $GNGGA,110708.00,4333.68117,N,00128.73043,E,1,08,0.97,173.3,M,53.8,M,,*45
58 11 07 09 4333.6812200128.73057173.5~ 00128.73057 173.5 1101010111 1100010101 1100101000 10000001111 10000110101 1011111011 1100111000 1101110000 1011110000 1101011101 1011010111 1011111110 10000100011 10000111011 1100000111 1100000000 1011111010 1011111010 20.938 51.514 1004.2 58472 17 7 7 59 51 3 $GNGGA,110709.00,4333.68122,N,00128.73057,E,1,07,1.23,173.5,M,53.8,M,,*40
59 11 07 10 4333.6812400128.73056173.6~ 00128.73056 173.6 1101010111 1100010000 1100100101 10000010010 10000110111 1011111010 1100111100 1101101011 1011100100 1101011101 1011010101 1011111111 10000101000 10000111011 1100010100 1100001000 1011111101 1011111011 20.938 51.583 1004.2 59472 16 7 8 58 51 3 $GNGGA,110710.00,4333.68124,N,00128.73056,E,1,08,0.97,173.6,M,53.8,M,,*4D
60 11 07 11 4333.6811800128.73055173.8~ 00128.73055 173.8 1101011000 1100010000 1100100101 10000010001 10000111000 1011110011 1100110110 1101110010 1011101100 1101011101 1011010111 1011111111 10000100110 10000111000 1100001100 1100001000 1100001011 1100001000 20.938 51.636 1004.2 60472 16 7 7 58 52 3 $GNGGA,110711.00,4333.68118,N,00128.73055,E,1,07,1.23,173.8,M,53.8,M,,*4F
61 11 07 12 4333.6814700128.73116173.8~ 00128.73116 173.8 1101010111 1100010010 1100100110 10000010001 10000110111 1011110011 1100111011 1101110011 1011101010 1101011101 1011011100 1100000011 10000100110 10000111000 1100001100 1100000101 1100000010 1011111010 20.938 51.652 1004.2 61472 16 7 8 58 51 3 $GNGGA,110712.00,4333.68147,N,00128.73116,E,1,07,1.23,173.8,M,53.8,M,,*40
62 11 07 13 4333.6815800128.73148174.1~ 00128.73148 174.1 1101010111 1100010011 1100101000 10000001111 10000110101 1011110000 1100111010 1101110000 1011101011 1101011101 1011010111 1011111110 10000101000 10000111100 1100001011 1100000001 1100000011 1011110111 20.938 51.644 1004.2 62472 16 7 7 58 52 3 $GNGGA,110713.00,4333.68158,N,00128.73148,E,1,07,1.23,174.1,M,53.8,M,,*4A
63 11 07 14 4333.6815900128.73149174.3~ 00128.73149 174.3 1101011000 1100010011 1100100111 10000000011 10000110100 1011111001 1100111100 1101101101 1011101010 1101011101 1011010111 1100000001 10000101001 10000111010 1100001001 1011111110 1100001000 1011111101 20.938 51.674 1004.2 63472 17 7 7 59 51 3 $GNGGA,110714.00,4333.68159,N,00128.73149,E,1,07,1.23,174.3,M,53.8,M,,*4F
64 11 07 15 4333.6817600128.73188174.3~ 00128.73188 174.3 1101010111 1100010011 1100100101 10000001100 10000111000 1011110010 1100110111 1101101100 1011101010 1101011101 1011010100 1011111101 10000101010 10000111001 1100001100 1011111111 1100001000 1011110111 20.938 51.644 1004.2 64472 16 8 7 58 51 3 $GNGGA,110715.00,4333.68176,N,00128.73188,E,1,07,1.23,174.3,M,53.8,M,,*4E
65 11 07 16 4333.6820500128.73249174.4~ 00128.73249 174.4 1101010111 1100010001 1100100110 10000010000 10000110101 1011110101 1100111011 1101101101 1011101001 1101011101 1011010110 1100000010 10000101010 10000111010 1100001101 1100000011 1100000100 1011111110 20.938 51.667 1004.2 65472 17 7 7 59 51 3 $GNGGA,110716.00,4333.68205,N,00128.73249,E,1,07,1.23,174.4,M,53.8,M,,*43
66 11 07 17 4333.6821900128.73280174.5~ 00128.73280 174.5 1101011000 1100010010 1100100101 10000010100 10000110110 1011110111 1100111100 1101110000 1011101110 1101011101 1011010101 1011111100 10000101000 10000111010 1100000101 1100000011 1100000010 1011111101 20.938 51.758 1004.2 66472 16 8 7 58 51 3 $GNGGA,110717.00,4333.68219,N,00128.73280,E,1,07,1.23,174.5,M,53.8,M,,*4B
67 11 07 18 4333.6824400128.73339174.5~ 00128.73339 174.5 1101010111 1100010100 1100101001 10000010001 10000110111 1011110101 1100111110 1101111011 1011110100 1101011101 1011011010 1011111111 10000100100 10000111000 1100001100 1100000101 1100000111 1011111101 20.938 51.796 1004.2 67472 17 7 7 59 51 3 $GNGGA,110718.00,4333.68244,N,00128.73339,E,1,07,1.23,174.5,M,53.8,M,,*4F
68 11 07 19 4333.6827200128.73388174.4~ 00128.73388 174.4 1101010111 1100010011 1100100110 10000010001 10000110101 1011110001 1100111100 1101101001 1011011111 1101011101 1011011000 1011111111 10000100110 10000111010 1100001101 1100001000 1100000001 1011111010 20.938 51.774 1004.2 68472 16 7 8 58 51 3 $GNGGA,110719.00,4333.68272,N,00128.73388,E,1,07,1.23,174.4,M,53.8,M,,*40
69 11 07 20 4333.6826500128.73377174.5~ 00128.73377 174.5 1101010111 1100001111 1100100100 10000001110 10000110010 1011110010 1100111100 1101101100 1011100101 1101011101 1011010101 1011111111 10000100010 10000110111 1100001010 1100000010 1100000111 1011111010 20.938 51.735 1004.2 69472 16 7 7 58 52 3 $GNGGA,110720.00,4333.68265,N,00128.73377,E,1,07,1.23,174.5,M,53.8,M,,*4D
70 11 07 21 4333.6829900128.73427174.2~ 00128.73427 174.2 1101010111 1100010010 1100100011 10000010101 10000110011 1011110101 1100111000 1101101100 1011101001 1101011101 1011010111 1100000000 10000101000 10000111010 1100001111 1100000111 1011111110 1011110100 20.938 51.720 1004.2 70472 17 7 7 59 51 3 $GNGGA,110721.00,4333.68299,N,00128.73427,E,1,07,1.23,174.2,M,53.8,M,,*4A
71 11 07 22 4333.6830900128.73433173.8~ 00128.73433 173.8 1101010111 1100010101 1100100110 10000001100 10000110101 1011110011 1100111010 1101101011 1011101011 1101011101 1011011010 1100000001 10000100001 10000111000 1100010010 1100001000 1011111101 1011110101 20.938 51.674 1004.2 71472 16 7 7 58 51 4 $GNGGA,110722.00,4333.68309,N,00128.73433,E,1,07,1.23,173.8,M,53.8,M,,*49
72 11 07 23 4333.6832600128.73459173.5~ 00128.73459 173.5 1101010111 1100010000 1100100011 10000010011 10000111000 1011110100 1100111101 1101101110 1011100011 1101011101 1011011000 1100000000 10000100011 10000111001 1100000111 1100000000 1100000000 1011110010 20.938 51.629 1004.2 72472 17 7 7 59 51 3 $GNGGA,110723.00,4333.68326,N,00128.73459,E,1,07,1.23,173.5,M,53.8,M,,*44
73 11 07 24 4333.6832500128.73446173.5~ 00128.73446 173.5 1101010111 1100001111 1100100001 10000001111 10000110111 1011110001 1100110110 1101101000 1011100000 1101011101 1011010101 1011111110 10000011111 10000111010 1100001111 1100000101 1011111110 1011111100 20.938 51.568 1004.2 73472 16 8 7 58 51 3 $GNGGA,110724.00,4333.68325,N,00128.73446,E,1,07,1.23,173.5,M,53.8,M,,*4E
74 11 07 25 4333.6837700128.73540173.3~ 00128.73540 173.3 1101010111 1100010010 1100100100 10000010010 10000110101 1011110100 1100111011 1101101001 1011011111 1101011101 1011011000 1100000000 10000100101 10000111010 1100001100 1100000110 1100001000 1100000100 20.938 51.590 1004.2 74472 17 7 7 59 51 3 $GNGGA,110725.00,4333.68377,N,00128.73540,E,1,07,1.23,173.3,M,53.8,M,,*49
75 11 07 26 4333.6841500128.73606173.0~ 00128.73606 173.0 1101011000 1100010001 1100100110 10000010000 10000110110 1011110111 1100111111 1101110000 1011100011 1101011101 1011010110 1100000000 10000100001 10000111010 1100001011 1100000110 1100000101 1100000001 20.938 51.629 1004.2 75472 16 7 8 58 51 3 $GNGGA,110726.00,4333.68415,N,00128.73606,E,1,07,1.23,173.0,M,53.8,M,,*4B
76 11 07 27 4333.6840700128.73587173.1~ 00128.73587 173.1 1101010111 1100010010 1100100110 10000010001 10000111000 1011110111 1100110110 1101101110 1011100111 1101011101 1011010101 1011111110 10000100010 10000111000 1100000110 1011111110 1100001000 1011111010 20.938 51.644 1004.2 76472 16 7 7 58 52 3 $GNGGA,110727.00,4333.68407,N,00128.73587,E,1,08,1.19,173.1,M,53.8,M,,*44
77 11 07 28 4333.6843900128.73651173.0~ 00128.73651 173.0 1101010111 1100010101 1100100111 10000010001 10000110101 1011110110 1100111001 1101110100 1011110001 1101011101 1011011001 1100000001 10000100101 10000111001 1100001100 1100000001 1100000110 1011111111 20.938 51.606 1004.2 77472 16 7 8 58 51 3 $GNGGA,110728.00,4333.68439,N,00128.73651,E,1,08,1.19,173.0,M,53.8,M,,*4F
78 11 07 29 4333.6845700128.73684173.1~ 00128.73684 173.1 1101010111 1100010100 1100100110 10000001110 10000110010 1011110010 1100111001 1101110010 1011110001 1101011101 1011010101 1100000001 10000101100 10000111100 1100001001 1100000011 1011111110 1011110111 20.938 51.613 1004.2 78472 16 7 7 58 52 3 $GNGGA,110729.00,4333.68457,N,00128.73684,E,1,08,1.18,173.1,M,53.8,M,,*4E
79 11 07 30 4333.6846700128.73698172.9~ 00128.73698 172.9 1101011000 1100010010 1100100110 10000010001 10000111001 1011110101 1100111001 1101101100 1011101101 1101011101 1011010101 1011111111 10000100110 10000111011 1100001010 1100000100 1100000011 1100000000 20.938 51.613 1004.2 79472 17 7 7 59 51 3 $GNGGA,110730.00,4333.68467,N,00128.73698,E,1,08,1.18,172.9,M,53.8,M,,*41
80 11 07 31 4333.6848600128.73724172.7~ 00128.73724 172.7 1101011000 1100010001 1100101010 10000001100 10000110100 1011110100 1100111011 1101101101 1011101010 1101011101 1011010111 1011111110 10000101001 10000111001 1100001001 1100000011 1100001001 1100000101 20.938 51.606 1004.2 80472 16 8 7 58 51 3 $GNGGA,110731.00,4333.68486,N,00128.73724,E,1,08,1.18,172.7,M,53.8,M,,*47
81 11 07 32 4333.6851000128.73759172.5~ 00128.73759 172.5 1101011000 1100010101 1100100111 10000010100 10000111000 1011110110 1100111101 1101101011 1011101110 1101011101 1011010111 1100000000 10000101000 10000111010 1100001101 1100000011 1011111111 1011111100 20.938 51.606 1004.2 81472 17 7 7 59 51 3 $GNGGA,110732.00,4333.68510,N,00128.73759,E,1,08,1.18,172.5,M,53.8,M,,*42
82 11 07 33 4333.6852300128.73782172.4~ 00128.73782 172.4 1101011000 1100010010 1100100110 10000010010 10000111000 1011110100 1100111000 1101110001 1011101110 1101011101 1011010101 1100000000 10000101001 10000111010 1100001010 1100000011 1100000000 1011111001 20.938 51.560 1004.2 82472 16 8 7 58 51 3 $GNGGA,110733.00,4333.68523,N,00128.73782,E,1,08,1.18,172.4,M,53.8,M,,*44
83 11 07 34 4333.6849700128.73738172.9~ 00128.73738 172.9 1101011000 1100010000 1100100111 10000010001 10000110111 1011110001 1100111000 1101101011 1011100101 1101011101 1011010101 1011111110 10000100100 10000111010 1100000111 1100000001 1011111011 1011110100 20.938 51.560 1004.2 83472 17 7 7 59 51 3 $GNGGA,110734.00,4333.68497,N,00128.73738,E,1,08,1.18,172.9,M,53.8,M,,*41
84 11 07 35 4333.6851500128.73772172.7~ 00128.73772 172.7 1101011000 1100010010 1100100111 10000010010 10000110110 1011110011 1100111001 1101100011 1011100011 1101011101 1011011000 1100000001 10000011100 10000111001 1100001001 1011111110 1011111110 1011111010 20.938 51.529 1004.2 84472 16 7 8 58 51 3 $GNGGA,110735.00,4333.68515,N,00128.73772,E,1,08,1.18,172.7,M,53.8,M,,*4B
85 11 07 36 4333.6852700128.73790172.6~ 00128.73790 172.6 1101010111 1100010011 1100100111 10000010001 10000110101 1011110011 1100111000 1101101110 1011101111 1101011101 1011011011 1100000011 10000100000 10000111010 1100001010 1011111110 1011111111 1011111011 20.938 51.522 1004.2 85472 16 7 7 58 52 3 $GNGGA,110736.00,4333.68527,N,00128.73790,E,1,07,1.38,172.6,M,53.8,M,,*49
86 11 07 37 4333.6854700128.73819172.3~ 00128.73819 172.3 1101010111 1100001110 1100100000 10000001110 10000110111 1011110101 1100111010 1101110001 1011101101 1101011101 1011011000 1100000010 10000100100 10000111010 1100000111 1100000000 1100000101 1011111011 20.938 51.575 1004.2 86472 17 7 7 59 51 3 $GNGGA,110737.00,4333.68547,N,00128.73819,E,1,07,1.38,172.3,M,53.8,M,,*45
87 11 07 38 4333.6855900128.73842172.2~ 00128.73842 172.2 1101010111 1100010100 1100100111 10000001111 10000111001 1011110010 1100110111 1101100111 1011101000 1101011101 1011010111 1100000000 10000100100 10000111000 1100001101 1100000101 1100000011 1011111101 20.938 51.568 1004.2 87472 16 7 7 58 51 4 $GNGGA,110738.00,4333.68559,N,00128.73842,E,1,08,1.18,172.2,M,53.8,M,,*47
88 11 07 39 4333.6856300128.73851172.3~ 00128.73851 172.3 1101010111 1100010001 1100100111 10000010100 10000110101 1011110010 1100110111 1101101110 1011101010 1101011101 1011011000 1100000000 10000100100 10000110111 1100000110 1100000010 1100000000 1100000000 20.938 51.537 1004.2 88472 17 7 7 59 51 3 $GNGGA,110739.00,4333.68563,N,00128.73851,E,1,08,1.18,172.3,M,53.8,M,,*4C
89 11 07 40 4333.6857800128.73884172.3~ 00128.73884 172.3 1101011000 1100010100 1100100111 10000010011 10000110110 1011110011 1100110110 1101100101 1011101001 1101011101 1011010101 1100000001 10000100010 10000111001 1100001000 1100000001 1100000000 1011111011 20.938 51.507 1004.2 89472 16 8 7 58 51 3 $GNGGA,110740.00,4333.68578,N,00128.73884,E,1,08,1.18,172.3,M,53.8,M,,*40
90 11 07 41 4333.6857400128.73876172.6~ 00128.73876 172.6 1101010111 1100001111 1100100110 10000000010 10000101111 1011111100 1101000001 1101101111 1011101011 1101011101 1011010111 1100000001 10000101001 10000111011 1100001110 1100000110 1100001000 1100000100 20.938 51.484 1004.2 90472 17 7 7 59 51 3 $GNGGA,110741.00,4333.68574,N,00128.73876,E,1,08,1.18,172.6,M,53.8,M,,*45
91 11 07 42 4333.6860100128.73926172.5~ 00128.73926 172.5 1101010111 1100010110 1100101010 10000001111 10000111000 1011110001 1100111001 1101101100 1011100111 1101011101 1011010111 1011111011 10000100110 10000111001 1100001000 1100000100 1011111111 1011111010 20.938 51.499 1004.2 91472 16 7 8 58 51 3 $GNGGA,110742.00,4333.68601,N,00128.73926,E,1,08,1.18,172.5,M,53.8,M,,*40
92 11 07 43 4333.6855600128.73844172.7~ 00128.73844 172.7 1101010111 1100010001 1100101001 10000010000 10000110110 1011110001 1100111010 1101101010 1011101010 1101011101 1011010101 1011111110 10000100011 10000111001 1100001011 1100000110 1100001001 1011111100 20.938 51.491 1004.2 92472 16 7 7 58 52 3 $GNGGA,110743.00,4333.68556,N,00128.73844,E,1,08,1.18,172.7,M,53.8,M,,*47
93 11 07 44 4333.6856300128.73856172.7~ 00128.73856 172.7 1101011000 1100001111 1100100011 10000001011 10000110110 1011110011 1100111011 1101100100 1011100110 1101011101 1011011001 1100000000 10000101001 10000111100 1100001010 1100000011 1100000111 1011111000 20.938 51.476 1004.2 93472 16 7 8 58 51 3 $GNGGA,110744.00,4333.68563,N,00128.73856,E,1,08,1.18,172.7,M,53.8,M,,*45
94 11 07 45 4333.6859500128.73923172.8~ 00128.73923 172.8 1101010111 1100010100 1100100111 10000001101 10000110110 1011110010 1100110100 1101101011 1011101011 1101011101 1011010001 1011111100 10000100100 10000111011 1100000111 1100000010 1100000100 1011110100 20.938 51.453 1004.2 94472 16 7 7 58 52 3 $GNGGA,110745.00,4333.68595,N,00128.73923,E,1,07,1.37,172.8,M,53.8,M,,*43
95 11 07 46 4333.6860500128.73943172.8~ 00128.73943 172.8 1101011000 1100010100 1100101000 10000001000 10000110101 1011110101 1100111101 1101101011 1011100111 1101011100 1011010100 1011111111 10000100011 10000111000 1100001100 1100000100 1100000001 1011111011 20.938 51.430 1004.2 95472 17 7 7 59 51 3 $GNGGA,110746.00,4333.68605,N,00128.73943,E,1,08,1.18,172.8,M,53.8,M,,*4E
96 11 07 47 4333.6863800128.74012173.1~ 00128.74012 173.1 1101011000 1100010001 1100100101 10000001111 10000110101 1011110110 1100111100 1101110011 1011100100 1101011101 1011010111 1011111110 10000100101 10000111011 1100001111 1100000111 1100000001 1011111011 20.938 51.423 1004.2 96472 16 8 7 58 51 3 $GNGGA,110747.00,4333.68638,N,00128.74012,E,1,06,1.41,173.1,M,53.8,M,,*41
97 11 07 48 4333.6865200128.74043173.3~ 00128.74043 173.3 1101010111 1100010001 1100101000 10000001110 10000111000 1011110100 1100111010 1101101001 1011100000 1101011101 1011010100 1011111101 10000101000 10000111100 1100000111 1100000010 1100000110 1011111101 20.938 51.430 1004.2 97472 17 7 7 59 51 3 $GNGGA,110748.00,4333.68652,N,00128.74043,E,1,06,1.41,173.3,M,53.8,M,,*44
98 11 07 49 4333.6863200128.73991173.1~ 00128.73991 173.1 1101010111 1100010110 1100101010 10000000110 10000110110 1011110001 1100111010 1101110000 1011110001 1101011101 1011010110 1011111110 10000100101 10000111011 1100001000 1100000000 1011111110 1011110111 20.938 51.476 1004.2 98472 16 8 7 58 51 3 $GNGGA,110749.00,4333.68632,N,00128.73991,E,1,07,1.37,173.1,M,53.8,M,,*40
99 11 07 50 4333.6866700128.74057173.2~ 00128.74057 173.2 1101010111 1100010110 1100101000 10000000101 10000101111 1011110011 1100110101 1101110010 1011110000 1101011101 1011011010 1100000001 10000101011 10000111010 1100001011 1100000111 1100000001 1011111010 20.938 51.484 1004.2 99472 17 7 7 59 51 3 $GNGGA,110750.00,4333.68667,N,00128.74057,E,1,07,1.37,173.2,M,53.8,M,,*4F
100 11 07 51 4333.6869400128.74115173.6~ 00128.74115 173.6 1101010111 1100010000 1100100010 10000000100 10000110010 1011110110 1100111000 1101110110 1011101011 1101011101 1011010111 1011111111 10000101000 10000111011 1100001101 1100000100 1011111111 1011111000 20.938 51.529 1004.2 100472 16 7 8 58 51 3 $GNGGA,110751.00,4333.68694,N,00128.74115,E,1,08,1.05,173.6,M,53.8,M,,*4F
101 11 07 52 4333.6870000128.74130174.2~ 00128.74130 174.2 1101011000 1100010001 1100100101 10000000110 10000110110 1011110101 1100111001 1101101101 1011101100 1101011101 1011010111 1100000000 10000100010 10000111010 1100001100 1100000000 1011111101 1011110001 20.938 51.644 1004.2 101472 16 7 7 58 52 3 $GNGGA,110752.00,4333.68700,N,00128.74130,E,1,07,1.11,174.2,M,53.8,M,,*4E
102 11 07 53 4333.6871900128.74171174.6~ 00128.74171 174.6 1101010111 1100010011 1100100101 10000001100 10000111001 1011110111 1100111010 1101110010 1011101111 1101011101 1011011000 1011111101 10000100110 10000111011 1100000101 1100000011 1011111110 1011111010 20.938 51.934 1004.2 102472 17 7 7 59 51 3 $GNGGA,110753.00,4333.68719,N,00128.74171,E,1,07,1.11,174.6,M,53.8,M,,*46
103 11 07 54 4333.6872200128.74178175.1~ 00128.74178 175.1 1101010111 1100010001 1100100101 10000010110 10000111001 1011110010 1100111010 1101101011 1011101011 1101011101 1011010110 1100000010 10000101001 10000111010 1100000110 1100000001 1100000011 1100000000 20.938 52.247 1004.2 103472 16 7 7 58 51 4 $GNGGA,110754.00,4333.68722,N,00128.74178,E,1,07,1.11,175.1,M,53.8,M,,*46
104 11 07 55 4333.6868800128.74119175.7~ 00128.74119 175.7 1101010111 1100010110 1100101001 10000001111 10000110101 1011110100 1100111010 1101101011 1011101101 1101011101 1011010101 1011111101 10000100011 10000111001 1100010001 1100000011 1100001001 1100000000 20.938 52.750 1004.2 104472 17 7 7 59 51 3 $GNGGA,110755.00,4333.68688,N,00128.74119,E,1,07,1.11,175.7,M,53.8,M,,*47
105 11 07 56 4333.6871400128.74177176.1~ 00128.74177 176.1 1101010111 1100010011 1100100111 10000001111 10000110101 1011110101 1100111001 1101101100 1011101010 1101011101 1011010111 1011111110 10000100111 10000111010 1100001011 1100000011 1100000101 1011110111 20.938 52.819 1004.2 105472 16 8 7 58 51 3 $GNGGA,110756.00,4333.68714,N,00128.74177,E,1,07,1.11,176.1,M,53.8,M,,*4D
106 11 07 57 4333.6871600128.74192176.7~ 00128.74192 176.7 1101011000 1100010011 1100100111 10000010101 10000110110 1011110101 1100111001 1101101111 1011101000 1101011101 1011011011 1100000001 10000101010 10000111011 1100001010 1100000011 1011111011 1011110100 20.938 52.590 1004.2 106472 17 7 7 59 51 3 $GNGGA,110757.00,4333.68716,N,00128.74192,E,1,07,1.11,176.7,M,53.8,M,,*43
107 11 07 58 4333.6870700128.74171177.1~ 00128.74171 177.1 1101010111 1100010001 1100100100 10000010000 10000110110 1011110011 1100111001 1101110010 1011110000 1101011101 1011010101 1100000000 10000100100 10000111000 1100001111 1100000010 1100000101 1011111101 20.938 52.369 1004.2 107472 16 7 8 58 51 3 $GNGGA,110758.00,4333.68707,N,00128.74171,E,1,07,1.11,177.1,M,53.8,M,,*46
108 11 07 59 4333.6871500128.74196177.7~ 00128.74196 177.7 1101011000 1100010000 1100100010 10000001110 10000110101 1011110011 1100110110 1101101000 1011101001 1101011101 1011010110 1100000001 10000100011 10000111010 1100010000 1100000110 1100000011 1011111000 20.938 52.300 1004.2 108472 16 7 7 58 52 3 $GNGGA,110759.00,4333.68715,N,00128.74196,E,1,07,1.11,177.7,M,53.8,M,,*4B
109 11 08 00 4333.6869700128.74177178.3~ 00128.74177 178.3 1101010111 1100010100 1100100100 10000001111 10000110101 1011110001 1100111001 1101101011 1011110010 1101011101 1011010101 1011111111 10000101001 10000111011 1100001010 1100001000 1011111100 1011110100 20.938 52.285 1004.2 109472 16 7 8 58 51 3 $GNGGA,110800.00,4333.68697,N,00128.74177,E,1,07,1.11,178.3,M,53.8,M,,*47
110 11 08 01 4333.6870800128.74214179.0~ 00128.74214 179.0 1101011000 1100001110 1100100011 10000001011 10000110110 1011110010 1100111000 1101101110 1011101111 1101011101 1011011000 1011111111 10000101000 10000111001 1100001110 1100000100 1100000010 1011111011 20.938 52.247 1004.2 110472 16 7 7 58 52 3 $GNGGA,110801.00,4333.68708,N,00128.74214,E,1,08,1.05,179.0,M,53.8,M,,*4F
111 11 08 02 4333.6872300128.74258179.7~ 00128.74258 179.7 1101010111 1100010100 1100101000 10000010011 10000111010 1011110011 1100110111 1101110100 1011110101 1101011101 1011010101 1011111110 10000100101 10000111010 1100001000 1011111111 1100000010 1011111000 20.938 52.247 1004.2 111472 17 7 7 59 51 3 $GNGGA,110802.00,4333.68723,N,00128.74258,E,1,08,1.05,179.7,M,53.8,M,,*4A
112 11 08 03 4333.6871100128.74254180.3~ 00128.74254 180.3 1101011000 1100010101 1100101000 10000010000 10000110101 1011110100 1100111011 1101101011 1011110000 1101011101 1011010101 1011111101 10000101001 10000111001 1100001011 1100000110 1011111111 1011110111 20.938 52.170 1004.2 112472 16 8 7 58 51 3 $GNGGA,110803.00,4333.68711,N,00128.74254,E,1,08,1.05,180.3,M,53.8,M,,*44
113 11 08 04 4333.6874800128.74328180.5~ 00128.74328 180.5 1101010111 1100010100 1100100110 10000010100 10000110111 1011110101 1100111101 1101110001 1011110111 1101011101 1011010110 1011111111 10000100100 10000111001 1100001011 1100000010 1100000001 1011110101 20.938 52.071 1004.2 113472 17 7 7 59 51 3 $GNGGA,110804.00,4333.68748,N,00128.74328,E,1,08,1.05,180.5,M,53.8,M,,*43
114 11 08 05 4333.6874200128.74323180.7~ 00128.74323 180.7 1101011000 1100010000 1100100100 10000010100 10000110110 1011110100 1100111100 1101110101 1011110000 1101011101 1011010110 1011111110 10000101000 10000111010 1100001111 1100000100 1100000010 1011110110 20.938 51.995 1004.2 114472 16 8 7 58 51 3 $GNGGA,110805.00,4333.68742,N,00128.74323,E,1,08,1.05,180.7,M,53.8,M,,*41
115 11 08 06 4333.6873700128.74311180.6~ 00128.74311 180.6 1101010111 1100010001 1100100100 10000010011 10000110110 1011110111 1100111101 1101100111 1011101010 1101011101 1011011001 1100000001 10000100101 10000111000 1100001001 1100000101 1100000010 1011111010 20.938 51.911 1004.2 115472 17 7 7 59 51 3 $GNGGA,110806.00,4333.68737,N,00128.74311,E,1,08,1.05,180.6,M,53.8,M,,*40
116 11 08 07 4333.6872500128.74290180.6~ 00128.74290 180.6 1101010111 1100001111 1100100100 10000001000 10000110011 1011110100 1100110110 1101101001 1011101011 1101011101 1011010110 1100000000 10000100011 10000111000 1100010001 1100001000 1100000111 1100000000 20.938 51.842 1004.2 116472 16 7 8 58 51 3 $GNGGA,110807.00,4333.68725,N,00128.74290,E,1,08,1.05,180.6,M,53.8,M,,*4A
117 11 08 08 4333.6877500128.74386180.7~ 00128.74386 180.7 1101011000 1100010000 1100100100 10000001101 10000110110 1011110111 1100111100 1101110000 1011101001 1101011101 1011010111 1011111111 10000101000 10000111010 1100001101 1100000001 1100000000 1011111101 20.938 51.789 1004.2 117472 16 7 7 58 52 3 $GNGGA,110808.00,4333.68775,N,00128.74386,E,1,07,1.08,180.7,M,53.8,M,,*45
118 11 08 09 4333.6878900128.74399180.5~ 00128.74399 180.5 1101010111 1100010000 1100100011 10000001100 10000110110 1011101111 1100101111 1101101101 1011101010 1101011101 1011011001 1011111101 10000100011 10000111001 1100000111 1100000000 1100000001 1011110101 20.938 52.010 1004.2 118472 17 7 7 59 51 3 $GNGGA,110809.00,4333.68789,N,00128.74399,E,1,07,1.08,180.5,M,53.8,M,,*4B
119 11 08 10 4333.6880100128.74414180.4~ 00128.74414 180.4 1101010111 1100010111 1100101010 10000001010 10000110101 1011110100 1100111110 1101101011 1011101010 1101011101 1011011001 1011111111 10000100011 10000111001 1100001011 1100000010 1100000001 1011111010 20.938 52.155 1004.2 119472 16 7 7 58 51 4 $GNGGA,110810.00,4333.68801,N,00128.74414,E,1,07,1.08,180.4,M,53.8,M,,*4F
120 11 08 11 4333.6882400128.74448180.1~ 00128.74448 180.1 1101010111 1100010010 1100100110 10000010000 10000110111 1011110111 1100110101 1101100111 1011100100 1101011101 1011010110 1011111101 10000100111 10000111100 1100001001 1100000011 1100000111 1011111010 20.938 52.224 1004.1 120472 17 7 7 59 51 3 $GNGGA,110811.00,4333.68824,N,00128.74448,E,1,07,1.08,180.1,M,53.8,M,,*45
121 11 08 12 4333.6881900128.74435180.0~ 00128.74435 180.0 1101010111 1100001111 1100100011 10000001110 10000110111 1011110111 1100111010 1101101110 1011100100 1101011101 1011010110 1100000000 10000101001 10000111011 1100001001 1011111111 1100000011 1011111100 20.938 52.178 1004.1 121472 16 8 7 58 51 3 $GNGGA,110812.00,4333.68819,N,00128.74435,E,1,07,1.08,180.0,M,53.8,M,,*43
122 11 08 13 4333.6882000128.74431179.8~ 00128.74431 179.8 1101011000 1100010010 1100101000 10000001001 10000110100 1011110110 1100111101 1101101101 1011011101 1101011101 1011010100 1011111111 10000100111 10000111010 1100001111 1100000111 1100000010 1011110111 20.938 52.186 1004.1 122472 17 7 7 59 51 3 $GNGGA,110813.00,4333.68820,N,00128.74431,E,1,07,1.08,179.8,M,53.8,M,,*42
123 11 08 14 4333.6883300128.74441179.8~ 00128.74441 179.8 1101010111 1100010101 1100101000 10000001000 10000110101 1011110011 1100111011 1101110010 1011011110 1101011101 1011010011 1011111010 10000100110 10000111000 1100001000 1011111111 1011111100 1011110101 20.938 52.163 1004.2 123472 16 7 8 58 51 3 $GNGGA,110814.00,4333.68833,N,00128.74441,E,1,08,0.96,179.8,M,53.8,M,,*49
124 11 08 15 4333.6884000128.74466180.1~ 00128.74466 180.1 1101010111 1100010110 1100100110 10000001000 10000110101 1011110011 1100111000 1101110000 1011101000 1101011101 1011010110 1011111110 10000101110 10000111001 1100001000 1100000010 1100000011 1011111110 20.938 52.132 1004.1 124472 16 7 7 58 52 3 $GNGGA,110815.00,4333.68840,N,00128.74466,E,1,09,0.93,180.1,M,53.8,M,,*42
125 11 08 16 4333.6886400128.74527180.8~ 00128.74527 180.8 1101010111 1100010010 1100100101 10000000100 10000110100 1011110011 1100110110 1101110101 1011100110 1101011101 1011010100 1011111100 10000100110 10000111010 1100001010 1100000001 1100000000 1011111000 21.000 52.109 1004.1 125472 16 7 8 58 51 3 $GNGGA,110816.00,4333.68864,N,00128.74527,E,1,09,0.93,180.8,M,53.8,M,,*4A
126 11 08 17 4333.6885000128.74520181.3~ 00128.74520 181.3 1101011000 1100010001 1100100101 10000001100 10000110110 1011101110 1100110111 1101110000 1011101111 1101011101 1011010111 1011111101 10000011101 10000111010 1100001100 1100000010 1100000001 1011111011 20.938 52.109 1004.1 126472 16 7 7 58 52 3 $GNGGA,110817.00,4333.68850,N,00128.74520,E,1,09,0.93,181.3,M,53.8,M,,*41
127 11 08 18 4333.6883700128.74518181.6~ 00128.74518 181.6 1101010111 1100001111 1100100110 10000001100 10000111000 1011110100 1100111010 1101101111 1011110011 1101011101 1011010101 1011111110 10000101100 10000111100 1100001100 1100000011 1100000100 1011110110 20.938 52.094 1004.1 127472 17 7 7 59 51 3 $GNGGA,110818.00,4333.68837,N,00128.74518,E,1,08,1.05,181.6,M,53.8,M,,*4E
128 11 08 19 4333.6882200128.74499181.8~ 00128.74499 181.8 1101010111 1100010011 1100100111 10000001111 10000110110 1011110110 1100111001 1101110011 1011110100 1101011101 1011010110 1011111101 10000100101 10000111001 1100001010 1100000100 1011111101 1011111001 20.938 52.079 1004.1 128472 16 8 7 58 51 3 $GNGGA,110819.00,4333.68822,N,00128.74499,E,1,08,1.05,181.8,M,53.8,M,,*4D
129 11 08 20 4333.6881400128.74485182.1~ 00128.74485 182.1 1101010111 1100010001 1100100111 10000010100 10000111000 1011110011 1100111010 1101101110 1011110000 1101011101 1011011001 1100000010 10000100011 10000111000 1100001111 1100001000 1011111100 1011110100 20.938 52.086 1004.2 129472 17 7 7 59 51 3 $GNGGA,110820.00,4333.68814,N,00128.74485,E,1,08,1.05,182.1,M,53.8,M,,*45
130 11 08 21 4333.6880600128.74475182.2~ 00128.74475 182.2 1101010111 1100010011 1100100111 10000001101 10000110101 1011110100 1100111001 1101101100 1011101000 1101011101 1011010111 1011111111 10000100111 10000111110 1100001000 1011111111 1100001001 1011111100 20.938 52.086 1004.2 130472 16 8 7 58 51 3 $GNGGA,110821.00,4333.68806,N,00128.74475,E,1,08,1.05,182.2,M,53.8,M,,*4B
131 11 08 22 4333.6880300128.74480182.6~ 00128.74480 182.6 1101010111 1100010010 1100100100 10000001000 10000110110 1011110010 1100111011 1101110000 1011101101 1101011101 1011011001 1011111111 10000100010 10000111010 1100001100 1100000001 1011111101 1011111000 20.938 52.086 1004.2 131472 17 7 7 59 51 3 $GNGGA,110822.00,4333.68803,N,00128.74480,E,1,08,1.05,182.6,M,53.8,M,,*43
132 11 08 23 4333.6879700128.74475182.7~ 00128.74475 182.7 1101011000 1100010101 1100101001 10000001101 10000110110 1011110111 1100111100 1101101110 1011101011 1101011101 1011011001 1011111111 10000100110 10000111001 1100001101 1100000010 1100001000 1100000010 20.938 52.086 1004.2 132472 16 7 8 58 51 3 $GNGGA,110823.00,4333.68797,N,00128.74475,E,1,08,1.05,182.7,M,53.8,M,,*4B
133 11 08 24 4333.6878800128.74466182.7~ 00128.74466 182.7 1101010111 1100010100 1100100100 10000010001 10000110111 1011110010 1100110101 1101101110 1011110000 1101011101 1011010111 1100000010 10000101010 10000111010 1100001101 1100000110 1011111111 1011111001 20.938 52.048 1004.2 133472 16 7 7 58 52 3 $GNGGA,110824.00,4333.68788,N,00128.74466,E,1,08,1.05,182.7,M,53.8,M,,*40
134 11 08 25 4333.6880300128.74505182.8~ 00128.74505 182.8 1101011000 1100010011 1100100110 10000001010 10000110100 1011110101 1100111101 1101101001 1011101101 1101011101 1011010111 1100000000 10000101101 10000111010 1100001001 1100000000 1011111100 1011111000 20.938 52.018 1004.2 134472 17 7 7 59 51 3 $GNGGA,110825.00,4333.68803,N,00128.74505,E,1,08,1.05,182.8,M,53.8,M,,*46
135 11 08 26 4333.6882700128.74552182.8~ 00128.74552 182.8 1101011000 1100010101 1100101000 10000010000 10000111000 1011110100 1100111000 1101110010 1011101101 1101011101 1011010111 1011111111 10000101000 10000111001 1100001010 1100000000 1100000000 1100000000 20.938 52.010 1004.2 135472 16 7 7 58 51 4 $GNGGA,110826.00,4333.68827,N,00128.74552,E,1,09,0.93,182.8,M,53.8,M,,*4E
136 11 08 27 4333.6882600128.74560183.1~ 00128.74560 183.1 1101011000 1100010001 1100100101 10000001110 10000110011 1011101110 1100110011 1101101111 1011110000 1101011101 1011010110 1100000000 10000101010 10000111001 1100001101 1100000101 1011111000 1011110010 20.938 52.010 1004.2 136472 17 7 7 59 51 3 $GNGGA,110827.00,4333.68826,N,00128.74560,E,1,09,0.93,183.1,M,53.8,M,,*47
137 11 08 28 4333.6882700128.74569183.3~ 00128.74569 183.3 1101011000 1100010010 1100100110 10000001111 10000111000 1011110100 1100110111 1101101110 1011100111 1101011101 1011011010 1100000010 10000100111 10000111010 1100001110 1100000110 1011111100 1011111001 20.938 52.018 1004.2 137472 16 8 7 58 51 3 $GNGGA,110828.00,4333.68827,N,00128.74569,E,1,08,1.02,183.3,M,53.8,M,,*4A
138 11 08 29 4333.6882300128.74571183.5~ 00128.74571 183.5 1101011000 1100010011 1100100100 10000001110 10000110111 1011111000 1100111101 1101101110 1011110011 1101011101 1011010101 1011111100 10000100100 10000111010 1100001101 1100000011 1100000011 1011110101 20.938 52.018 1004.2 138472 17 7 7 59 51 3 $GNGGA,110829.00,4333.68823,N,00128.74571,E,1,08,1.02,183.5,M,53.8,M,,*40
139 11 08 30 4333.6881200128.74570184.0~ 00128.74570 184.0 1101011000 1100010010 1100100110 10000001100 10000110100 1011110010 1100111100 1101110010 1011101100 1101011101 1011011000 1100000000 10000100101 10000111010 1100001000 1100000100 1100000010 1011111000 20.938 52.018 1004.2 139472 16 7 8 58 51 3 $GNGGA,110830.00,4333.68812,N,00128.74570,E,1,09,0.93,184.0,M,53.8,M,,*41
140 11 08 31 4333.6881000128.74583184.3~ 00128.74583 184.3 1101010111 1100010100 1100101000 10000000110 10000110100 1011111000 1100111011 1101110010 1011101100 1101011101 1011010110 1011111111 10000100111 10000111010 1100010001 1100000101 1011111111 1011111011 20.938 52.033 1004.2 140472 16 7 7 58 52 3 $GNGGA,110831.00,4333.68810,N,00128.74583,E,1,09,0.93,184.3,M,53.8,M,,*4D
141 11 08 32 4333.6882000128.74595184.5~ 00128.74595 184.5 1101011000 1100010100 1100100100 10000010001 10000111000 1011110011 1100111000 1101101001 1011100110 1101011101 1011010111 1011111110 10000100111 10000111001 1100001111 1100000101 1100000011 1011111011 20.938 52.048 1004.2 141472 16 7 8 58 51 3 $GNGGA,110832.00,4333.68820,N,00128.74595,E,1,09,0.93,184.5,M,53.8,M,,*4C
142 11 08 33 4333.6881100128.74582184.8~ 00128.74582 184.8 1101010111 1100010110 1100101000 10000001001 10000110101 1011110101 1100110111 1101110010 1011101100 1101011101 1011011001 1011111111 10000100110 10000111010 1100000111 1100000010 1011111110 1011111001 20.938 51.995 1004.2 142472 16 7 7 58 52 3 $GNGGA,110833.00,4333.68811,N,00128.74582,E,1,09,0.93,184.8,M,53.8,M,,*44
143 11 08 34 4333.6882100128.74604185.1~ 00128.74604 185.1 1101010111 1100010010 1100100101 10000001011 10000110011 1011110011 1100111010 1101110010 1011101101 1101011101 1011011010 1100000001 10000101000 10000111001 1100001000 1100000000 1011111101 1011110110 20.938 51.980 1004.2 143472 17 7 7 59 51 3 $GNGGA,110834.00,4333.68821,N,00128.74604,E,1,09,0.93,185.1,M,53.8,M,,*45
144 11 08 35 4333.6884100128.74643185.4~ 00128.74643 185.4 1101010111 1100010110 1100101001 10000001110 10000111000 1011110101 1100110100 1101111000 1011110000 1101011101 1011010111 1011111111 10000100110 10000111100 1100000111 1100000000 1100000001 1011111001 20.938 51.980 1004.2 144472 16 8 7 58 51 3 $GNGGA,110835.00,4333.68841,N,00128.74643,E,1,09,0.93,185.4,M,53.8,M,,*44
145 11 08 36 4333.6884100128.74642185.6~ 00128.74642 185.6 1101011000 1100010000 1100100100 10000001111 10000110100 1011110100 1100111000 1101110100 1011100111 1101011101 1011011100 1100000001 10000100010 10000111100 1100001011 1100000011 1100000001 1011111000 20.938 52.010 1004.2 145472 17 7 7 59 51 3 $GNGGA,110836.00,4333.68841,N,00128.74642,E,1,09,0.93,185.6,M,53.8,M,,*44
146 11 08 37 4333.6882100128.74596185.9~ 00128.74596 185.9 1101010111 1100010001 1100100110 10000010110 10000110111 1011110010 1100111011 1101101111 1011100111 1101011101 1011010110 1011111110 10000100100 10000111010 1100001100 1100000011 1011111110 1011111101 20.938 52.018 1004.2 146472 16 8 7 58 51 3 $GNGGA,110837.00,4333.68821,N,00128.74596,E,1,09,0.93,185.9,M,53.8,M,,*46
147 11 08 38 4333.6881500128.74577186.1~ 00128.74577 186.1 1101010111 1100010011 1100100110 10000010101 10000111001 1011110101 1100111101 1101101101 1011100101 1101011101 1011010101 1011111111 10000100101 10000111011 1100001000 1100000000 1100000100 1011111100 20.938 52.002 1004.2 147472 17 7 7 59 51 3 $GNGGA,110838.00,4333.68815,N,00128.74577,E,1,08,0.96,186.1,M,53.8,M,,*4E
148 11 08 39 4333.6881900128.74588186.6~ 00128.74588 186.6 1101010111 1100010100 1100100100 10000010101 10000111010 1011101110 1100110011 1101110101 1011101000 1101011101 1011011100 1100000000 10000101001 10000111010 1100001110 1100000110 1011111011 1011111001 20.938 51.987 1004.2 148472 16 7 8 58 51 3 $GNGGA,110839.00,4333.68819,N,00128.74588,E,1,09,0.93,186.6,M,53.8,M,,*40
149 11 08 40 4333.6879900128.74549186.8~ 00128.74549 186.8 1101011000 1100010011 1100100101 10000010001 10000110111 1011110101 1100110101 1101110010 1011101001 1101011101 1011011001 1100000000 10000101011 10000111011 1100000110 1100000000 1011111101 1011110111 20.938 51.964 1004.2 149472 16 7 7 58 52 3 $GNGGA,110840.00,4333.68799,N,00128.74549,E,1,08,0.96,186.8,M,53.8,M,,*4E
150 11 08 41 4333.6878800128.74533187.0~ 00128.74533 187.0 1101011000 1100010000 1100100011 10000001101 10000110101 1011110011 1100111000 1101110011 1011110001 1101011101 1011011001 1100000000 10000101001 10000111010 1100001011 1100000001 1100000101 1100000011 20.938 51.934 1004.2 150472 17 7 7 59 51 3 $GNGGA,110841.00,4333.68788,N,00128.74533,E,1,08,0.96,187.0,M,53.8,M,,*4B
151 11 08 42 4333.6879900128.74554187.0~ 00128.74554 187.0 1101010111 1100010000 1100100010 10000001001 10000110110 1011110000 1100110110 1101101110 1011100110 1101011101 1011010100 1011111111 10000100001 10000111001 1100001111 1100001000 1011111110 1011111001 20.938 51.957 1004.2 151472 16 7 7 58 51 4 $GNGGA,110842.00,4333.68799,N,00128.74554,E,1,08,0.96,187.0,M,53.8,M,,*49
152 11 08 43 4333.6881400128.74579186.9~ 00128.74579 186.9 1101011000 1100010100 1100100110 10000010011 10000111000 1011101111 1100110000 1101110000 1011101100 1101011101 1011010110 1011111111 10000100110 10000111100 1100001011 1011111111 1100000000 1100000010 20.938 51.926 1004.1 152472 17 7 7 59 51 3 $GNGGA,110843.00,4333.68814,N,00128.74579,E,1,09,0.93,186.9,M,53.8,M,,*41
153 11 08 44 4333.6880900128.74569187.0~ 00128.74569 187.0 1101010111 1100010001 1100100101 10000010001 10000111000 1011110010 1100110101 1101110100 1011110000 1101011101 1011011000 1100000000 10000101010 10000111100 1100001011 1100000101 1100000100 1011111110 20.938 51.858 1004.2 153472 16 8 7 58 51 3 $GNGGA,110844.00,4333.68809,N,00128.74569,E,1,09,0.93,187.0,M,53.8,M,,*43
