id HH MM SS longitude latitude altitude adc_1_ch0 adc_1_ch1 adc_1_ch2 adc_1_ch3 adc_1_ch4 adc_1_ch5 adc_1_ch6 adc_1_ch7 adc_1_ch8 adc_2_ch0 adc_2_ch1 adc_2_ch2 adc_2_ch3 adc_2_ch4 adc_2_ch5 adc_2_ch6 adc_2_ch7 adc_2_ch8 temp hum pres t_prog t_gps t_split t_adc t_temp t_hum t_pres trame_gga
1 08 23 20 4333.6838500128.73930165.91 2`@Cp.–3@795.83 00128.73930 165.9 1101010101 1100010010 1100100110 10000001111 10000110111 1011101101 1100110100 1110010100 1011101011 1101011011 1011010110 1011111101 10000101000 10000111101 1100000001 1011111001 1100000000 1011111000 20.188 55.726 795.83 1471 18 431 7 59 51 3 $GNGGA,082320.00,4333.68385,N,00128.73930,E,1,06,1.29,165.9,M,53.8,M,,*42
_1
2 08 23 21 4333.6838500128.73957166.31P2`@–CP.Ä31004.6 00128.73957 166.3 1101010101 1100010101 1100100110 10000001101 10000110101 1011101000 1100110001 1110011100 1011101101 1101011011 1011010110 1011111111 10000100100 10000111011 1100000110 1100000000 1100000100 1011111110 20.188 55.634 1004.6 2471 16 429 9 58 51 3 $GNGGA,082321.00,4333.68385,N,00128.73957,E,1,06,1.29,166.3,M,53.8,M,,*4B
_1
3 08 23 22 4333.6838500128.73972166.5102p@ÄC`.†2‡1004.6 00128.73972 166.5 1101010101 1100010011 1100100111 10000001000 10000110110 1011101010 1100101110 1110010011 1011100000 1101011011 1011011000 1011111110 10000100001 10000111001 1011111111 1011111000 1100000111 1011111001 20.188 55.588 1004.6 3471 16 430 7 58 52 3 $GNGGA,082322.00,4333.68385,N,00128.73972,E,1,06,1.29,166.5,M,53.8,M,,*49
_1
4 08 23 23 4333.6837600128.73973166.71@2P@C†.¿3P1004.6 00128.73973 166.7 1101010101 1100010100 1100100101 10000001111 10000111010 1011101100 1100110101 1110010110 1011100100 1101011011 1011010111 1011111111 10000100000 10000111010 1100000100 1011111010 1100000011 1011111110 20.188 55.550 1004.6 4471 17 427 8 58 51 3 $GNGGA,082323.00,4333.68376,N,00128.73973,E,1,06,1.29,166.7,M,53.8,M,,*47
_1
5 08 23 24 4333.6840900128.73913164.91 2@ACê.∞3`1004.6 00128.73913 164.9 1101010101 1100010010 1100100100 10000010001 10000111001 1011101011 1100110110 1110010001 1011100001 1101011011 1011010111 1011111101 10000100101 10000111010 1100000101 1011111110 1100000110 1011111011 20.188 55.466 1004.6 5471 16 428 8 58 52 3 $GNGGA,082324.00,4333.68409,N,00128.73913,E,1,07,1.28,164.9,M,53.8,M,,*45
_1
6 08 23 25 4333.6841000128.73894164.51@2Ä@ÄC0.‡301004.6 00128.73894 164.5 1101010101 1100010100 1100101000 10000001000 10000110011 1011101110 1100110011 1110010011 1011101100 1101011011 1011010101 1011111110 10000100010 10000111010 1100000111 1011111100 1100000011 1011111010 20.188 55.436 1004.6 6471 17 427 8 59 51 3 $GNGGA,082325.00,4333.68410,N,00128.73894,E,1,07,1.28,164.5,M,53.8,M,,*4E
_1
7 08 23 26 4333.6845700128.73765160.31 00128.73765 160.3 1101010101 1100010000 1100100011 10000001100 10000110110 1011101111 1100110101 1110010111 1011100100 1101011011 1011011001 1100000000 10000100101 10000111001 1100000110 1011111010 1011111110 1011111100 20.188 55.428 1004.6 7471 16 428 8 58 51 4 $GNGGA,082326.00,4333.68457,N,00128.73765,E,1,08,1.22,160.3,M,53.8,M,,*48
_1
8 08 23 27 4333.6848100128.73723158.31Ä2Ä@ÄCP.3Ä1004.7 00128.73723 158.3 1101010101 1100011000 1100101000 10000001000 10000110101 1011101111 1100111000 1110010111 1011101100 1101011011 1011010101 1011111110 10000100011 10000111010 1100000101 1011111010 1100000010 1011110111 20.188 55.413 1004.7 8471 17 427 7 59 51 3 $GNGGA,082327.00,4333.68481,N,00128.73723,E,1,08,1.22,158.3,M,53.8,M,,*4B
_1
9 08 23 28 4333.6853900128.73737154.4102`@¿C`/ 00128.73737 154.4 1101010101 1100010011 1100100110 10000001100 10000110110 1011110000 1100110010 1110011101 1011101001 1101011011 1011011000 1100000001 10000100001 10000111011 1100000110 1011111100 1011111011 1011101101 20.188 55.420 1004.7 9472 16 427 8 58 51 3 $GNGGA,082328.00,4333.68539,N,00128.73737,E,1,09,1.04,154.4,M,53.8,M,,*4D
_1
10 08 23 29 4333.6857700128.73751151.51@2p@†Cê.3p1004.7 00128.73751 151.5 1101010101 1100010100 1100100111 10000001010 10000111001 1011101111 1100110111 1110010100 1011100010 1101011011 1011010111 1011111110 10000101001 10000111010 1100000001 1011111001 1100000111 1100000100 20.188 55.443 1004.7 10472 16 426 7 59 51 3 $GNGGA,082329.00,4333.68577,N,00128.73751,E,1,09,1.04,151.5,M,53.8,M,,*42
_1
11 08 23 30 4333.6861100128.73772148.9102Ä@–CÄ.∞3 00128.73772 148.9 1101010101 1100010011 1100101000 10000001101 10000111000 1011101011 1100110000 1110001100 1011011001 1101011011 1011011000 1100000000 10000101011 10000111010 1100001001 1011111100 1100000010 1011111100 20.188 55.443 1004.7 11472 17 421 7 58 51 3 $GNGGA,082330.00,4333.68611,N,00128.73772,E,1,09,1.04,148.9,M,53.8,M,,*4C
_1
12 08 23 31 4333.6862200128.73792146.912@@¿C`.Ä3 00128.73792 146.9 1101010101 1100010001 1100100100 10000001100 10000110110 1011101000 1100110000 1110001010 1011100010 1101011011 1011011011 1100000000 10000100011 10000111000 1100000000 1011110111 1100000101 1011111100 20.188 55.459 1004.7 12472 16 423 7 58 52 3 $GNGGA,082331.00,4333.68622,N,00128.73792,E,1,09,1.04,146.9,M,53.8,M,,*4D
_1
13 08 23 32 4333.6863700128.73801145.01@2P@@C@.p2‡1004.7 00128.73801 145.0 1101010101 1100010100 1100100101 10000000100 10000110100 1011100111 1100101110 1110001110 1011100100 1101011011 1011011000 1100000001 10000101100 10000111100 1100000001 1011111001 1100000010 1011111101 20.188 55.474 1004.7 13472 17 420 7 58 51 3 $GNGGA,082332.00,4333.68637,N,00128.73801,E,1,09,1.04,145.0,M,53.8,M,,*45
_1
14 08 23 33 4333.6866400128.73785142.91@2`@‡Cê.–3p1004.7 00128.73785 142.9 1101010101 1100010100 1100100110 10000001110 10000111001 1011101101 1100110111 1110001101 1011100010 1101011011 1011010100 1011111110 10000100111 10000111110 1100000011 1011111011 1100000001 1011111011 20.188 55.489 1004.7 14472 16 421 8 58 52 3 $GNGGA,082333.00,4333.68664,N,00128.73785,E,1,08,1.17,142.9,M,53.8,M,,*4C
_1
15 08 23 34 4333.6868400128.73786141.11P2pA 00128.73786 141.1 1101010101 1100010101 1100100111 10000010000 10000110110 1011101100 1100110101 1110001011 1011100001 1101011011 1011010111 1100000001 10000100110 10000111100 1100000110 1011111010 1011111110 1011111001 20.188 55.497 1004.7 15472 17 418 7 59 51 3 $GNGGA,082334.00,4333.68684,N,00128.73786,E,1,09,1.04,141.1,M,53.8,M,,*4E
_1
16 08 23 35 4333.6870300128.73799139.41`2pACê.†2–1004.7 00128.73799 139.4 1101010101 1100010110 1100100111 10000010001 10000111001 1011101010 1100101101 1110010010 1011101100 1101011010 1011010110 1100000000 10000100110 10000111100 1011111111 1011111010 1100000000 1011110110 20.188 55.512 1004.7 16472 17 420 7 58 51 3 $GNGGA,082335.00,4333.68703,N,00128.73799,E,1,09,1.04,139.4,M,53.8,M,,*45
_1
17 08 23 36 4333.6871600128.73804138.01`2P@∞CP.∞3 00128.73804 138.0 1101010101 1100010110 1100100101 10000001011 10000110101 1011101011 1100110000 1110010001 1011101101 1101011011 1011011000 1100000001 10000100010 10000111010 1011111110 1011110101 1100000010 1011111011 20.188 55.504 1004.7 17472 17 416 7 59 51 3 $GNGGA,082336.00,4333.68716,N,00128.73804,E,1,09,1.04,138.0,M,53.8,M,,*4C
_1
18 08 23 37 4333.6870200128.73782137.6102PA 00128.73782 137.6 1101010101 1100010011 1100100101 10000010000 10000110111 1011101011 1100110100 1110010000 1011100111 1101011011 1011010110 1100000000 10000101000 10000111110 1100000000 1011110111 1011111110 1011110110 20.188 55.535 1004.6 18472 17 417 7 58 51 3 $GNGGA,082337.00,4333.68702,N,00128.73782,E,1,08,1.22,137.6,M,53.8,M,,*45
_1
19 08 23 38 4333.6868800128.73773137.51@2Ä@ÄCP.∞3P1004.6 00128.73773 137.5 1101010101 1100010100 1100101000 10000001000 10000110101 1011101011 1100110101 1110010111 1011101110 1101011011 1011011010 1100000000 10000101001 10000111100 1100000010 1011111100 1100000000 1011111001 20.188 55.581 1004.6 19472 17 413 8 59 51 3 $GNGGA,082338.00,4333.68688,N,00128.73773,E,1,08,1.22,137.5,M,53.8,M,,*44
_1
20 08 23 39 4333.6867900128.73753137.11@2`@êCÄ.–3`1004.6 00128.73753 137.1 1101010101 1100010100 1100100110 10000001001 10000111000 1011101101 1100110110 1110011101 1011110000 1101011011 1011011000 1011111110 10000101000 10000111100 1100000000 1011111011 1100000011 1011111110 20.188 55.596 1004.6 20472 16 413 7 58 51 3 $GNGGA,082339.00,4333.68679,N,00128.73753,E,1,08,1.22,137.1,M,53.8,M,,*4D
_1
21 08 23 40 4333.6866200128.73759137.0102P@‡CÄ.Ä2¿1004.6 00128.73759 137.0 1101010101 1100010011 1100100101 10000001110 10000111000 1011101000 1100101100 1110011000 1011101011 1101011011 1011010100 1011111101 10000100011 10000111001 1100000000 1011110101 1011111111 1011111111 20.125 55.558 1004.6 21472 16 412 8 58 52 3 $GNGGA,082340.00,4333.68662,N,00128.73759,E,1,08,1.22,137.0,M,53.8,M,,*42
_1
22 08 23 41 4333.6863400128.73764136.91 2p@∞CÄ.‡301004.6 00128.73764 136.9 1101010101 1100010010 1100100111 10000001011 10000111000 1011101110 1100110011 1110010110 1011100011 1101011011 1011010111 1011111110 10000100111 10000111100 1100000010 1011111001 1100001000 1100000111 20.188 55.550 1004.6 22472 16 408 8 59 51 3 $GNGGA,082341.00,4333.68634,N,00128.73764,E,1,08,1.22,136.9,M,53.8,M,,*46
_1
23 08 23 42 4333.6862500128.73746136.41P2ÄAC`.¿2‡1004.6 00128.73746 136.4 1101010101 1100010101 1100101000 10000010001 10000110110 1011101100 1100101110 1110010100 1011110001 1101011011 1011011000 1100000010 10000101000 10000111101 1100000110 1011111011 1100000011 1011111110 20.125 55.581 1004.6 23472 18 410 7 58 51 4 $GNGGA,082342.00,4333.68625,N,00128.73746,E,1,08,1.22,136.4,M,53.8,M,,*48
_1
24 08 23 43 4333.6860900128.73724136.01`2ÄAPCÄ.–3 00128.73724 136.0 1101010101 1100010110 1100101000 10000010101 10000111000 1011101101 1100110000 1110010111 1011101100 1101011011 1011011001 1100000001 10000100010 10000111011 1100000100 1011111010 1100000010 1011110111 20.188 55.604 1004.6 24472 16 409 8 59 51 3 $GNGGA,082343.00,4333.68609,N,00128.73724,E,1,08,1.22,136.0,M,53.8,M,,*47
_1
25 08 23 44 4333.6860800128.73695135.61 2@A0C@.–3@1004.6 00128.73695 135.6 1101010101 1100010010 1100100100 10000010011 10000110100 1011101101 1100110100 1110010010 1011100000 1101011011 1011011001 1011111111 10000100000 10000111001 1100000110 1011111101 1011111111 1011110110 20.188 55.604 1004.6 25472 17 409 8 58 51 3 $GNGGA,082344.00,4333.68608,N,00128.73695,E,1,08,1.22,135.6,M,53.8,M,,*4F
_1
26 08 23 45 4333.6859800128.73688135.4102p@C@.ê3 1004.7 00128.73688 135.4 1101010110 1100010011 1100100111 10000001111 10000110100 1011101001 1100110010 1110010011 1011101010 1101011011 1011011100 1100000011 10000100010 10000110111 1100000001 1011111101 1100000001 1011111100 20.125 55.588 1004.7 26472 16 407 8 59 51 3 $GNGGA,082345.00,4333.68598,N,00128.73688,E,1,08,1.22,135.4,M,53.8,M,,*4A
_1
27 08 23 46 4333.6858500128.73658135.01P2`AÄC`.∞3 1004.7 00128.73658 135.0 1101010101 1100010101 1100100110 10000011000 10000110110 1011101011 1100110010 1110010000 1011100010 1101011011 1011011000 1100000001 10000100110 10000111010 1100001000 1011111010 1011111111 1011111100 20.125 55.550 1004.7 27472 17 405 7 58 51 3 $GNGGA,082346.00,4333.68585,N,00128.73658,E,1,08,1.22,135.0,M,53.8,M,,*4C
_1
28 08 23 47 4333.6856800128.73655135.0102PA0Cê/ 00128.73655 135.0 1101010101 1100010011 1100100101 10000010011 10000111001 1011110000 1100110110 1110011011 1011101011 1101011011 1011011000 1011111111 10000101011 10000111010 1100000010 1011111100 1100000010 1011111111 20.125 55.535 1004.6 28472 17 406 8 58 52 3 $GNGGA,082347.00,4333.68568,N,00128.73655,E,1,08,1.22,135.0,M,53.8,M,,*43
_1
29 08 23 48 4333.6855800128.73646135.01P2ê@†C@/ 00128.73646 135.0 1101010101 1100010101 1100101001 10000001010 10000110100 1011110000 1100110101 1110011001 1011100100 1101011011 1011011011 1100000001 10000100011 10000111000 1011111100 1011110110 1011111011 1011111100 20.125 55.558 1004.6 29472 16 407 7 58 51 3 $GNGGA,082348.00,4333.68558,N,00128.73646,E,1,08,1.22,135.0,M,53.8,M,,*4D
_1
30 08 23 49 4333.6855700128.73680134.81P2p@‡Cp.ê31004.6 00128.73680 134.8 1101010101 1100010101 1100100111 10000001110 10000110111 1011101001 1100110001 1110100001 1011101101 1101011011 1011010111 1011111101 10000100110 10000111011 1100000110 1011111000 1011111100 1011111011 20.125 55.581 1004.6 30472 17 405 8 58 52 3 $GNGGA,082349.00,4333.68557,N,00128.73680,E,1,08,1.22,134.8,M,53.8,M,,*40
_1
31 08 23 50 4333.6855600128.73657134.412@@†CP.ê31004.6 00128.73657 134.4 1101010101 1100010001 1100100100 10000001010 10000110101 1011101001 1100110001 1110011010 1011100011 1101011011 1011011001 1011111101 10000100010 10000111001 1100000100 1011111000 1100000010 1011111110 20.125 55.581 1004.6 31472 16 404 8 59 51 3 $GNGGA,082350.00,4333.68556,N,00128.73657,E,1,08,1.22,134.4,M,53.8,M,,*4F
_1
32 08 23 51 4333.6854900128.73683134.51@2`@‡C`/ 00128.73683 134.5 1101010101 1100010100 1100100110 10000001110 10000110110 1011110000 1100110011 1110011010 1011101100 1101011011 1011010111 1011111111 10000100001 10000111010 1011111111 1011110101 1100000100 1011111111 20.125 55.581 1004.6 32472 16 403 7 58 51 3 $GNGGA,082351.00,4333.68549,N,00128.73683,E,1,07,1.26,134.5,M,53.8,M,,*43
_1
33 08 23 52 4333.6853200128.73712134.71P2ê@¿C`.∞3 1004.6 00128.73712 134.7 1101010101 1100010101 1100101001 10000001100 10000110110 1011101011 1100110010 1110010100 1011100100 1101011011 1011011000 1100000000 10000100011 10000111001 1100000000 1011110101 1100000011 1011111110 20.125 55.588 1004.6 33472 17 400 7 59 51 3 $GNGGA,082352.00,4333.68532,N,00128.73712,E,1,08,1.22,134.7,M,53.8,M,,*4C
_1
34 08 23 53 4333.6852900128.73704135.21P2Ä@‡Cp.P2∞1004.6 00128.73704 135.2 1101010101 1100010101 1100101000 10000001110 10000110111 1011100101 1100101011 1110010101 1011100001 1101011011 1011010011 1011111110 10000100100 10000111110 1011111101 1011110011 1011111110 1011111100 20.125 55.596 1004.6 34472 16 403 7 58 51 3 $GNGGA,082353.00,4333.68529,N,00128.73704,E,1,09,0.97,135.2,M,53.8,M,,*4A
_1
35 08 23 54 4333.6852700128.73700134.91@2`ACp.ê3 00128.73700 134.9 1101010101 1100010100 1100100110 10000010001 10000110111 1011101001 1100110000 1110010111 1011100110 1101011011 1011011001 1100000000 10000011011 10000110111 1011111111 1011111101 1100000010 1011111001 20.125 55.573 1004.6 35472 17 400 8 59 51 3 $GNGGA,082354.00,4333.68527,N,00128.73700,E,1,08,1.22,134.9,M,53.8,M,,*43
_1
