id HH MM SS longitude latitude altitude adc_1_ch0 adc_1_ch1 adc_1_ch2 adc_1_ch3 adc_1_ch4 adc_1_ch5 adc_1_ch6 adc_1_ch7 adc_1_ch8 adc_2_ch0 adc_2_ch1 adc_2_ch2 adc_2_ch3 adc_2_ch4 adc_2_ch5 adc_2_ch6 adc_2_ch7 adc_2_ch8 temp hum pres t_prog t_gps t_split t_adc t_temp t_hum t_pres trame_gga
1 11 39 49 4333.6938300128.74184132.4~ 00128.74184 132.4 1101011000 1100010110 1100101001 10000010001 10000110111 1011110001 1100110111 1101111000 1011101000 1101011101 1011010111 1011111110 10000100001 10000111000 1100000110 1011111111 1100000001 1011111001 21.000 53.338 795.83 1564 17 -359 39 59 51 3 $GNGGA,113949.00,4333.69383,N,00128.74184,E,1,08,1.01,132.4,M,53.8,M,,*42
2 11 39 50 4333.6935900128.74139132.8~ 00128.74139 132.8 1101011000 1100010011 1100101000 10000001101 10000110101 1011111000 1100111111 1101111011 1011101000 1101011110 1011010111 1011111110 10000100110 10000111001 1100001100 1100000101 1100000001 1011111000 21.000 53.322 1003.8 2564 18 -360 38 58 51 4 $GNGGA,113950.00,4333.69359,N,00128.74139,E,1,08,1.01,132.8,M,53.8,M,,*47
3 11 39 51 4333.6930900128.74093132.9~ 00128.74093 132.9 1101011000 1100010100 1100100110 10000001010 10000110101 1011110010 1100111000 1101111001 1011101011 1101011110 1011010111 1011111111 10000100101 10000111100 1100001011 1100000111 1100000010 1011111110 21.000 53.307 1003.8 3564 17 -361 39 59 51 3 $GNGGA,113951.00,4333.69309,N,00128.74093,E,1,08,1.01,132.9,M,53.8,M,,*43
4 11 39 52 4333.6928400128.74114133.2~ 00128.74114 133.2 1101011000 1100010100 1100100111 10000001110 10000110110 1011110101 1100110110 1101111001 1011101011 1101011110 1011011000 1100000001 10000100000 10000111000 1100001011 1100000101 1100001001 1100000000 21.000 53.292 1003.8 4564 18 -362 39 58 51 3 $GNGGA,113952.00,4333.69284,N,00128.74114,E,1,08,1.01,133.2,M,53.8,M,,*40
5 11 39 53 4333.6929000128.74071133.6~ 00128.74071 133.6 1101011000 1100010110 1100101000 10000001100 10000110111 1011110100 1100111000 1101110101 1011011111 1101011110 1011011001 1100000000 10000100110 10000111000 1100001100 1100000011 1100000101 1100000001 21.000 53.269 1003.8 5564 17 -362 39 59 51 3 $GNGGA,113953.00,4333.69290,N,00128.74071,E,1,08,1.01,133.6,M,53.8,M,,*42
6 11 39 54 4333.6927400128.74039134.0~ 00128.74039 134.0 1101011000 1100010001 1100100100 10000010000 10000110111 1011110100 1100111010 1101110011 1011100110 1101011110 1011011000 1100000000 10000101010 10000111010 1100001001 1100000001 1100001010 1011111110 21.000 53.269 1003.8 6564 18 -362 39 58 51 3 $GNGGA,113954.00,4333.69274,N,00128.74039,E,1,08,1.01,134.0,M,53.8,M,,*42
7 11 39 55 4333.6924200128.74037134.4~ 00128.74037 134.4 1101011000 1100010110 1100101010 10000010010 10000111010 1011110101 1100110110 1101110101 1011100111 1101011110 1011010110 1011111111 10000101111 10000111011 1100010000 1100001010 1100000110 1011111011 21.000 53.277 1003.8 7564 17 -363 39 58 52 3 $GNGGA,113955.00,4333.69242,N,00128.74037,E,1,08,1.01,134.4,M,53.8,M,,*4C
8 11 39 56 4333.6922900128.74021134.9~ 00128.74021 134.9 1101011000 1100010011 1100100110 10000001001 10000110101 1011101110 1100110100 1101110100 1011101001 1101011110 1011011001 1011111110 10000101001 10000111100 1100001001 1100000100 1100000111 1011111010 21.000 53.277 1003.8 8564 17 -364 39 58 51 3 $GNGGA,113956.00,4333.69229,N,00128.74021,E,1,08,1.01,134.9,M,53.8,M,,*48
9 11 39 57 4333.6925900128.73988134.7~ 00128.73988 134.7 1101011000 1100010100 1100101001 10000001000 10000110011 1011110001 1100110100 1101110001 1011100010 1101011110 1011010101 1011111111 10000101000 10000111010 1100000111 1100000011 1100000100 1011111110 21.000 53.284 1003.8 9564 18 -365 38 58 51 4 $GNGGA,113957.00,4333.69259,N,00128.73988,E,1,08,1.01,134.7,M,53.8,M,,*4D
10 11 39 58 4333.6929400128.73971134.5~ 00128.73971 134.5 1101011000 1100010001 1100100100 10000001101 10000110101 1011101111 1100110111 1101110000 1011100001 1101011101 1011011010 1011111111 10000101011 10000111011 1100010001 1011111111 1100000111 1011111010 21.000 53.292 1003.8 10564 17 -368 39 59 51 3 $GNGGA,113958.00,4333.69294,N,00128.73971,E,1,07,2.14,134.5,M,53.8,M,,*4F
11 11 39 59 4333.6930100128.73948134.3~ 00128.73948 134.3 1101011000 1100010100 1100101001 10000001010 10000110110 1011110000 1100111000 1101101111 1011100000 1101011110 1011011010 1100000000 10000101000 10000111001 1100010100 1100000101 1100000010 1011110111 21.000 53.299 1003.8 11564 18 -367 39 58 51 3 $GNGGA,113959.00,4333.69301,N,00128.73948,E,1,07,2.14,134.3,M,53.8,M,,*4F
12 11 40 00 4333.6933800128.73958134.1~ 00128.73958 134.1 1101011000 1100010001 1100100101 10000001000 10000111000 1011101111 1100110111 1101110100 1011100111 1101011110 1011010110 1011111111 10000100010 10000111001 1100000111 1100000000 1100000111 1011111011 21.000 53.307 1003.8 12564 17 -370 39 59 51 3 $GNGGA,114000.00,4333.69338,N,00128.73958,E,1,07,2.14,134.1,M,53.8,M,,*44
13 11 40 01 4333.6932900128.73961133.7~ 00128.73961 133.7 1101011000 1100010100 1100100110 10000001010 10000110101 1011110011 1100111000 1101110110 1011101000 1101011110 1011011011 1100000001 10000101000 10000111001 1100001111 1100000011 1100000110 1100000000 21.000 53.315 1003.8 13564 18 -369 39 58 51 3 $GNGGA,114001.00,4333.69329,N,00128.73961,E,1,07,2.14,133.7,M,53.8,M,,*4E
14 11 40 02 4333.6933500128.73949133.4~ 00128.73949 133.4 1101011000 1100010011 1100100110 10000010000 10000110101 1011111000 1100111011 1101110101 1011101100 1101011101 1011011000 1011111110 10000101100 10000111011 1100001000 1100000000 1100001010 1100000001 21.000 53.307 1003.8 14564 17 -373 39 58 52 3 $GNGGA,114002.00,4333.69335,N,00128.73949,E,1,07,2.14,133.4,M,53.8,M,,*49
15 11 40 03 4333.6936100128.73890133.2~ 00128.73890 133.2 1101011000 1100010001 1100100101 10000001100 10000110111 1011110101 1100111100 1101110111 1011101100 1101011110 1011011001 1011111110 10000100111 10000111000 1100001111 1100001010 1100000011 1011110100 21.000 53.307 1003.8 15564 18 -374 39 58 51 3 $GNGGA,114003.00,4333.69361,N,00128.73890,E,1,07,2.13,133.2,M,53.8,M,,*4D
16 11 40 04 4333.6940800128.73899133.0~ 00128.73899 133.0 1101011000 1100010110 1100100101 10000001011 10000110011 1011110101 1100111111 1101110101 1011100111 1101011110 1011011001 1100000001 10000101001 10000110111 1100001001 1100000010 1100000101 1011110110 21.000 53.292 1003.8 16564 17 -373 39 58 52 3 $GNGGA,114004.00,4333.69408,N,00128.73899,E,1,07,2.13,133.0,M,53.8,M,,*49
17 11 40 05 4333.6941100128.73866132.9~ 00128.73866 132.9 1101011000 1100010011 1100100011 10000001101 10000110110 1011110000 1100111001 1101111000 1011101101 1101011110 1011010110 1011111111 10000100001 10000111001 1100001010 1100000011 1011110011 1011101111 21.000 53.254 1003.8 17564 17 -375 39 59 51 3 $GNGGA,114005.00,4333.69411,N,00128.73866,E,1,07,2.13,132.9,M,53.8,M,,*48
18 11 40 06 4333.6940500128.73912132.5~ 00128.73912 132.5 1101011000 1100010101 1100100111 10000001001 10000110111 1011110000 1100110110 1101110010 1011101010 1101011110 1011010111 1011111110 10000100101 10000111011 1100000101 1100000010 1011111111 1011111001 21.000 53.231 1003.8 18564 18 -374 38 58 51 4 $GNGGA,114006.00,4333.69405,N,00128.73912,E,1,07,2.13,132.5,M,53.8,M,,*40
19 11 40 07 4333.6938500128.73887132.0~ 00128.73887 132.0 1101011000 1100010011 1100100101 10000001100 10000110101 1011110000 1100111000 1101111000 1011110000 1101011110 1011011010 1011111110 10000100011 10000111001 1100000110 1011111111 1100000100 1011110110 21.000 53.223 1003.8 19564 17 -376 39 59 51 3 $GNGGA,114007.00,4333.69385,N,00128.73887,E,1,07,2.13,132.0,M,53.8,M,,*46
20 11 40 08 4333.6936300128.73913131.8~ 00128.73913 131.8 1101011000 1100010010 1100100110 10000001001 10000110011 1011110100 1100111000 1101110001 1011100110 1101011110 1011011001 1100000001 10000101011 10000111010 1100001010 1100000100 1100000010 1011111001 21.000 53.208 1003.8 20564 18 -377 39 58 51 3 $GNGGA,114008.00,4333.69363,N,00128.73913,E,1,07,2.13,131.8,M,53.8,M,,*46
21 11 40 09 4333.6936000128.73867131.4~ 00128.73867 131.4 1101011000 1100010100 1100100101 10000010010 10000110111 1011110000 1100111010 1101110100 1011101001 1101011110 1011011010 1011111111 10000101001 10000111011 1100001011 1100000111 1100000000 1011110100 21.000 53.193 1003.8 21564 17 -380 39 59 51 3 $GNGGA,114009.00,4333.69360,N,00128.73867,E,1,07,2.13,131.4,M,53.8,M,,*4A
22 11 40 10 4333.6935900128.73877130.9~ 00128.73877 130.9 1101011000 1100010101 1100101011 10000010001 10000110110 1011110001 1100111000 1101101011 1011011101 1101011110 1011011010 1011111111 10000101001 10000111010 1100001010 1100000101 1100000000 1011111110 21.000 53.185 1003.8 22564 18 -378 39 58 51 3 $GNGGA,114010.00,4333.69359,N,00128.73877,E,1,08,1.20,130.9,M,53.8,M,,*49
23 11 40 11 4333.6936900128.73852130.6~ 00128.73852 130.6 1101011000 1100010110 1100100110 10000001111 10000110110 1011111000 1100111000 1101101010 1011100100 1101011110 1011011001 1100000000 10000101001 10000111010 1100010010 1100000110 1100001000 1011111010 21.000 53.185 1003.8 23564 17 -379 39 58 52 3 $GNGGA,114011.00,4333.69369,N,00128.73852,E,1,08,1.20,130.6,M,53.8,M,,*43
24 11 40 12 4333.6938100128.73869130.3~ 00128.73869 130.3 1101011000 1100010100 1100101000 10000001101 10000110110 1011110101 1100111100 1101101011 1011100100 1101011101 1011010110 1011111111 10000100100 10000111000 1100001101 1100000010 1100000010 1011111010 21.000 53.185 1003.8 24564 17 -380 39 58 51 3 $GNGGA,114012.00,4333.69381,N,00128.73869,E,1,08,1.20,130.3,M,53.8,M,,*4B
25 11 40 13 4333.6939200128.73823129.7~ 00128.73823 129.7 1101011000 1100010110 1100101000 10000001001 10000110011 1011110100 1100111111 1101110101 1011101000 1101011110 1011011011 1100000000 10000101110 10000111100 1100001110 1100000100 1011111111 1011111011 21.000 53.368 1003.9 25564 18 -381 38 58 51 4 $GNGGA,114013.00,4333.69392,N,00128.73823,E,1,08,1.20,129.7,M,53.8,M,,*4A
26 11 40 14 4333.6940900128.73726130.0~ 00128.73726 130.0 1101011000 1100010100 1100100101 10000001101 10000110100 1011110011 1100111010 1101110010 1011101101 1101011110 1011011000 1100000000 10000100010 10000110111 1100001101 1100000100 1100000001 1011111011 21.000 53.322 1003.9 26564 17 -381 39 59 51 3 $GNGGA,114014.00,4333.69409,N,00128.73726,E,1,08,1.20,130.0,M,53.8,M,,*4D
27 11 40 15 4333.6943200128.73736129.7~ 00128.73736 129.7 1101011000 1100010011 1100100110 10000001000 10000110011 1011110000 1100110110 1101110000 1011100100 1101011110 1011010110 1011111111 10000100010 10000111010 1100001010 1100000010 1011111101 1011110101 21.000 53.277 1003.9 27564 18 -380 39 58 51 3 $GNGGA,114015.00,4333.69432,N,00128.73736,E,1,08,1.20,129.7,M,53.8,M,,*4A
28 11 40 16 4333.6947700128.73816129.2~ 00128.73816 129.2 1101011000 1100010101 1100100111 10000001101 10000110110 1011110010 1100110111 1101111001 1011101100 1101011110 1011011000 1100000010 10000100001 10000111001 1100001111 1100000100 1100000111 1100000001 21.063 53.299 1003.9 28564 17 -382 39 59 51 3 $GNGGA,114016.00,4333.69477,N,00128.73816,E,1,08,1.20,129.2,M,53.8,M,,*40
29 11 40 17 4333.6949600128.73848128.7~ 00128.73848 128.7 1101011000 1100010110 1100100111 10000001101 10000110111 1011110011 1100111100 1101101001 1011011010 1101011110 1011011001 1011111111 10000101101 10000111000 1100000111 1100000100 1100000111 1100000010 21.000 53.788 1003.9 29564 18 -383 39 58 51 3 $GNGGA,114017.00,4333.69496,N,00128.73848,E,1,08,1.20,128.7,M,53.8,M,,*41
30 11 40 18 4333.6952200128.73930127.9~ 00128.73930 127.9 1101011000 1100010110 1100100111 10000001101 10000110110 1011110100 1100110110 1101110010 1011101101 1101011110 1011011001 1100000010 10000100111 10000111010 1100001001 1100000011 1100001000 1100000001 21.063 54.337 1003.9 30564 17 -385 39 58 52 3 $GNGGA,114018.00,4333.69522,N,00128.73930,E,1,08,1.20,127.9,M,53.8,M,,*4F
31 11 40 19 4333.6950500128.73942127.4~ 00128.73942 127.4 1101011000 1100010100 1100101000 10000001010 10000110101 1011110010 1100111100 1101110010 1011101100 1101011110 1011010111 1011111101 10000100100 10000111011 1100001011 1100000100 1100000110 1100000000 21.063 54.284 1003.9 31564 18 -385 39 58 51 3 $GNGGA,114019.00,4333.69505,N,00128.73942,E,1,08,1.52,127.4,M,53.8,M,,*46
32 11 40 20 4333.6951100128.73928127.0~ 00128.73928 127.0 1101011000 1100010011 1100100111 10000010001 10000111001 1011110100 1100111011 1101100110 1011100001 1101011110 1011011001 1100000011 10000100110 10000111001 1100001010 1100000010 1100000100 1011110011 21.063 54.192 1003.9 32564 17 -390 39 58 52 3 $GNGGA,114020.00,4333.69511,N,00128.73928,E,1,08,1.52,127.0,M,53.8,M,,*41
33 11 40 21 4333.6948300128.73915126.5~ 00128.73915 126.5 1101011000 1100010100 1100100111 10000001101 10000111000 1011110011 1100110111 1101101111 1011101101 1101011110 1011011001 1011111111 10000101000 10000111011 1100000111 1100000000 1100000000 1011101100 21.063 53.986 1003.9 33564 17 -387 39 59 51 3 $GNGGA,114021.00,4333.69483,N,00128.73915,E,1,08,1.52,126.5,M,53.8,M,,*40
34 11 40 22 4333.6954600128.73929125.9~ 00128.73929 125.9 1101011000 1100010011 1100100101 10000001111 10000111001 1011110001 1100110111 1101110110 1011101111 1101011101 1011011010 1011111111 10000101101 10000111010 1100001001 1100000110 1100000011 1100000001 21.063 53.811 1003.8 34564 18 -387 38 58 51 4 $GNGGA,114022.00,4333.69546,N,00128.73929,E,1,09,1.06,125.9,M,53.8,M,,*4B
35 11 40 23 4333.6948500128.73822127.1~ 00128.73822 127.1 1101011000 1100010100 1100100111 10000001110 10000110110 1011110010 1100111011 1101110001 1011101110 1101011110 1011011010 1011111111 10000101000 10000111001 1100001001 1100000001 1011111000 1011110100 21.063 53.597 1003.8 35564 17 -388 39 59 51 3 $GNGGA,114023.00,4333.69485,N,00128.73822,E,1,10,0.86,127.1,M,53.8,M,,*45
36 11 40 24 4333.6948400128.73813126.7~ 00128.73813 126.7 1101011000 1100010100 1100100111 10000010001 10000110111 1011110000 1100110110 1101110101 1011100011 1101011110 1011011001 1100000001 10000100110 10000111000 1100001001 1011111101 1011111110 1011110101 21.063 53.467 1003.8 36564 18 -391 39 58 51 3 $GNGGA,114024.00,4333.69484,N,00128.73813,E,1,08,1.11,126.7,M,53.8,M,,*40
37 11 40 25 4333.6950800128.73810126.5~ 00128.73810 126.5 1101011000 1100010000 1100100111 10000001101 10000110110 1011110110 1100111011 1101110110 1011101111 1101011101 1011010110 1100000000 10000101010 10000111101 1100001011 1100000101 1100000000 1011111011 21.063 53.383 1003.8 37564 17 -391 39 59 51 3 $GNGGA,114025.00,4333.69508,N,00128.73810,E,1,08,1.11,126.5,M,53.8,M,,*45
38 11 40 26 4333.6958200128.73797126.1~ 00128.73797 126.1 1101011000 1100010101 1100100110 10000010000 10000110101 1011110001 1100111011 1101111010 1011100111 1101011110 1011011010 1100000000 10000100111 10000111010 1100000100 1011111110 1011111100 1011110000 21.063 53.299 1003.8 38564 18 -393 39 58 51 3 $GNGGA,114026.00,4333.69582,N,00128.73797,E,1,08,1.11,126.1,M,53.8,M,,*40
39 11 40 27 4333.6962400128.73810125.8~ 00128.73810 125.8 1101011000 1100010100 1100101000 10000010011 10000110100 1011111000 1100111100 1101110001 1011100100 1101011110 1011011001 1011111101 10000101010 10000111100 1100000101 1011111100 1100000011 1011111000 21.063 53.208 1003.8 39564 17 -392 39 58 52 3 $GNGGA,114027.00,4333.69624,N,00128.73810,E,1,08,1.11,125.8,M,53.8,M,,*44
40 11 40 28 4333.6962100128.73767126.8~ 00128.73767 126.8 1101011000 1100010100 1100100111 10000001100 10000110101 1011110011 1100111101 1101110001 1011100111 1101011110 1011011000 1011111111 10000101010 10000111010 1100001001 1100000010 1100000010 1011111110 21.063 53.162 1003.8 40564 17 -394 39 58 51 3 $GNGGA,114028.00,4333.69621,N,00128.73767,E,1,09,0.92,126.8,M,53.8,M,,*49
41 11 40 29 4333.6958800128.73712128.1~ 00128.73712 128.1 1101011000 1100010011 1100100110 10000001011 10000110100 1011110010 1100111100 1101110011 1011100111 1101011110 1011010111 1100000000 10000100011 10000111010 1100001011 1100000111 1100000100 1011110100 21.063 53.155 1003.8 41564 18 -395 38 58 51 4 $GNGGA,114029.00,4333.69588,N,00128.73712,E,1,09,0.92,128.1,M,53.8,M,,*4D
42 11 40 30 4333.6953700128.73672129.4~ 00128.73672 129.4 1101011000 1100010000 1100100100 10000010001 10000111000 1011111000 1100111110 1101101101 1011101100 1101011110 1011011010 1100000000 10000101101 10000111111 1100000110 1011111111 1100000100 1011111011 21.063 53.177 1003.8 42564 17 -395 39 59 51 3 $GNGGA,114030.00,4333.69537,N,00128.73672,E,1,09,0.92,129.4,M,53.8,M,,*42
43 11 40 31 4333.6949400128.73644130.2~ 00128.73644 130.2 1101011000 1100010101 1100100111 10000010010 10000111010 1011110010 1100110111 1101101101 1011101101 1101011110 1011011010 1100000001 10000100101 10000111100 1100001010 1100000011 1011111011 1011110100 21.063 53.170 1003.8 43564 18 -397 39 58 51 3 $GNGGA,114031.00,4333.69494,N,00128.73644,E,1,09,0.92,130.2,M,53.8,M,,*40
44 11 40 32 4333.6948400128.73622131.1~ 00128.73622 131.1 1101011000 1100010101 1100100111 10000001011 10000110101 1011110011 1100111011 1101101100 1011101000 1101011110 1011011000 1100000001 10000100100 10000111001 1100001111 1100000100 1011111101 1011111001 21.063 53.147 1003.8 44564 17 -398 39 59 51 3 $GNGGA,114032.00,4333.69484,N,00128.73622,E,1,09,0.92,131.1,M,53.8,M,,*40
45 11 40 33 4333.6949300128.73655130.6~ 00128.73655 130.6 1101011000 1100010100 1100100101 10000010000 10000110110 1011110001 1100110110 1101101011 1011100011 1101011110 1011011010 1011111111 10000101010 10000111011 1100001011 1100000110 1100000101 1011111011 21.063 53.155 1003.8 45564 18 -399 39 58 51 3 $GNGGA,114033.00,4333.69493,N,00128.73655,E,1,07,1.29,130.6,M,53.8,M,,*4E
46 11 40 34 4333.6948400128.73684130.1~ 00128.73684 130.1 1101011000 1100010001 1100100011 10000010011 10000111011 1011110100 1100110110 1101110011 1011101001 1101011110 1011011001 1100000001 10000100111 10000111001 1100001111 1100001000 1100000010 1011110111 21.063 53.147 1003.8 46564 17 -403 39 58 52 3 $GNGGA,114034.00,4333.69484,N,00128.73684,E,1,07,1.29,130.1,M,53.8,M,,*44
47 11 40 35 4333.6956100128.73668129.9~ 00128.73668 129.9 1101011000 1100010101 1100100110 10000001110 10000110110 1011110011 1100110110 1101110111 1011101101 1101011110 1011010111 1100000000 10000101010 10000111001 1100001010 1100000011 1100000010 1011110111 21.063 53.185 1003.8 47564 18 -402 39 58 51 3 $GNGGA,114035.00,4333.69561,N,00128.73668,E,1,08,1.11,129.9,M,53.8,M,,*49
48 11 40 36 4333.6957800128.73679129.6~ 00128.73679 129.6 1101011000 1100010110 1100100111 10000010000 10000111001 1011110011 1100110111 1101111001 1011100110 1101011110 1011010111 1011111101 10000100110 10000111001 1100001000 1100000100 1011111111 1011110110 21.063 53.292 1003.8 48564 17 -403 39 58 52 3 $GNGGA,114036.00,4333.69578,N,00128.73679,E,1,08,1.11,129.6,M,53.8,M,,*4D
49 11 40 37 4333.6955300128.73708129.1~ 00128.73708 129.1 1101011000 1100010111 1100101001 10000001000 10000110001 1011110000 1100111000 1101111011 1011110001 1101011101 1011010111 1100000011 10000101111 10000111011 1100001100 1100000011 1100000000 1011110111 21.063 53.315 1003.8 49564 17 -403 39 59 51 3 $GNGGA,114037.00,4333.69553,N,00128.73708,E,1,08,1.11,129.1,M,53.8,M,,*45
50 11 40 38 4333.6956500128.73733128.8~ 00128.73733 128.8 1101011000 1100010100 1100100110 10000001101 10000111000 1011110111 1101000000 1101110111 1011100001 1101011110 1011011010 1011111110 10000100011 10000111000 1100001001 1011111111 1011111110 1011111101 21.063 53.277 1003.9 50564 18 -407 38 58 51 4 $GNGGA,114038.00,4333.69565,N,00128.73733,E,1,07,1.29,128.8,M,53.8,M,,*4B
51 11 40 39 4333.6958000128.73744128.4~ 00128.73744 128.4 1101011000 1100010010 1100100100 10000010000 10000110101 1011110101 1100111001 1101111001 1011101111 1101011110 1011011000 1011111111 10000101011 10000111011 1100001110 1100000010 1100000001 1011111001 21.063 53.200 1003.8 51564 17 -406 39 59 51 3 $GNGGA,114039.00,4333.69580,N,00128.73744,E,1,07,1.29,128.4,M,53.8,M,,*4D
52 11 40 40 4333.6956600128.73765127.9~ 00128.73765 127.9 1101011000 1100010101 1100101000 10000010010 10000110110 1011101110 1100110101 1101111000 1011101100 1101011110 1011011001 1100000001 10000100111 10000111011 1100001111 1100000011 1100000111 1100000000 21.063 53.139 1003.8 52564 18 -407 39 58 51 3 $GNGGA,114040.00,4333.69566,N,00128.73765,E,1,07,1.29,127.9,M,53.8,M,,*4A
53 11 40 41 4333.6957000128.73790127.4~ 00128.73790 127.4 1101011000 1100010010 1100100101 10000010100 10000111000 1011110011 1100111011 1101110101 1011101000 1101011110 1011011001 1011111110 10000101000 10000111100 1100001010 1100000010 1100000100 1011111011 21.063 53.086 1003.8 53564 17 -408 39 59 51 3 $GNGGA,114041.00,4333.69570,N,00128.73790,E,1,07,1.29,127.4,M,53.8,M,,*4B
54 11 40 42 4333.6960500128.73813126.8~ 00128.73813 126.8 1101011000 1100010011 1100100111 10000010010 10000110111 1011110011 1100110111 1101111111 1011101101 1101011110 1011011001 1011111111 10000100100 10000111100 1100001011 1100000001 1011111111 1011110111 21.000 53.055 1003.8 54564 18 -410 39 58 51 3 $GNGGA,114042.00,4333.69605,N,00128.73813,E,1,07,1.29,126.8,M,53.8,M,,*40
55 11 40 43 4333.6962900128.73827126.4~ 00128.73827 126.4 1101011000 1100010101 1100101000 10000010111 10000110110 1011110101 1100111111 1101111001 1011101110 1101011110 1011011000 1100000010 10000101011 10000111011 1100001111 1100000001 1011111010 1011101010 21.063 53.063 1003.8 55564 17 -411 39 58 52 3 $GNGGA,114043.00,4333.69629,N,00128.73827,E,1,07,1.29,126.4,M,53.8,M,,*44
56 11 40 44 4333.6966900128.73830126.2~ 00128.73830 126.2 1101011000 1100010100 1100100100 10000001111 10000110110 1011101010 1100110111 1101111100 1011101001 1101011110 1011011001 1100000000 10000101000 10000111010 1100001100 1100000101 1100000001 1011101110 21.063 53.063 1003.8 56564 17 -411 39 58 51 3 $GNGGA,114044.00,4333.69669,N,00128.73830,E,1,06,2.33,126.2,M,53.8,M,,*4E
57 11 40 45 4333.6970300128.73834125.8~ 00128.73834 125.8 1101011000 1100010011 1100101000 10000001010 10000110100 1011111000 1100111101 1101110010 1011100011 1101011110 1011010110 1011111100 10000101000 10000111001 1100001001 1100000010 1100000000 1011110100 21.063 53.048 1003.8 57564 18 -412 38 58 51 4 $GNGGA,114045.00,4333.69703,N,00128.73834,E,1,06,1.93,125.8,M,53.8,M,,*46
58 11 40 46 4333.6968900128.73860125.3~ 00128.73860 125.3 1101011000 1100010101 1100101000 10000001010 10000110010 1011110010 1100111000 1101110110 1011101111 1101011110 1011011001 1011111110 10000101011 10000111100 1100000111 1100000000 1100000001 1011110110 21.063 53.048 1003.8 58564 17 -414 39 59 51 3 $GNGGA,114046.00,4333.69689,N,00128.73860,E,1,06,1.93,125.3,M,53.8,M,,*4C
59 11 40 47 4333.6970300128.73863125.0~ 00128.73863 125.0 1101011000 1100010100 1100100100 10000010000 10000110101 1011110100 1100111000 1101101101 1011100110 1101011101 1011010110 1011111111 10000100100 10000111010 1100001000 1100000100 1100001011 1100000010 21.063 53.032 1003.8 59564 18 -413 39 58 51 3 $GNGGA,114047.00,4333.69703,N,00128.73863,E,1,05,2.80,125.0,M,53.8,M,,*4C
60 11 40 48 4333.6961700128.73885124.6~ 00128.73885 124.6 1101011000 1100010101 1100101001 10000010010 10000111000 1011111011 1101000010 1101110100 1011101000 1101011110 1011011000 1011111101 10000101100 10000111011 1100001000 1011111111 1100000000 1011110101 21.063 53.040 1003.8 60564 17 -416 39 59 51 3 $GNGGA,114048.00,4333.69617,N,00128.73885,E,1,06,2.33,124.6,M,53.8,M,,*43
61 11 40 49 4333.6963100128.73891124.3~ 00128.73891 124.3 1101011000 1100010100 1100100110 10000001101 10000110101 1011110001 1100110001 1101110010 1011101011 1101011110 1011010110 1011111111 10000100111 10000111010 1100001101 1100000101 1100010001 1100001010 21.063 53.071 1003.8 61564 18 -419 39 58 51 3 $GNGGA,114049.00,4333.69631,N,00128.73891,E,1,06,1.93,124.3,M,53.8,M,,*4F
62 11 40 50 4333.6964500128.73888124.1~ 00128.73888 124.1 1101011000 1100010011 1100101001 10000001111 10000110100 1011110010 1100110101 1101101101 1011100111 1101011110 1011011100 1100000011 10000100110 10000111001 1100001100 1011111110 1100000011 1011111100 21.063 53.032 1003.8 62564 17 -418 39 58 52 3 $GNGGA,114050.00,4333.69645,N,00128.73888,E,1,05,2.80,124.1,M,53.8,M,,*4C
63 11 40 51 4333.6963600128.73897124.0~ 00128.73897 124.0 1101011000 1100010010 1100100100 10000001001 10000110100 1011110001 1100111110 1101110001 1011100001 1101011110 1011011000 1011111111 10000101000 10000111001 1100001100 1100000011 1100000011 1011110110 21.063 53.032 1003.8 63564 18 -420 39 58 51 3 $GNGGA,114051.00,4333.69636,N,00128.73897,E,1,05,2.80,124.0,M,53.8,M,,*46
64 11 40 52 4333.6967900128.73895123.9~ 00128.73895 123.9 1101011000 1100010110 1100101000 10000001001 10000110011 1011110101 1100111100 1101110000 1011101010 1101011101 1011011001 1011111111 10000101101 10000111100 1100001010 1100000011 1011111110 1011110101 21.063 53.048 1003.8 64564 17 -421 39 58 52 3 $GNGGA,114052.00,4333.69679,N,00128.73895,E,1,04,3.75,123.9,M,53.8,M,,*48
65 11 40 53 4333.6963300128.73909123.9~ 00128.73909 123.9 1101011000 1100010011 1100100111 10000001001 10000110110 1011110101 1100111011 1101110010 1011110001 1101011110 1011011000 1011111111 10000100101 10000111011 1100001010 1100000010 1100000110 1100000001 21.063 53.048 1003.8 65564 17 -423 39 59 51 3 $GNGGA,114053.00,4333.69633,N,00128.73909,E,1,04,3.75,123.9,M,53.8,M,,*43
66 11 40 54 4333.6963800128.73911123.8~ 00128.73911 123.8 1101011000 1100010011 1100100101 10000010010 10000111001 1011110100 1100111100 1101101100 1011100010 1101011110 1011011001 1100000001 10000100111 10000111010 1100001100 1100000100 1100001001 1011110110 21.063 53.032 1003.8 66564 18 -423 38 58 51 4 $GNGGA,114054.00,4333.69638,N,00128.73911,E,1,04,3.74,123.8,M,53.8,M,,*46
67 11 40 55 4333.6962200128.73915123.9~ 00128.73915 123.9 1101011000 1100010011 1100100111 10000001001 10000110101 1011110011 1100110110 1101110100 1011100111 1101011110 1011011000 1100000001 10000100001 10000111001 1100001010 1100000010 1100000001 1011111011 21.063 53.017 1003.8 67564 17 -424 39 59 51 3 $GNGGA,114055.00,4333.69622,N,00128.73915,E,1,04,3.74,123.9,M,53.8,M,,*49
68 11 40 56 4333.6958400128.73928123.9~ 00128.73928 123.9 1101011000 1100010011 1100100101 10000010011 10000110111 1011110111 1100111010 1101110000 1011101000 1101011110 1011010101 1100000000 10000101100 10000111011 1100001001 1100000100 1100000011 1011111110 21.063 53.017 1003.8 68564 18 -424 39 58 51 3 $GNGGA,114056.00,4333.69584,N,00128.73928,E,1,04,3.74,123.9,M,53.8,M,,*4B
69 11 40 57 4333.6960300128.73926124.1~ 00128.73926 124.1 1101011000 1100010011 1100100111 10000010010 10000110111 1011110110 1100111011 1101101101 1011100111 1101011110 1011010101 1100000000 10000100110 10000111000 1100001010 1100000110 1100000011 1011111111 21.063 53.025 1003.8 69564 17 -425 39 59 51 3 $GNGGA,114057.00,4333.69603,N,00128.73926,E,1,05,2.52,124.1,M,53.8,M,,*43
70 11 40 58 4333.6968900128.73913124.4~ 00128.73913 124.4 1101011000 1100010010 1100100110 10000001000 10000110010 1011110000 1100110101 1101110001 1011101001 1101011110 1011011001 1011111111 10000101011 10000111011 1100010000 1100000011 1011111011 1011110101 21.063 53.032 1003.8 70564 18 -425 39 58 51 3 $GNGGA,114058.00,4333.69689,N,00128.73913,E,1,05,2.52,124.4,M,53.8,M,,*4D
71 11 40 59 4333.6968400128.73904124.5~ 00128.73904 124.5 1101011000 1100010101 1100101000 10000001101 10000110110 1011101010 1100110011 1101110100 1011101001 1101011110 1011011000 1100000000 10000101110 10000111010 1100001011 1100000100 1100000101 1011110111 21.063 53.040 1003.8 71564 17 -428 39 58 52 3 $GNGGA,114059.00,4333.69684,N,00128.73904,E,1,04,3.74,124.5,M,53.8,M,,*42
72 11 41 00 4333.6949400128.73938125.1~ 00128.73938 125.1 1101011000 1100010001 1100100101 10000010000 10000111001 1011110010 1100111101 1101110101 1011110011 1101011101 1011011010 1100000001 10000101101 10000111011 1100001110 1100000101 1100000001 1011110111 21.063 53.048 1003.8 72564 17 -430 39 58 51 3 $GNGGA,114100.00,4333.69494,N,00128.73938,E,1,06,1.61,125.1,M,53.8,M,,*42
73 11 41 01 4333.6940400128.73921125.5~ 00128.73921 125.5 1101011000 1100011000 1100101000 10000001111 10000110110 1011110000 1100111000 1101110000 1011101000 1101011110 1011011000 1100000010 10000101001 10000111010 1100001001 1100000001 1100000100 1011110111 21.063 53.032 1003.8 73564 18 -429 38 58 51 4 $GNGGA,114101.00,4333.69404,N,00128.73921,E,1,06,1.61,125.5,M,53.8,M,,*46
74 11 41 02 4333.6923900128.73939125.6~ 00128.73939 125.6 1101011000 1100010100 1100101001 10000001111 10000110100 1011101101 1100110011 1101110111 1011110100 1101011101 1011011000 1011111111 10000101000 10000111011 1100000111 1011111111 1100001000 1011110111 21.063 53.025 1003.8 74564 17 -428 39 59 51 3 $GNGGA,114102.00,4333.69239,N,00128.73939,E,1,07,1.55,125.6,M,53.8,M,,*41
75 11 41 03 4333.6921000128.73953125.8~ 00128.73953 125.8 1101011000 1100010110 1100101000 10000010000 10000111000 1011110011 1100111011 1101111000 1011101111 1101011110 1011011100 1100000010 10000100110 10000111010 1100001001 1011111111 1100001101 1011111110 21.063 53.025 1003.8 75564 18 -428 39 58 51 3 $GNGGA,114103.00,4333.69210,N,00128.73953,E,1,07,1.55,125.8,M,53.8,M,,*49
76 11 41 04 4333.6918500128.73956126.0~ 00128.73956 126.0 1101011000 1100010001 1100100011 10000001110 10000110110 1011110010 1100110011 1101110101 1011100010 1101011110 1011011010 1100000001 10000100100 10000111010 1100001111 1100000010 1100001101 1011111101 21.063 53.025 1003.8 76564 17 -429 39 59 51 3 $GNGGA,114104.00,4333.69185,N,00128.73956,E,1,07,1.55,126.0,M,53.8,M,,*4F
77 11 41 05 4333.6915300128.73973126.2~ 00128.73973 126.2 1101011000 1100010100 1100100110 10000010010 10000110110 1011110100 1100111000 1101110000 1011011111 1101011110 1011011011 1100000000 10000100101 10000111101 1100001010 1011111110 1100000110 1011111110 21.063 53.025 1003.8 77564 18 -433 39 58 51 3 $GNGGA,114105.00,4333.69153,N,00128.73973,E,1,07,1.55,126.2,M,53.8,M,,*40
78 11 41 06 4333.6913800128.73984126.4~ 00128.73984 126.4 1101011000 1100010011 1100100110 10000010101 10000111000 1011111000 1100111111 1101110110 1011100101 1101011110 1011010101 1011111110 10000100011 10000111001 1100010000 1100000100 1100000111 1100000111 21.063 53.032 1003.8 78564 17 -433 39 58 52 3 $GNGGA,114106.00,4333.69138,N,00128.73984,E,1,07,1.55,126.4,M,53.8,M,,*40
79 11 41 07 4333.6912300128.74006126.5~ 00128.74006 126.5 1101011000 1100010100 1100101001 10000000110 10000110010 1011101100 1100110100 1101111000 1011100111 1101011110 1011010110 1100000000 10000100110 10000111010 1100001011 1100000100 1100000101 1100000000 21.063 53.040 1003.8 79564 18 -433 39 58 51 3 $GNGGA,114107.00,4333.69123,N,00128.74006,E,1,07,1.55,126.5,M,53.8,M,,*4E
80 11 41 08 4333.6911200128.74028126.8~ 00128.74028 126.8 1101011000 1100010010 1100100101 10000010000 10000110101 1011110110 1100111001 1101110010 1011011111 1101011110 1011011100 1100000000 10000101001 10000111011 1100001110 1100000010 1011111111 1011111111 21.063 53.040 1003.8 80564 17 -435 39 58 52 3 $GNGGA,114108.00,4333.69112,N,00128.74028,E,1,06,1.86,126.8,M,53.8,M,,*4D
81 11 41 09 4333.6911000128.74030127.3~ 00128.74030 127.3 1101011000 1100011000 1100101000 10000001100 10000110111 1011110001 1100111101 1101101001 1011011011 1101011110 1011011001 1100000000 10000101101 10000111100 1100001011 1100000011 1011111110 1011111110 21.063 53.071 1003.8 81564 17 -433 39 59 51 3 $GNGGA,114109.00,4333.69110,N,00128.74030,E,1,07,1.55,127.3,M,53.8,M,,*42
82 11 41 10 4333.6909300128.73977127.9~ 00128.73977 127.9 1101011000 1100010010 1100100110 10000001010 10000110110 1011110011 1100111010 1101100111 1011011111 1101011110 1011011000 1100000000 10000100111 10000111000 1100001111 1100000100 1011111110 1011110011 21.063 53.093 1003.8 82564 18 -437 38 58 51 4 $GNGGA,114110.00,4333.69093,N,00128.73977,E,1,07,1.55,127.9,M,53.8,M,,*47
83 11 41 11 4333.6909600128.73992128.4~ 00128.73992 128.4 1101011000 1100010011 1100100101 10000010000 10000110101 1011110110 1100111010 1101110111 1011101010 1101011101 1011010101 1011111101 10000101000 10000111011 1100001001 1100000110 1100000011 1011110101 21.063 53.109 1003.8 83564 17 -440 39 59 51 3 $GNGGA,114111.00,4333.69096,N,00128.73992,E,1,06,1.86,128.4,M,53.8,M,,*45
84 11 41 12 4333.6903700128.74018128.7~ 00128.74018 128.7 1101011000 1100010101 1100100111 10000010001 10000111010 1011111000 1100111111 1101101100 1011101000 1101011110 1011010111 1011111110 10000100001 10000111001 1100001000 1100000011 1100001001 1100000000 21.063 53.109 1003.8 84564 18 -440 39 58 51 3 $GNGGA,114112.00,4333.69037,N,00128.74018,E,1,06,1.85,128.7,M,53.8,M,,*41
85 11 41 13 4333.6899100128.74000129.0~ 00128.74000 129.0 1101011000 1100010100 1100101000 10000001101 10000110111 1011110111 1100111101 1101110000 1011100111 1101011110 1011011011 1100000001 10000101101 10000111100 1100001100 1011111111 1100000001 1011110010 21.063 53.109 1003.8 85564 17 -439 39 59 51 3 $GNGGA,114113.00,4333.68991,N,00128.74000,E,1,06,1.85,129.0,M,53.8,M,,*4B
86 11 41 14 4333.6897900128.74018129.1~ 00128.74018 129.1 1101011000 1100010101 1100100100 10000010001 10000110111 1011110011 1100111001 1101111010 1011110011 1101011110 1011010111 1100000001 10000101111 10000111100 1100001101 1100000111 1100001101 1011111111 21.063 53.109 1003.8 86564 18 -439 39 58 51 3 $GNGGA,114114.00,4333.68979,N,00128.74018,E,1,06,1.85,129.1,M,53.8,M,,*42
87 11 41 15 4333.6899300128.74002129.2~ 00128.74002 129.2 1101011000 1100010011 1100100101 10000011001 10000111001 1011110101 1100111001 1101110100 1011101010 1101011110 1011011001 1100000001 10000101010 10000111010 1100001110 1100000100 1100001011 1100000010 21.063 53.109 1003.8 87564 17 -441 39 58 52 3 $GNGGA,114115.00,4333.68993,N,00128.74002,E,1,06,1.85,129.2,M,53.8,M,,*4F
88 11 41 16 4333.6897800128.73977129.6~ 00128.73977 129.6 1101011000 1100010100 1100100100 10000010001 10000110111 1011110111 1100111111 1101111000 1011110010 1101011110 1011011001 1011111111 10000101010 10000111100 1100001001 1100000001 1100001000 1011111101 21.063 53.109 1003.8 88564 17 -443 39 58 51 3 $GNGGA,114116.00,4333.68978,N,00128.73977,E,1,06,1.85,129.6,M,53.8,M,,*41
89 11 41 17 4333.6892800128.74003129.8~ 00128.74003 129.8 1101011000 1100010011 1100100110 10000010000 10000110110 1011110001 1100111000 1101110110 1011101100 1101011110 1011010110 1011111111 10000100010 10000111000 1100000111 1011111110 1100000010 1011111000 21.063 53.101 1003.8 89564 18 -444 38 58 51 4 $GNGGA,114117.00,4333.68928,N,00128.74003,E,1,06,1.85,129.8,M,53.8,M,,*46
90 11 41 18 4333.6892300128.74024129.9~ 00128.74024 129.9 1101011000 1100010100 1100100111 10000010010 10000110100 1011110111 1100111000 1101110001 1011100110 1101011110 1011011001 1100000000 10000100101 10000111010 1100010000 1100000110 1100000001 1011110100 21.063 53.086 1003.8 90564 17 -447 39 59 51 3 $GNGGA,114118.00,4333.68923,N,00128.74024,E,1,06,1.85,129.9,M,53.8,M,,*46
91 11 41 19 4333.6892700128.74050129.8~ 00128.74050 129.8 1101011000 1100010010 1100100111 10000010000 10000110111 1011110110 1100111100 1101101100 1011011101 1101011110 1011010110 1011111110 10000100101 10000111011 1100001110 1100000110 1100001000 1011111011 21.063 53.078 1003.8 91564 18 -445 39 58 51 3 $GNGGA,114119.00,4333.68927,N,00128.74050,E,1,06,1.85,129.8,M,53.8,M,,*41
92 11 41 20 4333.6893100128.74070129.8~ 00128.74070 129.8 1101011000 1100010100 1100100110 10000001001 10000110010 1011110101 1101000000 1101110100 1011101011 1101011110 1011010111 1100000001 10000101100 10000111101 1100001100 1100000000 1100001001 1011111010 21.063 53.093 1003.8 92564 17 -447 39 59 51 3 $GNGGA,114120.00,4333.68931,N,00128.74070,E,1,06,1.85,129.8,M,53.8,M,,*4E
93 11 41 21 4333.6892700128.74085129.9~ 00128.74085 129.9 1101011000 1100010011 1100101000 10000010100 10000111001 1011111000 1100111110 1101110000 1011101000 1101011110 1011011011 1100000011 10000100111 10000111000 1100001011 1011111110 1100001000 1100000011 21.063 53.086 1003.8 93564 18 -448 39 58 51 3 $GNGGA,114121.00,4333.68927,N,00128.74085,E,1,06,1.85,129.9,M,53.8,M,,*43
