id HH MM SS longitude latitude altitude adc_1_ch0 adc_1_ch1 adc_1_ch2 adc_1_ch3 adc_1_ch4 adc_1_ch5 adc_1_ch6 adc_1_ch7 adc_1_ch8 adc_2_ch0 adc_2_ch1 adc_2_ch2 adc_2_ch3 adc_2_ch4 adc_2_ch5 adc_2_ch6 adc_2_ch7 adc_2_ch8 temp hum pres t_prog t_gps t_split t_adc t_temp t_hum t_pres trame_gga
1 11 41 36 4333.6909400128.74046133.2~ 00128.74046 133.2 1101011000 1100010010 1100100111 10000001011 10000111000 1011110111 1100111101 1101101111 1011100010 1101011110 1011010110 1011111110 10000101011 10000111001 1100001111 1100000110 1100001001 1100000000 21.063 53.132 795.83 1567 17 -225 14 58 51 3 $GNGGA,114136.00,4333.69094,N,00128.74046,E,1,06,1.85,133.2,M,53.8,M,,*4A
2 11 41 37 4333.6911100128.74061133.3~ 00128.74061 133.3 1101011000 1100010011 1100100100 10000010001 10000111000 1011110010 1100111001 1101111001 1011101010 1101011110 1011011011 1100000000 10000101011 10000111010 1100000111 1100000001 1100001011 1011111000 21.063 53.139 1003.8 2567 16 -224 14 58 52 3 $GNGGA,114137.00,4333.69111,N,00128.74061,E,1,06,1.85,133.3,M,53.8,M,,*43
3 11 41 38 4333.6917400128.74074133.4~ 00128.74074 133.4 1101011000 1100001111 1100100110 10000010001 10000111000 1011110000 1100101101 1101110111 1011011110 1101011110 1011010100 1011111110 10000100111 10000111001 1100010000 1100001000 1011111111 1011111100 21.063 53.132 1003.8 3567 17 -224 14 59 51 3 $GNGGA,114138.00,4333.69174,N,00128.74074,E,1,07,1.38,133.4,M,53.8,M,,*4B
4 11 41 39 4333.6922800128.74064133.6~ 00128.74064 133.6 1101011000 1100010101 1100101001 10000001011 10000111000 1011110011 1100111011 1101111010 1011100110 1101011110 1011010111 1011111111 10000100110 10000111100 1100001100 1100000001 1100000100 1011111101 21.125 53.147 1003.8 4567 16 -226 15 58 51 3 $GNGGA,114139.00,4333.69228,N,00128.74064,E,1,07,1.38,133.6,M,53.8,M,,*43
5 11 41 40 4333.6918200128.74058134.1~ 00128.74058 134.1 1101011000 1100010100 1100101001 10000001110 10000110101 1011101101 1100110101 1101111000 1011100101 1101011110 1011010111 1011111111 10000100100 10000111010 1100001111 1100000101 1100000100 1011111010 21.063 53.162 1003.8 5567 17 -229 14 59 51 3 $GNGGA,114140.00,4333.69182,N,00128.74058,E,1,07,1.38,134.1,M,53.8,M,,*41
6 11 41 41 4333.6919300128.74053134.3~ 00128.74053 134.3 1101011000 1100010101 1100101000 10000001111 10000110111 1011110011 1100110111 1101111000 1011100001 1101011110 1011011010 1100000010 10000100110 10000111100 1100001000 1100000010 1100001001 1100000001 21.063 53.170 1003.8 6567 16 -229 15 58 51 3 $GNGGA,114141.00,4333.69193,N,00128.74053,E,1,07,1.38,134.3,M,53.8,M,,*49
7 11 41 42 4333.6921100128.74039134.7~ 00128.74039 134.7 1101011000 1100010011 1100101000 10000010001 10000110111 1011110111 1100111101 1101110110 1011011110 1101011110 1011011011 1100000010 10000100101 10000111010 1100000110 1100000011 1100000011 1011111110 21.063 53.177 1003.8 7567 16 -230 14 58 52 3 $GNGGA,114142.00,4333.69211,N,00128.74039,E,1,07,1.38,134.7,M,53.8,M,,*4B
8 11 41 43 4333.6917600128.74021135.1~ 00128.74021 135.1 1101011001 1100010011 1100100111 10000010001 10000110110 1011110101 1100110111 1101111000 1011100001 1101011110 1011011001 1100000000 10000011101 10000110110 1100001011 1100000011 1100000101 1011111010 21.063 53.185 1003.8 8567 16 -229 15 58 51 3 $GNGGA,114143.00,4333.69176,N,00128.74021,E,1,07,1.38,135.1,M,53.8,M,,*46
9 11 41 44 4333.6919500128.74031135.1~ 00128.74031 135.1 1101011000 1100010100 1100100111 10000001110 10000110110 1011111000 1100111010 1101111000 1011101100 1101011110 1011011000 1100000000 10000100101 10000111010 1100001100 1100000111 1100000011 1011111000 21.063 53.193 1003.8 9567 16 -232 14 58 52 3 $GNGGA,114144.00,4333.69195,N,00128.74031,E,1,06,1.85,135.1,M,53.8,M,,*4A
10 11 41 45 4333.6922900128.74050135.0~ 00128.74050 135.0 1101011000 1100010000 1100100100 10000001101 10000110101 1011110001 1100110100 1101110101 1011100011 1101011110 1011011000 1100000001 10000100101 10000111000 1100001001 1100000101 1011111110 1011110101 21.063 53.193 1003.8 10567 17 -232 14 59 51 3 $GNGGA,114145.00,4333.69229,N,00128.74050,E,1,06,1.85,135.0,M,53.8,M,,*49
11 11 41 46 4333.6926500128.74067134.9~ 00128.74067 134.9 1101011000 1100010011 1100100110 10000001001 10000110101 1011110101 1100111011 1101110010 1011100011 1101011110 1011011010 1100000000 10000100110 10000111011 1100010100 1100001000 1100000011 1011111100 21.063 53.185 1003.8 11567 16 -233 14 58 51 4 $GNGGA,114146.00,4333.69265,N,00128.74067,E,1,06,1.85,134.9,M,53.8,M,,*4E
12 11 41 47 4333.6927400128.74093134.8~ 00128.74093 134.8 1101011000 1100010011 1100100101 10000001011 10000110011 1011110101 1100111100 1101110011 1011101011 1101011110 1011011100 1011111111 10000101001 10000111011 1100000110 1100000001 1100000011 1011110110 21.063 53.155 1003.8 12567 17 -237 14 59 51 3 $GNGGA,114147.00,4333.69274,N,00128.74093,E,1,06,1.85,134.8,M,53.8,M,,*45
13 11 41 48 4333.6935200128.74105134.6~ 00128.74105 134.6 1101011000 1100010100 1100100100 10000010100 10000111010 1011110000 1100111001 1101111001 1011101010 1101011110 1011011011 1011111111 10000100101 10000111001 1100001110 1100000101 1100000010 1011111110 21.063 53.155 1003.8 13568 16 -234 15 58 51 3 $GNGGA,114148.00,4333.69352,N,00128.74105,E,1,06,1.85,134.6,M,53.8,M,,*4F
14 11 41 49 4333.6939000128.74161134.8~ 00128.74161 134.8 1101011000 1100010110 1100101001 10000001111 10000110111 1011110101 1100111111 1101110010 1011101010 1101011110 1011011000 1011111111 10000100110 10000111100 1100001001 1100000100 1100001111 1100000101 21.063 53.269 1003.8 14568 17 -237 14 59 51 3 $GNGGA,114149.00,4333.69390,N,00128.74161,E,1,07,1.55,134.8,M,53.8,M,,*40
15 11 41 50 4333.6938200128.74140135.3~ 00128.74140 135.3 1101011000 1100010100 1100100110 10000001001 10000110101 1011111010 1100111011 1101111000 1011101100 1101011110 1011011010 1100000000 10000101100 10000111011 1100001000 1100000001 1100000000 1011111110 21.063 53.223 1003.8 15568 16 -238 15 58 51 3 $GNGGA,114150.00,4333.69382,N,00128.74140,E,1,07,1.55,135.3,M,53.8,M,,*42
16 11 41 51 4333.6940200128.74148135.5~ 00128.74148 135.5 1101011000 1100010011 1100100111 10000001100 10000110110 1011110001 1100110111 1101111010 1011101101 1101011110 1011011001 1011111101 10000100111 10000111001 1100001100 1100000101 1011111101 1011111011 21.063 53.208 1003.8 16568 16 -241 14 58 52 3 $GNGGA,114151.00,4333.69402,N,00128.74148,E,1,07,1.55,135.5,M,53.8,M,,*42
17 11 41 52 4333.6946800128.74145135.5~ 00128.74145 135.5 1101011000 1100010011 1100100100 10000010001 10000111010 1011110111 1100111011 1101111010 1011101101 1101011110 1011011001 1100000010 10000101100 10000111011 1100001100 1100000010 1011111110 1011111000 21.063 53.193 1003.8 17568 16 -240 15 58 51 3 $GNGGA,114152.00,4333.69468,N,00128.74145,E,1,07,1.55,135.5,M,53.8,M,,*40
18 11 41 53 4333.6948900128.74125135.4~ 00128.74125 135.4 1101011000 1100010000 1100100100 10000001101 10000110110 1011110101 1100111110 1101111000 1011110000 1101011110 1011011010 1100000010 10000110000 10000111101 1100000100 1100000000 1100000000 1011111010 21.125 53.193 1003.8 18568 16 -241 14 58 52 3 $GNGGA,114153.00,4333.69489,N,00128.74125,E,1,06,2.15,135.4,M,53.8,M,,*4F
19 11 41 54 4333.6950600128.74111135.6~ 00128.74111 135.6 1101011000 1100010100 1100101000 10000001011 10000110110 1011110010 1100111100 1101110011 1011100100 1101011110 1011010110 1011111111 10000101111 10000111010 1100001111 1100000110 1100000010 1011111011 21.063 53.193 1003.8 19568 17 -243 14 59 51 3 $GNGGA,114154.00,4333.69506,N,00128.74111,E,1,06,2.15,135.6,M,53.8,M,,*4B
20 11 41 55 4333.6953500128.74090135.8~ 00128.74090 135.8 1101011000 1100010011 1100100101 10000001100 10000110100 1011110010 1100111011 1101101101 1011011110 1101011110 1011011000 1011111110 10000100101 10000110111 1100001001 1100000011 1100000000 1011111000 21.125 53.193 1003.8 20568 16 -241 15 58 51 3 $GNGGA,114155.00,4333.69535,N,00128.74090,E,1,06,2.15,135.8,M,53.8,M,,*4C
21 11 41 56 4333.6952200128.74061136.2~ 00128.74061 136.2 1101011000 1100010101 1100101000 10000001101 10000110111 1011111010 1101000100 1101110011 1011101001 1101011110 1011011011 1011111111 10000101001 10000111100 1100001100 1100000011 1100000000 1011111000 21.063 53.193 1003.8 21568 18 -244 14 59 51 3 $GNGGA,114156.00,4333.69522,N,00128.74061,E,1,06,2.15,136.2,M,53.8,M,,*4E
22 11 41 57 4333.6951300128.74051136.3~ 00128.74051 136.3 1101011000 1100010101 1100100111 10000001101 10000110100 1011111011 1100111110 1101110001 1011100111 1101011110 1011010110 1011111110 10000101011 10000111101 1100010010 1100001000 1100000011 1011111010 21.063 53.208 1003.8 22568 16 -245 15 58 51 3 $GNGGA,114157.00,4333.69513,N,00128.74051,E,1,06,2.15,136.3,M,53.8,M,,*4F
23 11 41 58 4333.6947400128.74046136.7~ 00128.74046 136.7 1101011000 1100010101 1100101001 10000001100 10000110110 1011101111 1100110110 1101110100 1011101011 1101011110 1011011001 1100000001 10000100100 10000111010 1100001101 1011111110 1100000101 1011111111 21.063 53.231 1003.8 23568 17 -248 14 59 51 3 $GNGGA,114158.00,4333.69474,N,00128.74046,E,1,06,2.15,136.7,M,53.8,M,,*42
24 11 41 59 4333.6947600128.74024137.0~ 00128.74024 137.0 1101011000 1100010101 1100100110 10000001111 10000110110 1011110101 1100111100 1101101010 1011011010 1101011110 1011010101 1011111101 10000101110 10000111100 1100001101 1100001011 1011111101 1011111001 21.063 53.216 1003.8 24568 16 -247 15 58 51 3 $GNGGA,114159.00,4333.69476,N,00128.74024,E,1,06,2.15,137.0,M,53.8,M,,*43
25 11 42 00 4333.6955300128.73969137.1~ 00128.73969 137.1 1101011000 1100010100 1100100111 10000001110 10000110011 1011110001 1100111000 1101110110 1011101001 1101011110 1011011000 1011111111 10000100111 10000111011 1100000111 1100000100 1011111111 1011110100 21.063 53.216 1003.8 25568 16 -245 14 58 52 3 $GNGGA,114200.00,4333.69553,N,00128.73969,E,1,06,2.15,137.1,M,53.8,M,,*4C
26 11 42 01 4333.6954300128.73956137.2~ 00128.73956 137.2 1101011000 1100010100 1100101000 10000001110 10000110101 1011110001 1100110111 1101110110 1011100011 1101011110 1011010111 1100000001 10000101100 10000111100 1100001001 1100000001 1100001101 1011111100 21.063 53.223 1003.8 26568 17 -247 14 59 51 3 $GNGGA,114201.00,4333.69543,N,00128.73956,E,1,06,2.15,137.2,M,53.8,M,,*43
27 11 42 02 4333.6961100128.73958136.2~ 00128.73958 136.2 1101011000 1100010101 1100101010 10000001000 10000110111 1011110011 1100111010 1101110000 1011011010 1101011110 1011011000 1100000000 10000101001 10000111010 1100001010 1100000001 1100000001 1011111100 21.063 53.200 1003.8 27568 16 -248 14 58 51 4 $GNGGA,114202.00,4333.69611,N,00128.73958,E,1,07,1.03,136.2,M,53.8,M,,*4E
28 11 42 03 4333.6964500128.73977135.8~ 00128.73977 135.8 1101011000 1100010101 1100101000 10000001101 10000110101 1011110000 1100111001 1101110110 1011101010 1101011110 1011011001 1100000001 10000101011 10000111100 1100001000 1100000001 1100000110 1011111111 21.063 53.177 1003.8 28568 17 -251 14 59 51 3 $GNGGA,114203.00,4333.69645,N,00128.73977,E,1,06,1.11,135.8,M,53.8,M,,*48
29 11 42 04 4333.6966800128.73940135.8~ 00128.73940 135.8 1101011000 1100010111 1100101010 10000001010 10000111001 1011110011 1100111111 1101110011 1011011011 1101011110 1011010110 1011111110 10000101010 10000111010 1100001110 1100000011 1100000011 1011111110 21.063 53.155 1003.8 29568 16 -248 15 58 51 3 $GNGGA,114204.00,4333.69668,N,00128.73940,E,1,06,1.75,135.8,M,53.8,M,,*46
30 11 42 05 4333.6968100128.73884135.6~ 00128.73884 135.6 1101011001 1100010011 1100100100 10000000110 10000110010 1011101111 1100101101 1101110010 1011100010 1101011110 1011010111 1100000000 10000101010 10000111011 1100001100 1100000100 1100001101 1100000110 21.063 53.155 1003.8 30568 17 -251 14 59 51 3 $GNGGA,114205.00,4333.69681,N,00128.73884,E,1,07,1.74,135.6,M,53.8,M,,*47
31 11 42 06 4333.6964900128.73877135.6~ 00128.73877 135.6 1101011000 1100010011 1100100100 10000001011 10000110101 1011110110 1100111111 1101101111 1011011011 1101011110 1011011011 1100000000 10000100100 10000111011 1100001101 1100001001 1100001000 1011111011 21.063 53.147 1003.8 31568 16 -252 15 58 51 3 $GNGGA,114206.00,4333.69649,N,00128.73877,E,1,07,1.74,135.6,M,53.8,M,,*4C
32 11 42 07 4333.6958300128.73824135.5~ 00128.73824 135.5 1101011000 1100010001 1100100011 10000001010 10000110110 1011110111 1100111101 1101110101 1011100110 1101011110 1011010110 1011111110 10000100010 10000111000 1100000111 1100000010 1011111110 1011110010 21.063 53.162 1003.8 32568 16 -252 14 58 52 3 $GNGGA,114207.00,4333.69583,N,00128.73824,E,1,07,1.74,135.5,M,53.8,M,,*4D
33 11 42 08 4333.6954600128.73855135.1~ 00128.73855 135.1 1101011000 1100010100 1100101000 10000010001 10000111001 1011110101 1100110100 1101110000 1011100010 1101011110 1011011011 1100000001 10000101011 10000111011 1100001010 1100000011 1100000010 1011111001 21.063 53.170 1003.8 33568 16 -253 15 58 51 3 $GNGGA,114208.00,4333.69546,N,00128.73855,E,1,08,1.16,135.1,M,53.8,M,,*42
34 11 42 09 4333.6965700128.73779134.5~ 00128.73779 134.5 1101011000 1100010010 1100100110 10000001101 10000110110 1011110010 1100111010 1101111110 1011101111 1101011110 1011011001 1011111111 10000100111 10000111010 1100001001 1100000001 1100000101 1011111101 21.063 53.162 1003.8 34568 16 -256 14 58 52 3 $GNGGA,114209.00,4333.69657,N,00128.73779,E,1,08,1.16,134.5,M,53.8,M,,*44
35 11 42 10 4333.6972900128.73733134.1~ 00128.73733 134.1 1101011000 1100010001 1100100011 10000010010 10000110110 1011110110 1100111110 1101110100 1011100110 1101011110 1011011000 1011111111 10000100010 10000111010 1100001011 1100000100 1100000010 1011111001 21.063 53.162 1003.8 35568 17 -255 14 59 51 3 $GNGGA,114210.00,4333.69729,N,00128.73733,E,1,08,1.16,134.1,M,53.8,M,,*4E
36 11 42 11 4333.6973200128.73737133.2~ 00128.73737 133.2 1101011000 1100010010 1100100110 10000001010 10000110100 1011110110 1100111001 1101110001 1011101011 1101011101 1011011011 1100000001 10000100110 10000111010 1100010011 1100001000 1011111101 1011101111 21.063 53.162 1003.8 36568 16 -254 15 58 51 3 $GNGGA,114211.00,4333.69732,N,00128.73737,E,1,09,1.05,133.2,M,53.8,M,,*46
37 11 42 12 4333.6981100128.73714132.2~ 00128.73714 132.2 1101011000 1100010100 1100101000 10000001011 10000110100 1011101100 1100110010 1101111000 1011101101 1101011110 1011010111 1100000000 10000100101 10000111010 1100010000 1100000110 1100000100 1011111101 21.063 53.155 1003.8 37568 17 -255 14 59 51 3 $GNGGA,114212.00,4333.69811,N,00128.73714,E,1,09,1.05,132.2,M,53.8,M,,*4B
38 11 42 13 4333.6976200128.73634133.4~ 00128.73634 133.4 1101011000 1100010101 1100101011 10000001001 10000110100 1011110110 1100111010 1101110000 1011100110 1101011101 1011011001 1100000000 10000100110 10000111010 1100001011 1100000011 1100000000 1011111011 21.063 53.155 1003.8 38568 16 -257 15 58 51 3 $GNGGA,114213.00,4333.69762,N,00128.73634,E,1,10,0.86,133.4,M,53.8,M,,*47
39 11 42 14 4333.6966900128.73504135.0~ 00128.73504 135.0 1101011000 1100010101 1100101000 10000001100 10000110101 1011110010 1100110110 1101110000 1011100111 1101011101 1011011001 1100000001 10000101001 10000111001 1100001100 1100000100 1100000010 1011111011 21.063 53.155 1003.8 39568 17 -256 14 59 51 3 $GNGGA,114214.00,4333.69669,N,00128.73504,E,1,10,0.86,135.0,M,53.8,M,,*48
40 11 42 15 4333.6962800128.73454135.7~ 00128.73454 135.7 1101011000 1100010011 1100100110 10000001111 10000110111 1011110010 1100111001 1101101111 1011100101 1101011110 1011011011 1100000010 10000100111 10000111011 1100001011 1100000110 1100000111 1011111001 21.063 53.170 1003.8 40568 16 -258 15 58 51 3 $GNGGA,114215.00,4333.69628,N,00128.73454,E,1,10,0.86,135.7,M,53.8,M,,*4F
41 11 42 16 4333.6962700128.73414136.2~ 00128.73414 136.2 1101011000 1100010101 1100101000 10000001110 10000110101 1011110011 1100111000 1101110101 1011101101 1101011110 1011010101 1100000000 10000100111 10000111010 1100001111 1100000100 1100000111 1011111111 21.063 53.170 1003.8 41568 16 -259 14 58 52 3 $GNGGA,114216.00,4333.69627,N,00128.73414,E,1,10,0.86,136.2,M,53.8,M,,*41
42 11 42 17 4333.6961700128.73330137.2~ 00128.73330 137.2 1101011000 1100010110 1100101000 10000010001 10000110110 1011111000 1100111011 1101110110 1011101110 1101011110 1011011010 1011111111 10000100111 10000110111 1100001000 1011111101 1100000101 1011111001 21.063 53.170 1003.8 42568 17 -260 14 59 51 3 $GNGGA,114217.00,4333.69617,N,00128.73330,E,1,10,0.86,137.2,M,53.8,M,,*43
43 11 42 18 4333.6954300128.73258138.5~ 00128.73258 138.5 1101011000 1100010101 1100100110 10000010001 10000111000 1011110100 1100110101 1101110101 1011110001 1101011101 1011010100 1011111110 10000101001 10000111011 1100001110 1100000100 1100001000 1011111011 21.063 53.177 1003.8 43568 16 -262 14 58 51 4 $GNGGA,114218.00,4333.69543,N,00128.73258,E,1,09,1.15,138.5,M,53.8,M,,*4A
44 11 42 19 4333.6954800128.73221139.3~ 00128.73221 139.3 1101011000 1100010101 1100101000 10000001111 10000110101 1011110111 1100111101 1101111110 1011101011 1101011110 1011011000 1011111111 10000100100 10000111001 1100010011 1100001010 1100000011 1011111100 21.063 53.216 1003.8 44568 17 -262 14 59 51 3 $GNGGA,114219.00,4333.69548,N,00128.73221,E,1,10,0.86,139.3,M,53.8,M,,*4A
45 11 42 20 4333.6955400128.73295138.8~ 00128.73295 138.8 1101011000 1100011000 1100101010 10000010010 10000110100 1011110100 1100111011 1101111101 1011100110 1101011110 1011011011 1100000001 10000100110 10000111011 1100001100 1100000111 1100000111 1011111100 21.063 53.216 1003.8 45568 16 -265 15 58 51 3 $GNGGA,114220.00,4333.69554,N,00128.73295,E,1,09,1.05,138.8,M,53.8,M,,*4A
46 11 42 21 4333.6956500128.73327138.5~ 00128.73327 138.5 1101011000 1100010100 1100100110 10000010100 10000110111 1011110001 1100111011 1101111011 1011100110 1101011110 1011011100 1100000100 10000100101 10000111011 1100001000 1011111111 1100000011 1011111010 21.063 53.216 1003.8 46568 17 -264 14 59 51 3 $GNGGA,114221.00,4333.69565,N,00128.73327,E,1,09,1.05,138.5,M,53.8,M,,*4C
47 11 42 22 4333.6956400128.73373139.0~ 00128.73373 139.0 1101011000 1100010101 1100100110 10000010110 10000110101 1011110100 1100110100 1101111011 1011101100 1101011110 1011011000 1011111111 10000101010 10000111100 1100001010 1100000111 1100000111 1011111101 21.063 53.208 1003.8 47568 16 -266 15 58 51 3 $GNGGA,114222.00,4333.69564,N,00128.73373,E,1,10,0.86,139.0,M,53.8,M,,*49
48 11 42 23 4333.6960100128.73447138.4~ 00128.73447 138.4 1101011000 1100010100 1100100101 10000010000 10000110100 1011110100 1100111010 1101110011 1011100101 1101011110 1011011011 1100000010 10000110100 10000111100 1100001001 1100000011 1011111110 1011111001 21.063 53.200 1003.8 48568 16 -266 14 58 52 3 $GNGGA,114223.00,4333.69601,N,00128.73447,E,1,09,1.05,138.4,M,53.8,M,,*4F
49 11 42 24 4333.6963100128.73515137.9~ 00128.73515 137.9 1101011000 1100010110 1100101000 10000001100 10000110101 1011110001 1100111010 1101110000 1011100001 1101011110 1011011000 1011111110 10000101110 10000111010 1100001111 1100001000 1011111000 1011110001 21.063 53.216 1003.8 49568 16 -269 15 58 51 3 $GNGGA,114224.00,4333.69631,N,00128.73515,E,1,08,1.34,137.9,M,53.8,M,,*4C
50 11 42 25 4333.6965000128.73542137.3~ 00128.73542 137.3 1101011000 1100010011 1100101000 10000010101 10000111001 1011110100 1100111011 1101110100 1011100010 1101011110 1011011010 1100000011 10000101111 10000111011 1100001010 1100000101 1011111100 1011110111 21.063 53.216 1003.8 50568 16 -269 14 58 52 3 $GNGGA,114225.00,4333.69650,N,00128.73542,E,1,08,1.34,137.3,M,53.8,M,,*42
51 11 42 26 4333.6965200128.73608136.6~ 00128.73608 136.6 1101011000 1100010101 1100100101 10000010001 10000110111 1011110111 1100111110 1101110010 1011100110 1101011110 1011010110 1011111110 10000101111 10000111100 1100001100 1100000100 1100000101 1011111000 21.063 53.238 1003.8 51568 17 -270 14 59 51 3 $GNGGA,114226.00,4333.69652,N,00128.73608,E,1,07,1.41,136.6,M,53.8,M,,*47
52 11 42 27 4333.6963500128.73655136.5~ 00128.73655 136.5 1101011000 1100010011 1100100101 10000010011 10000110111 1011101101 1100111000 1101110100 1011100100 1101011110 1011011000 1011111101 10000100100 10000111001 1100001001 1100000111 1011111110 1011110110 21.063 53.254 1003.8 52568 16 -274 15 58 51 3 $GNGGA,114227.00,4333.69635,N,00128.73655,E,1,06,1.42,136.5,M,53.8,M,,*4E
53 11 42 28 4333.6962700128.73732136.2~ 00128.73732 136.2 1101011000 1100011000 1100101010 10000010011 10000110110 1011110001 1100111000 1101110010 1011100111 1101011110 1011011010 1100000000 10000101101 10000111011 1100001100 1100000110 1100001000 1100000000 21.063 53.254 1003.8 53568 17 -274 14 59 51 3 $GNGGA,114228.00,4333.69627,N,00128.73732,E,1,06,1.42,136.2,M,53.8,M,,*45
54 11 42 29 4333.6956600128.73828136.1~ 00128.73828 136.1 1101011000 1100010011 1100100101 10000010001 10000110111 1011110100 1100111010 1101110110 1011101101 1101011110 1011011001 1100000000 10000101011 10000111010 1100001010 1011111110 1100000011 1011111010 21.063 53.238 1003.8 54568 16 -275 15 58 51 3 $GNGGA,114229.00,4333.69566,N,00128.73828,E,1,07,1.41,136.1,M,53.8,M,,*47
55 11 42 30 4333.6954100128.73894135.9~ 00128.73894 135.9 1101011000 1100010100 1100100101 10000010001 10000111000 1011101111 1100110010 1101110011 1011110011 1101011110 1011011000 1100000001 10000101010 10000111100 1100001011 1100000010 1100000110 1011110111 21.063 53.231 1003.8 55568 17 -274 14 59 51 3 $GNGGA,114230.00,4333.69541,N,00128.73894,E,1,07,1.41,135.9,M,53.8,M,,*46
56 11 42 31 4333.6950100128.73854136.9~ 00128.73854 136.9 1101011000 1100010101 1100100110 10000001101 10000111010 1011110110 1100110111 1101110100 1011101001 1101011110 1011011001 1100000000 10000100110 10000111010 1100001010 1100000011 1100000110 1011111011 21.063 53.238 1003.8 56568 16 -274 15 58 51 3 $GNGGA,114231.00,4333.69501,N,00128.73854,E,1,08,1.20,136.9,M,53.8,M,,*44
57 11 42 32 4333.6948200128.73774137.7~ 00128.73774 137.7 1101011000 1100010011 1100100100 10000001000 10000110011 1011111001 1100111110 1101110100 1011101100 1101011110 1011011000 1100000001 10000100111 10000111010 1100001101 1100000101 1100001001 1011111101 21.063 53.246 1003.8 57568 16 -276 14 58 52 3 $GNGGA,114232.00,4333.69482,N,00128.73774,E,1,08,1.20,137.7,M,53.8,M,,*4F
58 11 42 33 4333.6943500128.73756138.4~ 00128.73756 138.4 1101011000 1100010011 1100100111 10000001001 10000110011 1011110110 1100111010 1101110100 1011100110 1101011110 1011010111 1011111111 10000101010 10000111001 1100001000 1100000011 1011111110 1011110111 21.063 53.254 1003.8 58568 17 -277 14 59 51 3 $GNGGA,114233.00,4333.69435,N,00128.73756,E,1,08,1.20,138.4,M,53.8,M,,*4E
59 11 42 34 4333.6939600128.73746139.0~ 00128.73746 139.0 1101011000 1100010101 1100101000 10000001001 10000110110 1011111001 1100111011 1101101110 1011011111 1101011101 1011010110 1011111111 10000101000 10000111010 1100000101 1011111110 1100000011 1011110101 21.063 53.261 1003.8 59568 16 -277 14 58 51 4 $GNGGA,114234.00,4333.69396,N,00128.73746,E,1,08,1.20,139.0,M,53.8,M,,*43
60 11 42 35 4333.6939700128.73696140.0~ 00128.73696 140.0 1101011001 1100010100 1100101001 10000001101 10000110111 1011110001 1100111000 1101110101 1011101001 1101011110 1011010110 1011111110 10000100110 10000111010 1100001101 1100000101 1100000010 1011110111 21.063 53.292 1003.8 60568 17 -277 14 59 51 3 $GNGGA,114235.00,4333.69397,N,00128.73696,E,1,08,1.20,140.0,M,53.8,M,,*41
61 11 42 36 4333.6934600128.73693140.9~ 00128.73693 140.9 1101011000 1100010100 1100101000 10000010001 10000110111 1011110001 1100111010 1101101101 1011100101 1101011110 1011011000 1100000001 10000101000 10000111001 1100001100 1100000111 1100000010 1011110101 21.063 53.277 1003.8 61568 16 -278 15 58 51 3 $GNGGA,114236.00,4333.69346,N,00128.73693,E,1,08,1.20,140.9,M,53.8,M,,*42
62 11 42 37 4333.6932900128.73660141.8~ 00128.73660 141.8 1101011000 1100010011 1100100100 10000001111 10000111000 1011110001 1100111001 1101110100 1011101100 1101011110 1011010011 1011111110 10000101010 10000111000 1100001011 1100000011 1100000011 1011110101 21.063 53.238 1003.8 62568 17 -279 14 59 51 3 $GNGGA,114237.00,4333.69329,N,00128.73660,E,1,08,1.21,141.8,M,53.8,M,,*47
63 11 42 38 4333.6928200128.73554143.9~ 00128.73554 143.9 1101011000 1100010100 1100100101 10000010010 10000110111 1011110101 1100111000 1101101011 1011101010 1101011110 1011010111 1011111110 10000100111 10000111100 1100001011 1100000011 1100000010 1011110100 21.063 53.200 1003.8 63568 16 -284 15 58 51 3 $GNGGA,114238.00,4333.69282,N,00128.73554,E,1,07,1.24,143.9,M,53.8,M,,*45
64 11 42 39 4333.6921600128.73447145.6~ 00128.73447 145.6 1101011000 1100010110 1100101001 10000001111 10000110110 1011110011 1100111010 1101101101 1011101011 1101011110 1011010111 1011111110 10000101011 10000111101 1100001101 1100000100 1011111101 1011110111 21.063 53.193 1003.8 64568 16 -283 14 58 52 3 $GNGGA,114239.00,4333.69216,N,00128.73447,E,1,07,1.24,145.6,M,53.8,M,,*43
65 11 42 40 4333.6921800128.73251147.3~ 00128.73251 147.3 1101011000 1100010011 1100100111 10000010100 10000110101 1011110101 1100111110 1101101001 1011100001 1101011110 1011011010 1100000001 10000100111 10000111010 1100000100 1011111101 1100000001 1011110101 21.063 53.162 1003.8 65568 16 -283 15 58 51 3 $GNGGA,114240.00,4333.69218,N,00128.73251,E,1,07,1.01,147.3,M,53.8,M,,*42
66 11 42 41 4333.6916500128.73311147.8~ 00128.73311 147.8 1101011000 1100010101 1100100111 10000001111 10000111010 1011101111 1100111000 1101101010 1011100011 1101011110 1011011011 1100000011 10000101101 10000111011 1100001100 1100000011 1100001010 1011111010 21.063 53.139 1003.8 66568 16 -284 14 58 52 3 $GNGGA,114241.00,4333.69165,N,00128.73311,E,1,07,1.01,147.8,M,53.8,M,,*44
67 11 42 42 4333.6913900128.73273148.8~ 00128.73273 148.8 1101011000 1100010100 1100100111 10000001101 10000110100 1011110110 1100111010 1101101101 1011100111 1101011110 1011011001 1100000001 10000101011 10000111011 1100001010 1100000010 1100001010 1011111111 21.063 53.155 1003.8 67568 17 -286 14 59 51 3 $GNGGA,114242.00,4333.69139,N,00128.73273,E,1,08,0.97,148.8,M,53.8,M,,*45
68 11 42 43 4333.6910200128.73274150.1~ 00128.73274 150.1 1101011000 1100010011 1100100110 10000001100 10000111000 1011110100 1100110001 1101101100 1011100101 1101011110 1011011001 1100000001 10000101101 10000111011 1100001101 1100000110 1100000010 1011111110 21.063 53.177 1003.8 68568 16 -287 15 58 51 3 $GNGGA,114243.00,4333.69102,N,00128.73274,E,1,08,0.97,150.1,M,53.8,M,,*4B
69 11 42 44 4333.6907100128.73254151.2~ 00128.73254 151.2 1101011000 1100010010 1100100111 10000010000 10000110111 1011101101 1100110101 1101101101 1011101000 1101011110 1011011011 1100000001 10000100111 10000111001 1100001110 1100001000 1100001011 1100000011 21.063 53.162 1003.8 69568 17 -286 14 59 51 3 $GNGGA,114244.00,4333.69071,N,00128.73254,E,1,08,0.97,151.2,M,53.8,M,,*49
70 11 42 45 4333.6906000128.73213152.0~ 00128.73213 152.0 1101011000 1100010100 1100100101 10000010001 10000111000 1011110110 1101000011 1101101011 1011100000 1101011110 1011011010 1100000001 10000101001 10000111001 1100001100 1100001001 1100000111 1100000011 21.063 53.162 1003.8 70568 16 -288 15 58 51 3 $GNGGA,114245.00,4333.69060,N,00128.73213,E,1,07,1.01,152.0,M,53.8,M,,*4B
71 11 42 46 4333.6905400128.73134152.8~ 00128.73134 152.8 1101011000 1100010011 1100100110 10000001011 10000110011 1011110001 1100110101 1101110111 1011101010 1101011110 1011010100 1011111110 10000100111 10000111001 1100001010 1100000100 1011111100 1011111100 21.063 53.124 1003.8 71568 17 -288 14 59 51 3 $GNGGA,114246.00,4333.69054,N,00128.73134,E,1,07,1.01,152.8,M,53.8,M,,*41
72 11 42 47 4333.6902600128.73054153.5~ 00128.73054 153.5 1101011000 1100010001 1100100100 10000010011 10000111010 1011110100 1100111100 1101111010 1011110000 1101011110 1011010101 1011111100 10000101001 10000111101 1100001000 1100000001 1011111111 1011111010 21.063 53.116 1003.8 72568 16 -292 15 58 51 3 $GNGGA,114247.00,4333.69026,N,00128.73054,E,1,07,1.01,153.5,M,53.8,M,,*4E
73 11 42 48 4333.6904800128.72957153.7~ 00128.72957 153.7 1101011000 1100010000 1100100101 10000001101 10000111000 1011110110 1100111011 1101110010 1011110000 1101011110 1011011001 1100000010 10000100111 10000111010 1100001110 1100000011 1011111011 1011110111 21.063 53.093 1003.8 73568 16 -290 14 58 52 3 $GNGGA,114248.00,4333.69048,N,00128.72957,E,1,08,0.94,153.7,M,53.8,M,,*42
74 11 42 49 4333.6903200128.72890153.3~ 00128.72890 153.3 1101011000 1100010001 1100100101 10000001111 10000111001 1011110001 1100111010 1101111101 1011110110 1101011110 1011011010 1100000011 10000100100 10000111100 1100001010 1100000000 1100000100 1011111011 21.063 53.093 1003.8 74568 17 -294 14 59 51 3 $GNGGA,114249.00,4333.69032,N,00128.72890,E,1,08,0.94,153.3,M,53.8,M,,*40
75 11 42 50 4333.6904400128.72868153.0~ 00128.72868 153.0 1101011000 1100010011 1100100100 10000010000 10000111010 1011110111 1100111001 1101111011 1011110001 1101011110 1011011000 1011111111 10000101100 10000111010 1100000110 1100000000 1100000101 1011111010 21.063 53.086 1003.8 75568 16 -292 14 58 51 4 $GNGGA,114250.00,4333.69044,N,00128.72868,E,1,07,1.73,153.0,M,53.8,M,,*4A
76 11 42 51 4333.6904500128.72912152.9~ 00128.72912 152.9 1101011000 1100010001 1100100101 10000001100 10000110101 1011110100 1100111000 1101110111 1011101011 1101011110 1011010111 1100000000 10000101011 10000111010 1100001100 1100000000 1100000010 1011111000 21.063 53.071 1003.8 76568 17 -293 14 59 51 3 $GNGGA,114251.00,4333.69045,N,00128.72912,E,1,07,1.07,152.9,M,53.8,M,,*4D
77 11 42 52 4333.6910000128.72916153.2~ 00128.72916 153.2 1101011000 1100010101 1100100110 10000001101 10000110110 1011110101 1100111100 1101110110 1011101011 1101011110 1011011001 1011111111 10000100110 10000111000 1100001111 1100000111 1011111011 1011110010 21.063 53.071 1003.8 77568 16 -294 15 58 51 3 $GNGGA,114252.00,4333.69100,N,00128.72916,E,1,08,1.05,153.2,M,53.8,M,,*4D
78 11 42 53 4333.6912700128.72927153.7~ 00128.72927 153.7 1101011000 1100010001 1100100010 10000000001 10000110010 1011110101 1100111000 1101110110 1011110100 1101011110 1011010101 1011111101 10000101001 10000111001 1100001100 1100000101 1100000100 1100000001 21.063 53.071 1003.8 78568 17 -295 14 59 51 3 $GNGGA,114253.00,4333.69127,N,00128.72927,E,1,09,0.86,153.7,M,53.8,M,,*45
79 11 42 54 4333.6912900128.72936154.4~ 00128.72936 154.4 1101011000 1100010010 1100100100 10000001111 10000110101 1011110111 1100111110 1101111011 1011101011 1101011101 1011011010 1011111111 10000100111 10000111010 1100001010 1100000011 1100001011 1011111011 21.063 53.071 1003.8 79568 16 -297 15 58 51 3 $GNGGA,114254.00,4333.69129,N,00128.72936,E,1,08,1.18,154.4,M,53.8,M,,*4F
80 11 42 55 4333.6914200128.72938155.0~ 00128.72938 155.0 1101011000 1100010010 1100100110 10000001100 10000111010 1011110000 1100110100 1101110100 1011101001 1101011110 1011011010 1100000000 10000011111 10000111010 1100001111 1100000101 1100001000 1100000001 21.063 53.071 1003.8 80568 16 -297 14 58 52 3 $GNGGA,114255.00,4333.69142,N,00128.72938,E,1,08,1.18,155.0,M,53.8,M,,*48
81 11 42 56 4333.6917600128.72948155.8~ 00128.72948 155.8 1101011000 1100010010 1100100110 10000001111 10000110110 1011110110 1100111100 1101110000 1011100110 1101011110 1011011001 1011111111 10000100101 10000111011 1100001000 1100000011 1100001010 1011111101 21.063 53.086 1003.8 81568 16 -302 15 58 51 3 $GNGGA,114256.00,4333.69176,N,00128.72948,E,1,08,1.18,155.8,M,53.8,M,,*43
82 11 42 57 4333.6922200128.73012156.0~ 00128.73012 156.0 1101011000 1100010010 1100100101 10000001100 10000110101 1011101110 1100110100 1101101100 1011100111 1101011110 1011010101 1011111110 10000011100 10000111000 1100010000 1100000011 1100000010 1011110110 21.000 53.132 1003.8 82568 16 -301 14 58 52 3 $GNGGA,114257.00,4333.69222,N,00128.73012,E,1,07,1.38,156.0,M,53.8,M,,*41
83 11 42 58 4333.6923900128.73055156.2~ 00128.73055 156.2 1101011000 1100010011 1100100110 10000001011 10000110110 1011110001 1100111100 1101111010 1011101100 1101011110 1011011101 1100000010 10000100000 10000111010 1100001001 1100000010 1100001000 1011111101 21.000 53.147 1003.8 83568 17 -302 14 59 51 3 $GNGGA,114258.00,4333.69239,N,00128.73055,E,1,06,1.85,156.2,M,53.8,M,,*42
84 11 42 59 4333.6925800128.73079156.2~ 00128.73079 156.2 1101011000 1100010101 1100100100 10000001011 10000110011 1011110101 1100111011 1101110011 1011101001 1101011110 1011011000 1100000000 10000100101 10000111001 1100001011 1100000111 1100000100 1011111011 21.063 53.170 1003.8 84568 16 -303 15 58 51 3 $GNGGA,114259.00,4333.69258,N,00128.73079,E,1,06,1.85,156.2,M,53.8,M,,*4A
85 11 43 00 4333.6926600128.73119156.4~ 00128.73119 156.4 1101011000 1100010011 1100100011 10000010000 10000110111 1011110110 1100111001 1101101011 1011100111 1101011110 1011010110 1100000000 10000100111 10000111100 1100001101 1100000100 1100000000 1011111011 21.000 53.200 1003.8 85568 17 -305 14 59 51 3 $GNGGA,114300.00,4333.69266,N,00128.73119,E,1,06,1.85,156.4,M,53.8,M,,*4B
86 11 43 01 4333.6923900128.73128157.3~ 00128.73128 157.3 1101011000 1100010111 1100101011 10000001110 10000110010 1011110100 1100111001 1101110101 1011101111 1101011110 1011010111 1100000000 10000100111 10000111011 1100001101 1100000111 1100000101 1011111011 21.000 53.391 1003.8 86568 16 -304 15 58 51 3 $GNGGA,114301.00,4333.69239,N,00128.73128,E,1,08,1.18,157.3,M,53.8,M,,*4E
87 11 43 02 4333.6918200128.73065158.6~ 00128.73065 158.6 1101011000 1100010101 1100101010 10000001001 10000110101 1011110101 1100111100 1101101110 1011100110 1101011110 1011011010 1011111111 10000011111 10000111000 1100000101 1100000010 1100000010 1100000000 21.000 53.589 1003.8 87568 17 -304 14 59 51 3 $GNGGA,114302.00,4333.69182,N,00128.73065,E,1,07,1.26,158.6,M,53.8,M,,*4E
88 11 43 03 4333.6914400128.72994159.7~ 00128.72994 159.7 1101011000 1100010100 1100100110 10000001101 10000110101 1011110110 1100111000 1101110100 1011100111 1101011110 1011010111 1011111101 10000101101 10000111110 1100001010 1100000001 1100000100 1011111010 21.000 53.528 1003.8 88568 16 -306 15 58 51 3 $GNGGA,114303.00,4333.69144,N,00128.72994,E,1,07,1.26,159.7,M,53.8,M,,*43
89 11 43 04 4333.6913800128.72854160.7~ 00128.72854 160.7 1101011000 1100010001 1100100111 10000001110 10000110100 1011110000 1100111000 1101110011 1011101001 1101011101 1011010110 1011111111 10000101001 10000111001 1100001010 1100000100 1100000100 1011111000 21.063 53.574 1003.8 89568 16 -308 14 58 52 3 $GNGGA,114304.00,4333.69138,N,00128.72854,E,1,07,1.26,160.7,M,53.8,M,,*48
90 11 43 05 4333.6913900128.72786161.6~ 00128.72786 161.6 1101011000 1100010001 1100100110 10000001010 10000110101 1011101111 1100110100 1101110000 1011101001 1101011110 1011011000 1011111101 10000100101 10000111000 1100001001 1100000110 1100000010 1011111101 21.063 53.643 1003.8 90568 17 -308 14 59 51 3 $GNGGA,114305.00,4333.69139,N,00128.72786,E,1,07,1.26,161.6,M,53.8,M,,*48
91 11 43 06 4333.6908200128.72750162.3~ 00128.72750 162.3 1101011000 1100010101 1100101001 10000000101 10000110100 1011110111 1100111100 1101101111 1011100111 1101011110 1011010111 1011111101 10000100010 10000111001 1100001000 1100000000 1100001011 1011111111 21.000 53.620 1003.8 91568 16 -311 14 58 51 4 $GNGGA,114306.00,4333.69082,N,00128.72750,E,1,08,0.93,162.3,M,53.8,M,,*47
92 11 43 07 4333.6890400128.72764162.7~ 00128.72764 162.7 1101011000 1100010010 1100100111 10000010010 10000111001 1011110000 1100111010 1101101111 1011100010 1101011110 1011010100 1011111110 10000100110 10000111001 1100001110 1100000110 1100001001 1100000000 21.063 53.536 1003.8 92568 18 -311 14 59 51 3 $GNGGA,114307.00,4333.68904,N,00128.72764,E,1,07,0.97,162.7,M,53.8,M,,*48
93 11 43 08 4333.6885300128.72672163.7~ 00128.72672 163.7 1101011000 1100010101 1100101000 10000010011 10000110110 1011101101 1100110101 1101110010 1011100110 1101011110 1011011000 1011111111 10000100100 10000111001 1100001100 1100000001 1100000101 1011111100 21.063 53.574 1003.8 93568 16 -311 15 58 51 3 $GNGGA,114308.00,4333.68853,N,00128.72672,E,1,06,1.30,163.7,M,53.8,M,,*4E
94 11 43 09 4333.6882800128.72596165.0~ 00128.72596 165.0 1101011000 1100010010 1100100111 10000010000 10000110111 1011110110 1100111000 1101101111 1011101110 1101011110 1011011101 1100000001 10000101111 10000111011 1100001011 1100000010 1100000000 1011110110 21.063 53.559 1003.8 94568 17 -313 14 59 51 3 $GNGGA,114309.00,4333.68828,N,00128.72596,E,1,06,1.30,165.0,M,53.8,M,,*4B
95 11 43 10 4333.6882800128.72518165.8~ 00128.72518 165.8 1101011000 1100010001 1100100110 10000001110 10000110111 1011110101 1100110100 1101110011 1011101011 1101011110 1011011110 1100000010 10000100111 10000111011 1100001011 1100000100 1100000000 1011111000 21.063 53.483 1003.8 95568 16 -312 15 58 51 3 $GNGGA,114310.00,4333.68828,N,00128.72518,E,1,07,1.26,165.8,M,53.8,M,,*4B
96 11 43 11 4333.6882100128.72445166.8~ 00128.72445 166.8 1101011000 1100010100 1100101001 10000011000 10000111001 1011110011 1100110100 1101110010 1011101111 1101011110 1011010101 1011111110 10000101011 10000111101 1100001100 1100000011 1011111110 1011111011 21.000 53.437 1003.8 96568 16 -316 14 58 52 3 $GNGGA,114311.00,4333.68821,N,00128.72445,E,1,07,1.26,166.8,M,53.8,M,,*49
97 11 43 12 4333.6882600128.72357167.6~ 00128.72357 167.6 1101011000 1100010011 1100100111 10000001100 10000110111 1011110001 1100111000 1101111000 1011110001 1101011110 1011011101 1100000011 10000101010 10000111101 1100001110 1100000011 1011111110 1011111100 21.063 53.391 1003.8 97568 16 -315 15 58 51 3 $GNGGA,114312.00,4333.68826,N,00128.72357,E,1,07,1.26,167.6,M,53.8,M,,*46
98 11 43 13 4333.6878500128.72233168.6~ 00128.72233 168.6 1101011000 1100010010 1100100111 10000001101 10000111001 1011110111 1100111010 1101101111 1011101110 1101011110 1011011010 1100000001 10000100101 10000111011 1100010001 1100001001 1011111110 1011110100 21.000 53.338 1003.8 98568 16 -316 14 58 52 3 $GNGGA,114313.00,4333.68785,N,00128.72233,E,1,07,1.26,168.6,M,53.8,M,,*4D
99 11 43 14 4333.6878800128.72191169.2~ 00128.72191 169.2 1101011000 1100010001 1100100101 10000001010 10000110101 1011110100 1100111110 1101101111 1011101101 1101011110 1011010111 1011111111 10000100111 10000111010 1100001111 1100001000 1100001000 1011111001 21.063 53.361 1003.8 99568 17 -316 14 59 51 3 $GNGGA,114314.00,4333.68788,N,00128.72191,E,1,07,1.26,169.2,M,53.8,M,,*49
100 11 43 15 4333.6881400128.72160169.5~ 00128.72160 169.5 1101011000 1100010100 1100100111 10000001000 10000110011 1011110110 1100111010 1101110101 1011101101 1101011110 1011010101 1011111100 10000101111 10000111100 1100001010 1100000011 1100000001 1011111001 21.063 54.009 1003.8 100568 16 -316 15 58 51 3 $GNGGA,114315.00,4333.68814,N,00128.72160,E,1,07,1.37,169.5,M,53.8,M,,*4B
101 11 43 16 4333.6877100128.72153169.9~ 00128.72153 169.9 1101011000 1100010011 1100101001 10000001111 10000110011 1011110101 1100111101 1101110110 1011101111 1101011110 1011011000 1100000001 10000101011 10000111010 1100001011 1100000101 1011111100 1011111011 21.063 55.008 1003.8 101568 17 -317 14 59 51 3 $GNGGA,114316.00,4333.68771,N,00128.72153,E,1,07,1.37,169.9,M,53.8,M,,*48
102 11 43 17 4333.6875300128.72045170.6~ 00128.72045 170.6 1101011000 1100010001 1100100101 10000001100 10000110111 1011110101 1100110111 1101111010 1011101100 1101011110 1011011001 1011111111 10000100111 10000111001 1100001111 1100000101 1100000110 1100000010 21.063 55.321 1003.8 102568 16 -319 15 58 51 3 $GNGGA,114317.00,4333.68753,N,00128.72045,E,1,07,1.26,170.6,M,53.8,M,,*48
103 11 43 18 4333.6876000128.72031171.4~ 00128.72031 171.4 1101011000 1100010100 1100100111 10000010001 10000111000 1011110100 1100111001 1101110010 1011101011 1101011110 1011011000 1100000000 10000011101 10000111001 1100001010 1100000110 1011111110 1011111011 21.063 54.856 1003.8 103568 17 -322 14 59 51 3 $GNGGA,114318.00,4333.68760,N,00128.72031,E,1,07,1.26,171.4,M,53.8,M,,*47
104 11 43 19 4333.6873200128.71921172.2~ 00128.71921 172.2 1101011000 1100010100 1100101000 10000011000 10000111101 1011101111 1100111010 1101101011 1011100110 1101011110 1011011011 1100000001 10000100111 10000111010 1100001100 1100000011 1011111111 1011110110 21.063 54.604 1003.8 104568 16 -320 15 58 51 3 $GNGGA,114319.00,4333.68732,N,00128.71921,E,1,07,1.26,172.2,M,53.8,M,,*4F
105 11 43 20 4333.6869900128.71856173.1~ 00128.71856 173.1 1101011000 1100010011 1100100110 10000010100 10000110101 1011110001 1100110101 1101110001 1011101100 1101011101 1011011000 1011111101 10000101011 10000111011 1100001000 1100000110 1100000010 1011111011 21.063 54.383 1003.8 105568 16 -322 14 58 52 3 $GNGGA,114320.00,4333.68699,N,00128.71856,E,1,07,1.26,173.1,M,53.8,M,,*46
106 11 43 21 4333.6874500128.71877173.6~ 00128.71877 173.6 1101011000 1100010110 1100101001 10000010100 10000110101 1011110001 1100110001 1101111101 1011110000 1101011110 1011011000 1011111111 10000100110 10000111011 1100001111 1100000101 1011111010 1011110101 21.063 54.207 1003.8 106568 17 -322 14 59 51 3 $GNGGA,114321.00,4333.68745,N,00128.71877,E,1,08,1.33,173.6,M,53.8,M,,*48
107 11 43 22 4333.6875500128.71827174.7~ 00128.71827 174.7 1101011000 1100010100 1100100101 10000001100 10000110100 1011110110 1100111100 1101110010 1011101000 1101011110 1011010111 1011111111 10000101011 10000111011 1100001110 1011111111 1011111010 1011110010 21.063 53.971 1003.8 107568 16 -324 14 58 51 4 $GNGGA,114322.00,4333.68755,N,00128.71827,E,1,09,1.16,174.7,M,53.8,M,,*4F
108 11 43 23 4333.6873600128.71698175.9~ 00128.71698 175.9 1101011000 1100010001 1100100110 10000001011 10000110011 1011110101 1100111110 1101101110 1011100101 1101011110 1011010110 1011111101 10000100111 10000111010 1100001011 1100000101 1011111100 1011110000 21.063 53.818 1003.8 108568 17 -325 14 59 51 3 $GNGGA,114323.00,4333.68736,N,00128.71698,E,1,08,1.21,175.9,M,53.8,M,,*4B
109 11 43 24 4333.6871700128.71708177.1~ 00128.71708 177.1 1101011000 1100010110 1100100111 10000010010 10000110101 1011110000 1100110011 1101101100 1011100000 1101011110 1011011010 1100000000 10000101000 10000111010 1100001011 1100000110 1100000010 1011101111 21.063 53.742 1003.8 109568 16 -325 15 58 51 3 $GNGGA,114324.00,4333.68717,N,00128.71708,E,1,08,1.21,177.1,M,53.8,M,,*4D
110 11 43 25 4333.6875400128.71701178.3~ 00128.71701 178.3 1101011000 1100010110 1100100111 10000001100 10000110110 1011110001 1100111101 1101110110 1011100010 1101011110 1011010111 1100000000 10000100110 10000111001 1100001001 1100000010 1100000001 1011110100 21.063 53.628 1003.8 110568 17 -326 14 59 51 3 $GNGGA,114325.00,4333.68754,N,00128.71701,E,1,09,1.16,178.3,M,53.8,M,,*4A
111 11 43 26 4333.6868300128.71729179.2~ 00128.71729 179.2 1101011000 1100010101 1100100111 10000001111 10000111010 1011110000 1100110100 1101110101 1011101010 1101011110 1011011010 1100000010 10000101000 10000111011 1100001100 1100000100 1100000100 1011111100 21.063 53.528 1003.8 111568 16 -326 15 58 51 3 $GNGGA,114326.00,4333.68683,N,00128.71729,E,1,09,0.91,179.2,M,53.8,M,,*46
112 11 43 27 4333.6870100128.71700180.5~ 00128.71700 180.5 1101011000 1100010010 1100100110 10000001011 10000110111 1011110100 1100111101 1101110010 1011101001 1101011110 1011010010 1011111101 10000101001 10000111001 1100001011 1100000111 1100000011 1011111100 21.063 53.361 1003.8 112568 16 -328 14 58 52 3 $GNGGA,114327.00,4333.68701,N,00128.71700,E,1,07,1.25,180.5,M,53.8,M,,*46
113 11 43 28 4333.6870700128.71600181.4~ 00128.71600 181.4 1101011000 1100010010 1100100110 10000001000 10000110101 1011110101 1100111000 1101110111 1011101111 1101011110 1011010101 1100000000 10000100111 10000111001 1100001001 1100000011 1100000001 1011110111 21.063 53.238 1003.8 113568 16 -330 15 58 51 3 $GNGGA,114328.00,4333.68707,N,00128.71600,E,1,08,1.21,181.4,M,53.8,M,,*45
114 11 43 29 4333.6875900128.71533182.0~ 00128.71533 182.0 1101011000 1100010001 1100100100 10000001101 10000110110 1011110011 1100111001 1101110001 1011101110 1101011110 1011011001 1100000000 10000100011 10000110111 1100000110 1100000011 1100000101 1011111011 21.063 53.139 1003.8 114568 16 -332 14 58 52 3 $GNGGA,114329.00,4333.68759,N,00128.71533,E,1,07,1.82,182.0,M,53.8,M,,*4D
115 11 43 30 4333.6885400128.71485183.0~ 00128.71485 183.0 1101011000 1100010101 1100101001 10000001111 10000110101 1011110000 1100111100 1101111000 1011100000 1101011110 1011010111 1011111110 10000100011 10000111000 1100010000 1100000110 1100000010 1011111001 21.063 53.071 1003.8 115568 17 -331 14 59 51 3 $GNGGA,114330.00,4333.68854,N,00128.71485,E,1,08,1.21,183.0,M,53.8,M,,*4C
116 11 43 31 4333.6888600128.71367184.1~ 00128.71367 184.1 1101011000 1100010010 1100100100 10000001011 10000110011 1011101101 1100110110 1101110110 1011100000 1101011110 1011011100 1100000011 10000100101 10000111010 1100001011 1100000010 1100000011 1011110110 21.063 53.002 1003.8 116568 16 -330 15 58 51 3 $GNGGA,114331.00,4333.68886,N,00128.71367,E,1,08,1.21,184.1,M,53.8,M,,*4F
117 11 43 32 4333.6891000128.71281185.0~ 00128.71281 185.0 1101011000 1100010100 1100101000 10000010010 10000110110 1011110110 1100110110 1101110110 1011100101 1101011110 1011010111 1011111111 10000100101 10000111010 1100010000 1100000111 1100001011 1011111110 21.063 52.971 1003.8 117568 17 -333 14 59 51 3 $GNGGA,114332.00,4333.68910,N,00128.71281,E,1,08,1.21,185.0,M,53.8,M,,*4B
118 11 43 33 4333.6892000128.71285185.7~ 00128.71285 185.7 1101011000 1100010011 1100100110 10000010000 10000110110 1011110100 1100110000 1101110101 1011100010 1101011110 1011011001 1011111111 10000101101 10000111011 1100001100 1100001000 1100000000 1011110100 21.063 52.971 1003.8 118568 16 -335 15 58 51 3 $GNGGA,114333.00,4333.68920,N,00128.71285,E,1,07,1.82,185.7,M,53.8,M,,*4C
119 11 43 34 4333.6896100128.71237186.5~ 00128.71237 186.5 1101011000 1100010011 1100100111 10000001010 10000110110 1011110011 1100111011 1101101111 1011101000 1101011110 1011011010 1100000010 10000101110 10000111011 1100001011 1011111111 1100000101 1011111000 21.063 52.949 1003.8 119568 17 -336 14 59 51 3 $GNGGA,114334.00,4333.68961,N,00128.71237,E,1,07,1.25,186.5,M,53.8,M,,*4B
120 11 43 35 4333.6892000128.71265187.5~ 00128.71265 187.5 1101011000 1100010101 1100101010 10000001101 10000110101 1011110011 1100110110 1101110101 1011101011 1101011101 1011011010 1100000011 10000100111 10000111011 1100001111 1100001000 1100001001 1011111011 21.063 52.949 1003.8 120568 16 -337 15 58 51 3 $GNGGA,114335.00,4333.68920,N,00128.71265,E,1,07,1.25,187.5,M,53.8,M,,*49
121 11 43 36 4333.6888400128.71156188.3~ 00128.71156 188.3 1101011000 1100010110 1100100111 10000001011 10000110100 1011110111 1100111001 1101110101 1011101100 1101011110 1011011011 1100000000 10000101000 10000111011 1100001011 1100000011 1100000101 1011111000 21.063 52.918 1003.8 121568 16 -338 14 58 52 3 $GNGGA,114336.00,4333.68884,N,00128.71156,E,1,08,1.21,188.3,M,53.8,M,,*44
122 11 43 37 4333.6884000128.71068189.3~ 00128.71068 189.3 1101011000 1100010001 1100100111 10000001110 10000110101 1011110110 1100111010 1101110100 1011101000 1101011110 1011011010 1100000010 10000101000 10000111010 1100001100 1100000110 1100001100 1100000110 21.063 52.964 1003.8 122568 17 -337 14 59 51 3 $GNGGA,114337.00,4333.68840,N,00128.71068,E,1,08,1.21,189.3,M,53.8,M,,*40
123 11 43 38 4333.6878300128.70965190.4~ 00128.70965 190.4 1101011000 1100010011 1100100110 10000010001 10000111000 1011110011 1100110111 1101110011 1011100100 1101011110 1011010110 1011111101 10000101011 10000111011 1100001010 1100000111 1100000100 1100000000 21.063 53.116 1003.8 123568 16 -339 14 58 51 4 $GNGGA,114338.00,4333.68783,N,00128.70965,E,1,08,1.21,190.4,M,53.8,M,,*45
124 11 43 39 4333.6880400128.70935191.2~ 00128.70935 191.2 1101011000 1100010010 1100101000 10000001101 10000110011 1011110110 1100111100 1101111100 1011101111 1101011110 1011011000 1100000000 10000100111 10000111000 1100001100 1100000110 1100000101 1011111100 21.063 53.299 1003.8 124568 17 -340 14 59 51 3 $GNGGA,114339.00,4333.68804,N,00128.70935,E,1,07,1.26,191.2,M,53.8,M,,*4E
125 11 43 40 4333.6878600128.70948192.2~ 00128.70948 192.2 1101011000 1100010000 1100100010 10000001011 10000110011 1011110101 1100111101 1101111000 1011100110 1101011110 1011010110 1011111101 10000101000 10000111010 1100001001 1100000000 1100000101 1011111011 21.063 53.338 1003.8 125568 16 -340 15 58 51 3 $GNGGA,114340.00,4333.68786,N,00128.70948,E,1,08,1.21,192.2,M,53.8,M,,*44
126 11 43 41 4333.6881600128.70915193.2~ 00128.70915 193.2 1101011000 1100010100 1100101001 10000010100 10000110110 1011110011 1100111001 1101110101 1011100110 1101011110 1011010111 1011111111 10000101001 10000111011 1100001000 1011111101 1100000100 1011111010 21.063 53.673 1003.8 126568 17 -341 14 59 51 3 $GNGGA,114341.00,4333.68816,N,00128.70915,E,1,08,1.21,193.2,M,53.8,M,,*4A
127 11 43 42 4333.6882800128.70863194.2~ 00128.70863 194.2 1101011000 1100010011 1100100111 10000010000 10000110110 1011110110 1100111001 1101110000 1011100101 1101011110 1011010111 1011111111 10000100011 10000111000 1100010000 1100001010 1100000101 1011111101 21.063 53.895 1003.8 127568 16 -342 15 58 51 3 $GNGGA,114342.00,4333.68828,N,00128.70863,E,1,08,1.51,194.2,M,53.8,M,,*44
128 11 43 43 4333.6883600128.70860195.4~ 00128.70860 195.4 1101011000 1100010100 1100100110 10000001110 10000110001 1011110000 1100110111 1101110010 1011101000 1101011110 1011011011 1100000011 10000100101 10000111010 1100001100 1011111111 1100000000 1011111011 21.063 54.246 1003.8 128568 16 -343 14 58 52 3 $GNGGA,114343.00,4333.68836,N,00128.70860,E,1,08,1.51,195.4,M,53.8,M,,*4E
129 11 43 44 4333.6882400128.70833196.7~ 00128.70833 196.7 1101011000 1100010111 1100100111 10000001011 10000110011 1011110111 1100111110 1101101010 1011100110 1101011110 1011011100 1100000000 10000101110 10000111110 1100000111 1100000001 1100001011 1011111011 21.063 54.444 1003.8 129568 16 -344 15 58 51 3 $GNGGA,114344.00,4333.68824,N,00128.70833,E,1,09,0.91,196.7,M,53.8,M,,*40
130 11 43 45 4333.6882000128.70821197.6~ 00128.70821 197.6 1101011000 1100010011 1100100101 10000001011 10000110011 1011110011 1100111010 1101110100 1011100110 1101011110 1011010110 1011111101 10000100100 10000111011 1100001000 1100000000 1100000000 1011111001 21.063 54.520 1003.8 130568 16 -345 14 58 52 3 $GNGGA,114345.00,4333.68820,N,00128.70821,E,1,07,1.24,197.6,M,53.8,M,,*47
131 11 43 46 4333.6885800128.70807198.4~ 00128.70807 198.4 1101011000 1100010000 1100100110 10000010001 10000110110 1011110111 1100111010 1101111000 1011101110 1101011101 1011010100 1011111111 10000100011 10000111000 1100001010 1100000010 1100000110 1011110111 21.125 54.497 1003.8 131568 17 -346 14 59 51 3 $GNGGA,114346.00,4333.68858,N,00128.70807,E,1,07,1.24,198.4,M,53.8,M,,*42
132 11 43 47 4333.6882200128.70788199.7~ 00128.70788 199.7 1101011000 1100010110 1100101000 10000010001 10000111100 1011110101 1100111110 1101101011 1011100111 1101011110 1011011101 1100000010 10000100101 10000111011 1100001101 1100000010 1011111101 1011110001 21.063 54.322 1003.8 132568 16 -350 15 58 51 3 $GNGGA,114347.00,4333.68822,N,00128.70788,E,1,07,1.24,199.7,M,53.8,M,,*44
133 11 43 48 4333.6884800128.70768200.4~ 00128.70768 200.4 1101011000 1100010010 1100101001 10000001111 10000110110 1011101101 1100110100 1101110010 1011101000 1101011110 1011011000 1100000000 10000101000 10000111011 1100010001 1100000101 1100001000 1011111100 21.125 54.093 1003.8 133568 17 -349 14 59 51 3 $GNGGA,114348.00,4333.68848,N,00128.70768,E,1,07,1.24,200.4,M,53.8,M,,*49
134 11 43 49 4333.6880800128.70755201.0~ 00128.70755 201.0 1101011000 1100010101 1100101001 10000010010 10000110110 1011110101 1100111101 1101110101 1011101010 1101011110 1011011001 1011111111 10000100111 10000111011 1100001111 1100000100 1100000100 1011111110 21.125 53.826 1003.8 134568 16 -352 15 58 51 3 $GNGGA,114349.00,4333.68808,N,00128.70755,E,1,08,1.21,201.0,M,53.8,M,,*4D
135 11 43 50 4333.6882700128.70712201.8~ 00128.70712 201.8 1101011000 1100010010 1100101000 10000010010 10000110111 1011101110 1100110110 1101110101 1011100011 1101011110 1011011000 1100000010 10000101010 10000111001 1100001101 1100000011 1100001001 1100000010 21.125 53.612 1003.8 135568 17 -351 14 59 51 3 $GNGGA,114350.00,4333.68827,N,00128.70712,E,1,08,1.21,201.8,M,53.8,M,,*43
136 11 43 51 4333.6885800128.70718203.0~ 00128.70718 203.0 1101011000 1100010101 1100101001 10000000110 10000110110 1011110110 1100111101 1101101010 1011100010 1101011110 1011010110 1011111101 10000100110 10000111011 1100001100 1100000011 1100000111 1100000001 21.125 53.551 1003.8 136568 16 -352 15 58 51 3 $GNGGA,114351.00,4333.68858,N,00128.70718,E,1,08,1.21,203.0,M,53.8,M,,*4A
137 11 43 52 4333.6886500128.70729203.9~ 00128.70729 203.9 1101011000 1100010011 1100101000 10000001110 10000110111 1011110100 1100111001 1101110001 1011100111 1101011110 1011010110 1011111110 10000100010 10000111010 1100001010 1100000110 1100000000 1011110111 21.125 53.582 1003.8 137568 16 -355 14 58 52 3 $GNGGA,114352.00,4333.68865,N,00128.70729,E,1,07,1.26,203.9,M,53.8,M,,*44
138 11 43 53 4333.6884000128.70715204.6~ 00128.70715 204.6 1101011000 1100010011 1100100110 10000010010 10000110110 1011111000 1100111011 1101110110 1011101000 1101011110 1011011000 1100000000 10000101000 10000111010 1100001100 1100000011 1100000011 1011110100 21.125 53.544 1003.8 138568 17 -353 14 59 51 3 $GNGGA,114353.00,4333.68840,N,00128.70715,E,1,07,1.26,204.6,M,53.8,M,,*45
139 11 43 54 4333.6884900128.70698205.2~ 00128.70698 205.2 1101011000 1100010100 1100100111 10000001011 10000110011 1011110111 1100111100 1110000000 1011110111 1101011110 1011011010 1100000011 10000100010 10000111000 1100001010 1100000010 1100000110 1011111011 21.125 53.483 1003.8 139568 16 -356 14 58 51 4 $GNGGA,114354.00,4333.68849,N,00128.70698,E,1,07,1.26,205.2,M,53.8,M,,*4A
140 11 43 55 4333.6883000128.70671206.1~ 00128.70671 206.1 1101011000 1100010000 1100100101 10000001010 10000110110 1011110111 1100111110 1101110001 1011101110 1101011110 1011011001 1011111110 10000100100 10000111001 1100001110 1100000011 1100000100 1011111101 21.125 53.330 1003.8 140568 17 -356 14 59 51 3 $GNGGA,114355.00,4333.68830,N,00128.70671,E,1,06,1.29,206.1,M,53.8,M,,*4C
141 11 43 56 4333.6892800128.70655207.0~ 00128.70655 207.0 1101011000 1100010010 1100100100 10000001010 10000110011 1011110011 1100111011 1101111001 1011110011 1101011110 1011010111 1100000000 10000101000 10000111010 1100001001 1100000011 1100000100 1011111011 21.125 53.185 1003.8 141568 16 -357 15 58 51 3 $GNGGA,114356.00,4333.68928,N,00128.70655,E,1,06,1.93,207.0,M,53.8,M,,*40
142 11 43 57 4333.6890600128.70599207.9~ 00128.70599 207.9 1101011000 1100010100 1100101011 10000001011 10000110101 1011110011 1100111001 1110000000 1011101000 1101011110 1011011000 1011111111 10000100101 10000111010 1100010000 1100001000 1100000010 1011110100 21.125 53.025 1003.8 142568 17 -360 14 59 51 3 $GNGGA,114357.00,4333.68906,N,00128.70599,E,1,06,1.92,207.9,M,53.8,M,,*46
143 11 43 58 4333.6886300128.70582208.7~ 00128.70582 208.7 1101011000 1100010000 1100100110 10000001010 10000110101 1011111001 1100111101 1101111100 1011101101 1101011101 1011011010 1100000000 10000100100 10000111001 1100001000 1100000001 1100000110 1011111101 21.125 52.933 1003.8 143568 16 -363 15 58 51 3 $GNGGA,114358.00,4333.68863,N,00128.70582,E,1,06,1.92,208.7,M,53.8,M,,*40
144 11 43 59 4333.6888400128.70600209.6~ 00128.70600 209.6 1101011000 1100010101 1100101000 10000001100 10000110110 1011110001 1100110110 1101110010 1011101011 1101011110 1011010111 1011111111 10000101000 10000111011 1100001010 1100000000 1100000000 1011110110 21.063 52.819 1003.8 144568 16 -362 14 58 52 3 $GNGGA,114359.00,4333.68884,N,00128.70600,E,1,06,1.92,209.6,M,53.8,M,,*41
145 11 44 00 4333.6890300128.70611210.6~ 00128.70611 210.6 1101011000 1100010001 1100100100 10000001011 10000110100 1011101100 1100111000 1101110100 1011101100 1101011110 1011011000 1011111111 10000100000 10000111100 1100001001 1100000000 1100000110 1011111111 21.125 52.727 1003.9 145568 16 -363 15 58 51 3 $GNGGA,114400.00,4333.68903,N,00128.70611,E,1,06,1.92,210.6,M,53.8,M,,*4C
146 11 44 01 4333.6893800128.70615211.5~ 00128.70615 211.5 1101011000 1100010010 1100100110 10000001000 10000110100 1011110010 1100110101 1101110010 1011101100 1101011110 1011010111 1011111111 10000011110 10000111001 1100001000 1100000010 1100000100 1011111010 21.125 52.681 1003.8 146568 16 -363 14 58 52 3 $GNGGA,114401.00,4333.68938,N,00128.70615,E,1,06,1.92,211.5,M,53.8,M,,*43
147 11 44 02 4333.6892000128.70589212.6~ 00128.70589 212.6 1101011000 1100010100 1100100101 10000001000 10000110111 1011101110 1100110100 1101110011 1011101010 1101011110 1011011000 1100000000 10000100101 10000111001 1100001110 1100000111 1100000011 1100000001 21.063 52.651 1003.8 147568 17 -365 14 59 51 3 $GNGGA,114402.00,4333.68920,N,00128.70589,E,1,06,1.92,212.6,M,53.8,M,,*4F
148 11 44 03 4333.6897000128.70607213.5~ 00128.70607 213.5 1101011000 1100010010 1100100110 10000010000 10000111000 1011101011 1100110000 1101110110 1011100111 1101011110 1011011000 1011111111 10000101000 10000111001 1100001010 1100000100 1100001000 1011111010 21.125 52.643 1003.8 148568 16 -365 15 58 51 3 $GNGGA,114403.00,4333.68970,N,00128.70607,E,1,06,1.92,213.5,M,53.8,M,,*4C
149 11 44 04 4333.6893200128.70562214.5~ 00128.70562 214.5 1101011000 1100010100 1100101000 10000010001 10000110110 1011110001 1100110111 1101110101 1011100011 1101011110 1011011001 1100000010 10000101010 10000111011 1100010100 1100001000 1100001001 1011111111 21.125 52.643 1003.8 149568 18 -366 14 59 51 3 $GNGGA,114404.00,4333.68932,N,00128.70562,E,1,06,1.92,214.5,M,53.8,M,,*4A
150 11 44 05 4333.6900200128.70592215.5~ 00128.70592 215.5 1101011000 1100010101 1100100111 10000010101 10000110111 1011110011 1100110100 1101101111 1011100001 1101011110 1011010110 1011111110 10000110000 10000111011 1100010010 1100000100 1100000010 1011111000 21.063 52.628 1003.8 150568 16 -370 15 58 51 3 $GNGGA,114405.00,4333.69002,N,00128.70592,E,1,05,2.65,215.5,M,53.8,M,,*46
151 11 44 06 4333.6903100128.70604216.4~ 00128.70604 216.4 1101011000 1100010010 1100100011 10000001011 10000110110 1011110110 1100111011 1101111001 1011100110 1101011110 1011011000 1011111110 10000101001 10000111000 1100001011 1100000001 1100000111 1100000010 21.063 52.613 1003.8 151568 17 -369 14 59 51 3 $GNGGA,114406.00,4333.69031,N,00128.70604,E,1,06,1.92,216.4,M,53.8,M,,*43
152 11 44 07 4333.6901800128.70601217.1~ 00128.70601 217.1 1101011000 1100010110 1100100110 10000001010 10000110101 1011110011 1100111100 1101110100 1011100000 1101011110 1011011010 1100000000 10000110001 10000111010 1100000111 1100000001 1100000111 1011111110 21.063 52.605 1003.8 152568 16 -369 15 58 51 3 $GNGGA,114407.00,4333.69018,N,00128.70601,E,1,06,1.92,217.1,M,53.8,M,,*48
153 11 44 08 4333.6902100128.70595217.9~ 00128.70595 217.9 1101011000 1100010101 1100100110 10000001100 10000110011 1011110101 1101000000 1101110111 1011101000 1101011110 1011010111 1011111110 10000101011 10000111011 1100001010 1100000001 1100000110 1011111110 21.063 52.613 1003.8 153568 16 -371 14 58 52 3 $GNGGA,114408.00,4333.69021,N,00128.70595,E,1,06,1.92,217.9,M,53.8,M,,*4B
154 11 44 09 4333.6901200128.70583218.7~ 00128.70583 218.7 1101011000 1100010000 1100100100 10000001010 10000110010 1011111010 1100111111 1101110011 1011101000 1101011110 1011011010 1100000010 10000101000 10000111000 1100001100 1100000100 1100000010 1011111001 21.063 52.666 1003.8 154568 17 -373 14 59 51 3 $GNGGA,114409.00,4333.69012,N,00128.70583,E,1,06,1.92,218.7,M,53.8,M,,*4C
155 11 44 10 4333.6903700128.70566219.6~ 00128.70566 219.6 1101011000 1100010011 1100100110 10000010011 10000110110 1011110110 1101000001 1101110011 1011100001 1101011110 1011011001 1100000000 10000101001 10000111100 1100001011 1100000111 1100000011 1011111110 21.063 52.720 1003.8 155568 16 -373 14 58 51 4 $GNGGA,114410.00,4333.69037,N,00128.70566,E,1,06,1.92,219.6,M,53.8,M,,*48
