id HH MM SS longitude latitude altitude adc_1_ch0 adc_1_ch1 adc_1_ch2 adc_1_ch3 adc_1_ch4 adc_1_ch5 adc_1_ch6 adc_1_ch7 adc_1_ch8 adc_2_ch0 adc_2_ch1 adc_2_ch2 adc_2_ch3 adc_2_ch4 adc_2_ch5 adc_2_ch6 adc_2_ch7 adc_2_ch8 temp hum pres t_prog t_gps t_split t_adc t_temp t_hum t_pres trame_gga
1 12 17 28 4333.6842400128.72828176.5~ 00128.72828 176.5 1101011001 1100010110 1100101001 10000010011 10000110111 1011110001 1100110110 1101101101 1011101111 1101011110 1011011001 1100000010 10000100011 10000111000 1100001001 1100000100 1100000100 1011111100 21.500 51.789 795.83 1574 16 -1058 15 60 50 4 $GNGGA,121728.00,4333.68424,N,00128.72828,E,1,09,1.00,176.5,M,53.8,M,,*49
2 12 17 30 4333.6834700128.72972174.0~ 00128.72972 174.0 1101011001 1100010000 1100100110 10000010011 10000111000 1011110011 1100110101 1101101001 1011100111 1101011110 1011010110 1100000001 10000100011 10000111001 1100000101 1011111100 1100000011 1011111010 21.500 51.812 1003.4 2638 16 -126 15 59 51 3 $GNGGA,121730.00,4333.68347,N,00128.72972,E,1,08,1.10,174.0,M,53.8,M,,*4B
3 12 17 31 4333.6835100128.73077172.4~ 00128.73077 172.4 1101011001 1100010011 1100100111 10000001110 10000111001 1011110110 1100111110 1101101110 1011101111 1101011110 1011011001 1011111111 10000100100 10000111011 1100001011 1100000100 1100000011 1011111111 21.500 51.804 1003.4 3639 16 -126 14 59 52 3 $GNGGA,121731.00,4333.68351,N,00128.73077,E,1,08,1.10,172.4,M,53.8,M,,*42
4 12 17 32 4333.6836400128.73111171.3~ 00128.73111 171.3 1101011001 1100010110 1100100111 10000001100 10000111011 1011110100 1100111001 1101101010 1011101011 1101011110 1011011001 1011111110 10000101001 10000111010 1100001101 1100001000 1100000011 1011111011 21.500 51.789 1003.4 4637 18 -126 13 60 51 4 $GNGGA,121732.00,4333.68364,N,00128.73111,E,1,08,1.10,171.3,M,53.8,M,,*42
5 12 17 33 4333.6837800128.73107171.5~ 00128.73107 171.5 1101011001 1100010011 1100100110 10000000111 10000110011 1011110000 1100110110 1101101100 1011101100 1101011110 1011010010 1011111101 10000100111 10000111011 1100010001 1100000110 1100000100 1011111010 21.500 51.789 1003.4 5637 16 -125 14 59 50 5 $GNGGA,121733.00,4333.68378,N,00128.73107,E,1,07,1.21,171.5,M,53.8,M,,*42
6 12 17 34 4333.6841000128.73143170.6~ 00128.73143 170.6 1101011001 1100010100 1100100110 10000001110 10000110010 1011110011 1100111100 1101101110 1011101010 1101011110 1011010111 1100000000 10000100100 10000111001 1100001100 1100000101 1100000101 1011111111 21.500 51.827 1003.4 6637 17 -127 14 60 50 4 $GNGGA,121734.00,4333.68410,N,00128.73143,E,1,08,1.10,170.6,M,53.8,M,,*43
7 12 17 35 4333.6843400128.73187169.2~ 00128.73187 169.2 1101011001 1100010110 1100101010 10000001100 10000110101 1011111010 1101000001 1101101110 1011101010 1101011111 1011010110 1011111101 10000101000 10000111100 1100001110 1100000101 1011111011 1011111010 21.500 51.835 1003.4 7638 16 -129 15 59 50 4 $GNGGA,121735.00,4333.68434,N,00128.73187,E,1,08,1.10,169.2,M,53.8,M,,*40
8 12 17 36 4333.6839400128.73178168.2~ 00128.73178 168.2 1101011001 1100010101 1100101000 10000000101 10000110111 1011110110 1100111110 1101101100 1011101011 1101011111 1011011000 1100000011 10000101010 10000111011 1100010010 1100001010 1100000001 1011111101 21.500 51.842 1003.4 8638 17 -129 14 60 50 4 $GNGGA,121736.00,4333.68394,N,00128.73178,E,1,08,1.10,168.2,M,53.8,M,,*4F
9 12 17 37 4333.6836600128.73204167.0~ 00128.73204 167.0 1101011000 1100010010 1100100111 10000001101 10000110110 1011110110 1100111011 1101101011 1011101010 1101011110 1011010101 1011111110 10000100111 10000111011 1100001101 1100000001 1100001001 1011111110 21.500 51.835 1003.4 9638 16 -134 15 59 50 4 $GNGGA,121737.00,4333.68366,N,00128.73204,E,1,07,1.61,167.0,M,53.8,M,,*4F
10 12 17 38 4333.6833200128.73211166.8~ 00128.73211 166.8 1101011001 1100010001 1100100101 10000000100 10000110100 1011110100 1100111011 1101110010 1011101101 1101011110 1011011000 1100000010 10000100111 10000111010 1100001000 1011111111 1100001010 1011111011 21.500 51.880 1003.4 10638 16 -133 14 59 51 4 $GNGGA,121738.00,4333.68332,N,00128.73211,E,1,06,2.31,166.8,M,53.8,M,,*4B
11 12 17 39 4333.6832300128.73227166.6~ 00128.73227 166.6 1101011001 1100010110 1100101000 10000001011 10000110101 1011101110 1100110101 1101100111 1011100011 1101011110 1011010111 1100000000 10000100110 10000111010 1100001010 1100000100 1100001101 1011110110 21.438 51.934 1003.4 11638 16 -135 15 59 50 4 $GNGGA,121739.00,4333.68323,N,00128.73227,E,1,06,2.31,166.6,M,53.8,M,,*41
12 12 17 40 4333.6836400128.73259166.4~ 00128.73259 166.4 1101011001 1100010101 1100100111 10000001101 10000110110 1011110101 1101000011 1101101101 1011110010 1101011110 1011011001 1100000100 10000101001 10000111100 1100001011 1100000100 1100001111 1100000001 21.500 52.292 1003.4 12638 16 -135 14 59 51 4 $GNGGA,121740.00,4333.68364,N,00128.73259,E,1,06,2.31,166.4,M,53.8,M,,*47
13 12 17 41 4333.6840600128.73290166.1~ 00128.73290 166.1 1101011001 1100010011 1100100110 10000000011 10000110011 1011111011 1101000011 1101110001 1011100101 1101011110 1011010111 1011111110 10000100100 10000111010 1100001100 1100000101 1100000101 1011111010 21.500 52.308 1003.4 13638 17 -137 14 60 50 4 $GNGGA,121741.00,4333.68406,N,00128.73290,E,1,06,2.31,166.1,M,53.8,M,,*45
14 12 17 42 4333.6851300128.73372165.1~ 00128.73372 165.1 1101011001 1100010101 1100101001 10000001100 10000110111 1011110011 1100111011 1101101101 1011100010 1101011110 1011010100 1011111110 10000011100 10000111001 1100000111 1100000000 1100001100 1011111101 21.500 52.300 1003.4 14638 16 -135 14 59 50 5 $GNGGA,121742.00,4333.68513,N,00128.73372,E,1,07,1.61,165.1,M,53.8,M,,*4A
15 12 17 43 4333.6858700128.73456164.8~ 00128.73456 164.8 1101011001 1100010011 1100100101 10000010000 10000111000 1011110110 1100111000 1101101011 1011100101 1101011110 1011010111 1100000010 10000100000 10000111001 1100001100 1100000001 1100000111 1011111100 21.500 52.178 1003.4 15638 17 -136 14 59 51 4 $GNGGA,121743.00,4333.68587,N,00128.73456,E,1,06,2.31,164.8,M,53.8,M,,*48
16 12 17 44 4333.6859300128.73573164.5~ 00128.73573 164.5 1101011001 1100010110 1100101001 10000001011 10000110110 1011110010 1100111000 1101110000 1011101001 1101011110 1011011010 1011111111 10000100100 10000111011 1100001110 1100001001 1011111110 1011110101 21.500 52.071 1003.4 16638 17 -139 14 58 51 4 $GNGGA,121744.00,4333.68593,N,00128.73573,E,1,06,3.38,164.5,M,53.8,M,,*49
17 12 17 45 4333.6853500128.73788164.1~ 00128.73788 164.1 1101011001 1100010001 1100100100 10000010110 10000111001 1011110110 1100111100 1101110010 1011101010 1101011110 1011010110 1011111111 10000100001 10000111010 1100010001 1100000111 1100000011 1011111011 21.500 51.987 1003.4 17638 18 -138 13 59 51 4 $GNGGA,121745.00,4333.68535,N,00128.73788,E,1,06,3.38,164.1,M,53.8,M,,*46
18 12 17 46 4333.6865000128.73853163.7~ 00128.73853 163.7 1101011001 1100010101 1100100111 10000010011 10000111000 1011110111 1100111100 1101101111 1011101011 1101011110 1011010101 1011111111 10000100001 10000111001 1100001100 1100000010 1100000010 1011111001 21.500 51.896 1003.4 18638 17 -140 15 58 51 3 $GNGGA,121746.00,4333.68650,N,00128.73853,E,1,06,1.64,163.7,M,53.8,M,,*46
19 12 17 47 4333.6874000128.73895163.0~ 00128.73895 163.0 1101011001 1100001111 1100100111 10000010011 10000111000 1011111000 1100111101 1101101101 1011100110 1101011110 1011010111 1100000000 10000100001 10000111011 1100010000 1100001000 1100000000 1011111110 21.500 51.812 1003.4 19638 17 -141 13 58 52 4 $GNGGA,121747.00,4333.68740,N,00128.73895,E,1,06,1.64,163.0,M,53.8,M,,*4A
20 12 17 48 4333.6878300128.73912162.2~ 00128.73912 162.2 1101011001 1100001111 1100100100 10000001110 10000110011 1011111000 1100111110 1101100111 1011011100 1101011110 1011010111 1011111111 10000011110 10000111000 1100001100 1100000010 1100000101 1011111011 21.500 51.766 1003.4 20638 17 -144 14 59 51 3 $GNGGA,121748.00,4333.68783,N,00128.73912,E,1,06,1.64,162.2,M,53.8,M,,*47
21 12 17 49 4333.6879800128.73831161.5~ 00128.73831 161.5 1101011001 1100010011 1100100111 10000001101 10000110100 1011111010 1100111110 1101101111 1011100000 1101011110 1011010111 1100000001 10000100011 10000111010 1100010001 1100000110 1100000010 1011111010 21.500 51.743 1003.4 21638 16 -143 14 58 51 4 $GNGGA,121749.00,4333.68798,N,00128.73831,E,1,06,1.64,161.5,M,53.8,M,,*48
22 12 17 50 4333.6887500128.73950159.0~ 00128.73950 159.0 1101011001 1100010011 1100100110 10000001100 10000111000 1011110110 1100111111 1101100101 1011011110 1101011110 1011011000 1100000011 10000101001 10000111010 1100001010 1100000011 1100000110 1011111101 21.500 51.690 1003.4 22638 17 -144 14 59 51 3 $GNGGA,121750.00,4333.68875,N,00128.73950,E,1,06,1.40,159.0,M,53.8,M,,*42
23 12 17 51 4333.6890300128.74028156.8~ 00128.74028 156.8 1101011001 1100010010 1100100110 10000000111 10000111000 1011111001 1100111010 1101101100 1011101000 1101011110 1011011010 1100000000 10000100101 10000111001 1100001011 1100000111 1100001010 1011111100 21.500 51.644 1003.4 23638 16 -143 15 58 51 3 $GNGGA,121751.00,4333.68903,N,00128.74028,E,1,06,1.80,156.8,M,53.8,M,,*49
24 12 17 52 4333.6895600128.74108154.6~ 00128.74108 154.6 1101011001 1100010100 1100100111 10000001110 10000111010 1011110111 1100111011 1101101101 1011100011 1101011110 1011011000 1011111111 10000101001 10000111010 1100001010 1100000101 1100000001 1011111010 21.500 51.629 1003.4 24638 17 -146 14 59 51 3 $GNGGA,121752.00,4333.68956,N,00128.74108,E,1,07,1.39,154.6,M,53.8,M,,*46
25 12 17 53 4333.6896600128.74200152.2~ 00128.74200 152.2 1101011001 1100010010 1100100111 10000001101 10000111001 1011110101 1100110111 1101110110 1011110011 1101011110 1011011000 1011111111 10000011110 10000111011 1100001101 1100000110 1100000110 1100000000 21.500 51.621 1003.4 25638 16 -147 15 58 51 3 $GNGGA,121753.00,4333.68966,N,00128.74200,E,1,06,1.80,152.2,M,53.8,M,,*4E
26 12 17 54 4333.6900800128.74262149.7~ 00128.74262 149.7 1101011001 1100010011 1100100101 10000010001 10000110111 1011110111 1100111101 1101110000 1011101010 1101011110 1011010111 1011111110 10000100111 10000111001 1100001000 1100000001 1100000000 1011110111 21.500 51.613 1003.4 26638 16 -149 14 58 52 3 $GNGGA,121754.00,4333.69008,N,00128.74262,E,1,07,1.39,149.7,M,53.8,M,,*41
27 12 17 55 4333.6902600128.74291148.4~ 00128.74291 148.4 1101011001 1100010101 1100101000 10000010001 10000111000 1011111000 1100111100 1101101001 1011101010 1101011110 1011010110 1011111110 10000101000 10000111011 1100001001 1100000001 1100000001 1100000001 21.500 51.598 1003.4 27638 16 -150 15 58 51 3 $GNGGA,121755.00,4333.69026,N,00128.74291,E,1,06,1.80,148.4,M,53.8,M,,*41
28 12 17 56 4333.6906300128.74306146.7~ 00128.74306 146.7 1101011001 1100010011 1100101000 10000001111 10000110100 1011111010 1100111110 1101110000 1011100111 1101011110 1011011000 1100000001 10000101100 10000111100 1100010000 1100000110 1100001001 1100000100 21.500 51.583 1003.4 28638 16 -150 14 58 52 3 $GNGGA,121756.00,4333.69063,N,00128.74306,E,1,07,1.39,146.7,M,53.8,M,,*42
29 12 17 57 4333.6933700128.74636143.4~ 00128.74636 143.4 1101011001 1100010011 1100100100 10000001011 10000110101 1011110100 1100110101 1101110001 1011101011 1101011110 1011010111 1100000000 10000100011 10000111001 1100010001 1100000101 1100000111 1011111000 21.500 51.560 1003.4 29638 17 -150 14 59 51 3 $GNGGA,121757.00,4333.69337,N,00128.74636,E,1,08,1.03,143.4,M,53.8,M,,*47
30 12 17 58 4333.6934100128.74650142.9~ 00128.74650 142.9 1101011001 1100010101 1100100111 10000010010 10000110110 1011101111 1100110011 1101101100 1011101010 1101011110 1011010101 1011111101 10000100111 10000111011 1100001101 1100000100 1100000101 1011111100 21.500 51.537 1003.4 30638 16 -153 15 58 51 3 $GNGGA,121758.00,4333.69341,N,00128.74650,E,1,05,2.79,142.9,M,53.8,M,,*46
31 12 17 59 4333.6929400128.74711141.2~ 00128.74711 141.2 1101011001 1100010010 1100100111 10000010010 10000111000 1011111010 1100111100 1101101101 1011011110 1101011110 1011010101 1011111110 10000011110 10000111001 1100001101 1100000100 1100000101 1011111001 21.500 51.529 1003.4 31638 17 -155 14 59 51 3 $GNGGA,121759.00,4333.69294,N,00128.74711,E,1,06,1.80,141.2,M,53.8,M,,*44
32 12 18 00 4333.6929800128.74748140.0~ 00128.74748 140.0 1101011000 1100010010 1100100110 10000001000 10000110101 1011110101 1100111100 1101101111 1011100010 1101011110 1011011010 1011111101 10000101010 10000111011 1100001011 1100000100 1011111111 1011111000 21.500 51.560 1003.4 32638 16 -153 15 58 51 3 $GNGGA,121800.00,4333.69298,N,00128.74748,E,1,06,1.80,140.0,M,53.8,M,,*44
33 12 18 01 4333.6934400128.74772138.7~ 00128.74772 138.7 1101011001 1100010010 1100100111 10000001101 10000110101 1011110011 1100111000 1101110001 1011101101 1101011110 1011011000 1100000001 10000100110 10000111010 1100000101 1011111111 1100000110 1011111111 21.500 51.568 1003.4 33638 17 -155 14 59 51 3 $GNGGA,121801.00,4333.69344,N,00128.74772,E,1,06,1.80,138.7,M,53.8,M,,*44
34 12 18 02 4333.6933300128.74802137.7~ 00128.74802 137.7 1101011001 1100010001 1100100111 10000001010 10000110100 1011110100 1100110111 1101101101 1011011111 1101011110 1011010110 1011111110 10000101001 10000111011 1100001011 1100000100 1100000001 1011111101 21.500 51.575 1003.4 34638 16 -154 15 58 51 3 $GNGGA,121802.00,4333.69333,N,00128.74802,E,1,07,1.61,137.7,M,53.8,M,,*4E
35 12 18 03 4333.6936300128.74861137.0~ 00128.74861 137.0 1101011001 1100010011 1100100101 10000001101 10000110101 1011110101 1100111111 1101110000 1011101011 1101011110 1011011011 1100000001 10000101000 10000111010 1100001110 1100001010 1011111111 1011111010 21.500 51.568 1003.4 35638 16 -156 14 58 52 3 $GNGGA,121803.00,4333.69363,N,00128.74861,E,1,08,1.35,137.0,M,53.8,M,,*46
36 12 18 04 4333.6938400128.74921136.4~ 00128.74921 136.4 1101011001 1100010100 1100100111 10000001111 10000111001 1011110111 1101000000 1101101101 1011101011 1101011110 1011011000 1100000000 10000100010 10000111000 1100001111 1100001001 1100000001 1011111110 21.500 51.575 1003.4 36638 17 -157 14 59 51 3 $GNGGA,121804.00,4333.69384,N,00128.74921,E,1,08,1.35,136.4,M,53.8,M,,*48
37 12 18 05 4333.6940300128.75020136.0~ 00128.75020 136.0 1101011001 1100010010 1100100110 10000001011 10000110110 1011110001 1100111011 1101101111 1011100111 1101011110 1011010101 1100000000 10000100100 10000111001 1100001001 1100000001 1100000010 1011110101 21.500 51.575 1003.4 37638 16 -157 14 58 51 4 $GNGGA,121805.00,4333.69403,N,00128.75020,E,1,07,1.36,136.0,M,53.8,M,,*40
38 12 18 06 4333.6943800128.75075135.6~ 00128.75075 135.6 1101011001 1100010101 1100101000 10000001001 10000110100 1011110100 1100110110 1101110011 1011101011 1101011110 1011010111 1100000001 10000100011 10000111011 1100001111 1100000110 1100000010 1011111000 21.500 51.590 1003.4 38638 17 -162 14 59 51 3 $GNGGA,121806.00,4333.69438,N,00128.75075,E,1,07,1.36,135.6,M,53.8,M,,*4E
39 12 18 07 4333.6950400128.75173135.7~ 00128.75173 135.7 1101011001 1100010101 1100100111 10000000111 10000110100 1011111001 1100111011 1101101010 1011100101 1101011111 1011011000 1100000000 10000100011 10000111010 1100001111 1100000111 1011111010 1011110010 21.500 51.613 1003.4 39638 16 -159 15 58 51 3 $GNGGA,121807.00,4333.69504,N,00128.75173,E,1,06,1.68,135.7,M,53.8,M,,*4D
40 12 18 08 4333.6951900128.75158135.6~ 00128.75158 135.6 1101011001 1100010001 1100100100 10000001000 10000110010 1011110001 1100110110 1101101001 1011100101 1101011110 1011010101 1011111110 10000100101 10000111010 1100001110 1100000101 1100000101 1011111110 21.500 51.629 1003.4 40638 17 -162 14 59 51 3 $GNGGA,121808.00,4333.69519,N,00128.75158,E,1,06,1.68,135.6,M,53.8,M,,*46
41 12 18 09 4333.6950400128.75156135.2~ 00128.75156 135.2 1101011001 1100010111 1100101010 10000001011 10000110110 1011110100 1100111010 1101101011 1011101000 1101011110 1011011010 1100000011 10000100010 10000111001 1100001101 1100000011 1100000111 1100000011 21.500 51.644 1003.4 41638 16 -161 15 58 51 3 $GNGGA,121809.00,4333.69504,N,00128.75156,E,1,06,1.68,135.2,M,53.8,M,,*41
42 12 18 10 4333.6955100128.75268135.4~ 00128.75268 135.4 1101011001 1100010011 1100100100 10000001010 10000110101 1011110010 1100111010 1101101100 1011100100 1101011110 1011010111 1011111100 10000101010 10000111101 1100001101 1100000011 1011111101 1011110101 21.500 51.621 1003.4 42638 16 -164 14 58 52 3 $GNGGA,121810.00,4333.69551,N,00128.75268,E,1,06,1.68,135.4,M,53.8,M,,*41
43 12 18 11 4333.6956700128.75295135.4~ 00128.75295 135.4 1101011001 1100010100 1100101000 10000001011 10000110100 1011111010 1100111110 1101101010 1011101000 1101011111 1011010111 1011111111 10000100100 10000111010 1100000100 1100000001 1011111110 1011110101 21.500 51.606 1003.4 43638 16 -165 15 58 51 3 $GNGGA,121811.00,4333.69567,N,00128.75295,E,1,06,1.68,135.4,M,53.8,M,,*47
44 12 18 12 4333.6958800128.75349135.5~ 00128.75349 135.5 1101011001 1100010010 1100100111 10000010001 10000110101 1011110101 1100111101 1101101111 1011101101 1101011110 1011011000 1100000000 10000100110 10000111011 1100001011 1100000100 1100000111 1011110111 21.500 51.606 1003.4 44638 16 -165 14 58 52 3 $GNGGA,121812.00,4333.69588,N,00128.75349,E,1,06,1.68,135.5,M,53.8,M,,*44
45 12 18 13 4333.6955400128.75358135.9~ 00128.75358 135.9 1101011001 1100010100 1100101000 10000010000 10000110110 1011110101 1100111011 1101110000 1011101000 1101011110 1011010101 1100000000 10000100001 10000111001 1100001110 1100000111 1100000001 1011111000 21.500 51.583 1003.4 45638 17 -167 14 59 51 3 $GNGGA,121813.00,4333.69554,N,00128.75358,E,1,06,1.68,135.9,M,53.8,M,,*48
46 12 18 14 4333.6953800128.75399135.9~ 00128.75399 135.9 1101011001 1100010011 1100101010 10000001010 10000110101 1011111100 1100111101 1101101100 1011101010 1101011110 1011011011 1100000010 10000100101 10000111010 1100001100 1100000011 1100000100 1100000010 21.500 51.568 1003.4 46638 16 -167 15 58 51 3 $GNGGA,121814.00,4333.69538,N,00128.75399,E,1,06,1.68,135.9,M,53.8,M,,*48
47 12 18 15 4333.6958400128.75475136.1~ 00128.75475 136.1 1101011001 1100010101 1100101000 10000001101 10000110110 1011110100 1100111000 1101101101 1011101111 1101011110 1011010101 1100000000 10000101001 10000111001 1100001101 1100000111 1011111110 1011110110 21.500 51.568 1003.4 47638 17 -169 14 59 51 3 $GNGGA,121815.00,4333.69584,N,00128.75475,E,1,06,1.68,136.1,M,53.8,M,,*40
48 12 18 16 4333.6952400128.75487136.2~ 00128.75487 136.2 1101011001 1100010000 1100100010 10000001000 10000110111 1011110011 1100111001 1101101110 1011101101 1101011110 1011011000 1100000000 10000100001 10000111010 1100001111 1100000101 1011111101 1011110100 21.500 51.560 1003.4 48638 16 -170 15 58 51 3 $GNGGA,121816.00,4333.69524,N,00128.75487,E,1,06,1.68,136.2,M,53.8,M,,*47
49 12 18 17 4333.6956600128.75504136.3~ 00128.75504 136.3 1101011000 1100010010 1100100101 10000001011 10000110101 1011111000 1100111001 1101110001 1011110010 1101011110 1011011011 1100000011 10000011101 10000111001 1100001110 1100000110 1011111011 1011110010 21.500 51.568 1003.4 49638 17 -173 14 59 51 3 $GNGGA,121817.00,4333.69566,N,00128.75504,E,1,06,1.68,136.3,M,53.8,M,,*4B
50 12 18 18 4333.6960200128.75498136.7~ 00128.75498 136.7 1101011001 1100010011 1100100110 10000000101 10000110010 1011110000 1100111000 1101101000 1011100111 1101011110 1011010100 1011111100 10000100000 10000111000 1100001110 1100001000 1100000101 1011111111 21.500 51.613 1003.4 50638 16 -172 15 58 51 3 $GNGGA,121818.00,4333.69602,N,00128.75498,E,1,06,1.68,136.7,M,53.8,M,,*45
51 12 18 19 4333.6965600128.75580137.3~ 00128.75580 137.3 1101011001 1100010001 1100100100 10000010000 10000110111 1011110101 1100111111 1101101010 1011101011 1101011110 1011010100 1011111111 10000101000 10000111100 1100001110 1100000111 1100000100 1011111011 21.500 51.667 1003.4 51638 16 -170 14 58 52 3 $GNGGA,121819.00,4333.69656,N,00128.75580,E,1,06,1.68,137.3,M,53.8,M,,*48
52 12 18 20 4333.6966500128.75570137.8~ 00128.75570 137.8 1101011001 1100010011 1100100110 10000001101 10000111000 1011111001 1100111111 1101110001 1011101110 1101011110 1011011001 1100000001 10000100000 10000111001 1100001110 1100000111 1100000111 1100001001 21.500 51.697 1003.4 52638 17 -173 14 59 51 3 $GNGGA,121820.00,4333.69665,N,00128.75570,E,1,06,1.68,137.8,M,53.8,M,,*46
53 12 18 21 4333.6961700128.75583137.9~ 00128.75583 137.9 1101011000 1100010110 1100101000 10000001111 10000110111 1011110110 1100111110 1101101100 1011101100 1101011110 1011010111 1011111101 10000100101 10000111101 1100001110 1100000011 1100001001 1100001010 21.500 51.682 1003.4 53638 16 -175 14 58 51 4 $GNGGA,121821.00,4333.69617,N,00128.75583,E,1,06,1.68,137.9,M,53.8,M,,*4F
54 12 18 22 4333.6960100128.75621138.7~ 00128.75621 138.7 1101011001 1100010010 1100101000 10000001000 10000110101 1011110101 1100111100 1101101011 1011101001 1101011110 1011011011 1100000010 10000100100 10000111010 1100010001 1100000111 1100000100 1011111011 21.500 51.636 1003.4 54638 17 -174 14 59 51 3 $GNGGA,121822.00,4333.69601,N,00128.75621,E,1,07,1.61,138.7,M,53.8,M,,*49
55 12 18 23 4333.6958400128.75620139.1~ 00128.75620 139.1 1101011001 1100010101 1100100111 10000001110 10000110111 1011110011 1100111000 1101101100 1011110001 1101011111 1011011001 1100000001 10000101000 10000111100 1100001101 1100001000 1011111100 1011111000 21.500 51.583 1003.4 55638 16 -175 15 58 51 3 $GNGGA,121823.00,4333.69584,N,00128.75620,E,1,07,1.61,139.1,M,53.8,M,,*40
56 12 18 24 4333.6957100128.75688139.7~ 00128.75688 139.7 1101011001 1100010001 1100100110 10000001100 10000111000 1011110110 1100111011 1101110010 1011101010 1101011110 1011010110 1100000000 10000100011 10000111010 1100001010 1100000001 1011111100 1011110000 21.500 51.575 1003.4 56638 17 -176 14 59 51 3 $GNGGA,121824.00,4333.69571,N,00128.75688,E,1,07,1.61,139.7,M,53.8,M,,*49
57 12 18 25 4333.6954900128.75627140.2~ 00128.75627 140.2 1101011001 1100010011 1100100111 10000010010 10000111001 1011111010 1101000101 1101110111 1011110100 1101011110 1011011000 1100000000 10000011110 10000111000 1100001100 1100000101 1100000000 1011110101 21.500 51.560 1003.4 57638 16 -178 15 58 51 3 $GNGGA,121825.00,4333.69549,N,00128.75627,E,1,07,1.61,140.2,M,53.8,M,,*4D
58 12 18 26 4333.6955900128.75637140.9~ 00128.75637 140.9 1101011001 1100010010 1100100011 10000001100 10000110111 1011110101 1100111100 1101110000 1011101110 1101011110 1011011100 1100000001 10000100100 10000111001 1100000110 1100000100 1011111111 1011111001 21.500 51.545 1003.4 58638 16 -178 14 58 52 3 $GNGGA,121826.00,4333.69559,N,00128.75637,E,1,07,1.61,140.9,M,53.8,M,,*45
59 12 18 27 4333.6952600128.75673141.7~ 00128.75673 141.7 1101011000 1100010011 1100100110 10000001010 10000111000 1011110000 1100111001 1101110011 1011101111 1101011110 1011010110 1100000000 10000100001 10000111011 1100001110 1100000110 1100000101 1011111100 21.500 51.529 1003.4 59638 16 -178 15 58 51 3 $GNGGA,121827.00,4333.69526,N,00128.75673,E,1,07,1.61,141.7,M,53.8,M,,*43
60 12 18 28 4333.6947600128.75628142.1~ 00128.75628 142.1 1101011001 1100010010 1100101000 10000001111 10000111000 1011110011 1100111011 1101110011 1011111000 1101011111 1011010110 1011111110 10000011111 10000111010 1100010010 1100001000 1100000001 1011111011 21.500 51.514 1003.4 60638 16 -183 14 58 52 3 $GNGGA,121828.00,4333.69476,N,00128.75628,E,1,07,1.61,142.1,M,53.8,M,,*43
61 12 18 29 4333.6944100128.75651142.5~ 00128.75651 142.5 1101011001 1100010100 1100101001 10000001000 10000110110 1011110111 1100111101 1101101100 1011101011 1101011110 1011010110 1011111111 10000100000 10000111000 1100001111 1100001000 1011111100 1011101110 21.500 51.514 1003.4 61638 17 -180 14 59 51 3 $GNGGA,121829.00,4333.69441,N,00128.75651,E,1,07,1.61,142.5,M,53.8,M,,*4C
62 12 18 30 4333.6945200128.75637142.8~ 00128.75637 142.8 1101011001 1100010010 1100100111 10000001101 10000110111 1011110110 1100111000 1101110001 1011110011 1101011110 1011011001 1100000000 10000100010 10000111011 1100001111 1100001000 1011111111 1011111100 21.500 51.537 1003.4 62638 16 -184 15 58 51 3 $GNGGA,121830.00,4333.69452,N,00128.75637,E,1,07,1.61,142.8,M,53.8,M,,*4B
63 12 18 31 4333.6950700128.75682143.3~ 00128.75682 143.3 1101011001 1100010000 1100100011 10000001111 10000110101 1011110011 1100111000 1101110001 1011110101 1101011110 1011010110 1011111101 10000100010 10000111010 1100001010 1100000011 1011111110 1011110101 21.500 51.537 1003.4 63638 17 -184 14 59 51 3 $GNGGA,121831.00,4333.69507,N,00128.75682,E,1,06,1.74,143.3,M,53.8,M,,*4A
64 12 18 32 4333.6953500128.75688143.5~ 00128.75688 143.5 1101011001 1100010010 1100101001 10000001101 10000110110 1011110110 1100111001 1101110001 1011100110 1101011110 1011010111 1100000001 10000100100 10000111100 1100001100 1100000011 1100000110 1011111111 21.500 51.560 1003.4 64638 16 -185 15 58 51 3 $GNGGA,121832.00,4333.69535,N,00128.75688,E,1,06,1.74,143.5,M,53.8,M,,*44
65 12 18 33 4333.6957900128.75739143.9~ 00128.75739 143.9 1101011001 1100010001 1100100100 10000001100 10000110100 1011110101 1100111100 1101110010 1011101110 1101011110 1011010101 1011111111 10000100100 10000111001 1100001110 1100001010 1011111101 1011111100 21.500 51.568 1003.4 65638 17 -186 14 59 51 3 $GNGGA,121833.00,4333.69579,N,00128.75739,E,1,06,1.74,143.9,M,53.8,M,,*4A
66 12 18 34 4333.6961500128.75745143.3~ 00128.75745 143.3 1101011001 1100010001 1100100110 10000001110 10000110111 1011110100 1100111011 1101100101 1011100011 1101011110 1011010111 1100000000 10000100001 10000111001 1100001110 1100000111 1100000010 1011111000 21.500 51.545 1003.4 66638 16 -186 15 58 51 3 $GNGGA,121834.00,4333.69615,N,00128.75745,E,1,07,1.13,143.3,M,53.8,M,,*45
67 12 18 35 4333.6966900128.75775143.3~ 00128.75775 143.3 1101011001 1100010010 1100100111 10000001011 10000110110 1011110101 1100111001 1101110001 1011101101 1101011110 1011010110 1100000001 10000100011 10000111000 1100001110 1100000110 1100000010 1011111100 21.500 51.560 1003.4 67638 16 -189 14 58 52 3 $GNGGA,121835.00,4333.69669,N,00128.75775,E,1,07,1.13,143.3,M,53.8,M,,*4C
68 12 18 36 4333.6974900128.75743143.5~ 00128.75743 143.5 1101011001 1100010001 1100100110 10000001100 10000110011 1011111000 1100111100 1101110010 1011100010 1101011110 1011011001 1100000000 10000011101 10000111001 1100001101 1100000110 1100000001 1011110001 21.500 51.560 1003.4 68638 17 -187 14 59 51 3 $GNGGA,121836.00,4333.69749,N,00128.75743,E,1,06,1.74,143.5,M,53.8,M,,*4F
69 12 18 37 4333.6981200128.75725143.9~ 00128.75725 143.9 1101011001 1100010010 1100100110 10000010001 10000110101 1011110001 1100110101 1101110101 1011101101 1101011110 1011011000 1011111111 10000100010 10000111010 1100001011 1100000100 1011111100 1011111010 21.500 51.545 1003.4 69638 16 -190 14 58 51 4 $GNGGA,121837.00,4333.69812,N,00128.75725,E,1,06,1.74,143.9,M,53.8,M,,*43
70 12 18 38 4333.6984300128.75752144.0~ 00128.75752 144.0 1101011001 1100010010 1100101000 10000010010 10000111000 1011111000 1101000001 1101110000 1011101111 1101011110 1011010110 1100000000 10000100000 10000111001 1100001001 1100000100 1100000010 1011111101 21.563 51.682 1003.4 70638 17 -191 14 59 51 3 $GNGGA,121838.00,4333.69843,N,00128.75752,E,1,06,1.74,144.0,M,53.8,M,,*46
71 12 18 39 4333.6989700128.75731144.3~ 00128.75731 144.3 1101011001 1100010010 1100100110 10000010011 10000110110 1011110110 1100111001 1101101110 1011100110 1101011110 1011010110 1011111111 10000100101 10000111101 1100001111 1100001000 1100000111 1100000011 21.563 51.606 1003.4 71638 16 -192 15 58 51 3 $GNGGA,121839.00,4333.69897,N,00128.75731,E,1,06,1.74,144.3,M,53.8,M,,*48
72 12 18 40 4333.6986400128.75648144.7~ 00128.75648 144.7 1101011001 1100010100 1100101000 10000000111 10000110101 1011110011 1100111010 1101101010 1011100110 1101011110 1011010101 1100000000 10000100011 10000111011 1100010011 1100000100 1100000001 1011111010 21.500 51.590 1003.4 72638 17 -192 14 59 51 3 $GNGGA,121840.00,4333.69864,N,00128.75648,E,1,06,1.74,144.7,M,53.8,M,,*41
73 12 18 41 4333.6987200128.75578144.8~ 00128.75578 144.8 1101011001 1100010011 1100101001 10000001010 10000110011 1011110110 1100111010 1101101110 1011101000 1101011110 1011011000 1011111111 10000100000 10000111010 1100001101 1100000011 1100000100 1011110101 21.500 51.621 1003.4 73638 16 -194 15 58 51 3 $GNGGA,121841.00,4333.69872,N,00128.75578,E,1,06,1.74,144.8,M,53.8,M,,*48
74 12 18 42 4333.6987300128.75520145.1~ 00128.75520 145.1 1101011001 1100010100 1100101000 10000001101 10000110111 1011110110 1100111000 1101101001 1011101011 1101011110 1011010111 1100000000 10000100100 10000111011 1100001110 1100000111 1100000011 1011110111 21.500 51.568 1003.4 74638 16 -195 14 58 52 3 $GNGGA,121842.00,4333.69873,N,00128.75520,E,1,06,1.74,145.1,M,53.8,M,,*4F
75 12 18 43 4333.6987800128.75446145.2~ 00128.75446 145.2 1101011001 1100010010 1100100110 10000001100 10000110111 1011111010 1101000000 1101101000 1011100100 1101011110 1011010111 1100000001 10000100010 10000111001 1100001110 1100000100 1100000001 1011111110 21.500 51.568 1003.3 75638 16 -194 15 58 51 3 $GNGGA,121843.00,4333.69878,N,00128.75446,E,1,06,1.74,145.2,M,53.8,M,,*47
76 12 18 44 4333.6990000128.75357145.3~ 00128.75357 145.3 1101011000 1100010011 1100100110 10000001110 10000111000 1011111001 1101000010 1101101011 1011011111 1101011110 1011010000 1011111101 10000011111 10000111000 1100001101 1100001000 1100000011 1100000010 21.500 51.613 1003.4 76638 16 -195 14 58 52 3 $GNGGA,121844.00,4333.69900,N,00128.75357,E,1,06,1.74,145.3,M,53.8,M,,*48
77 12 18 45 4333.6992700128.75277145.3~ 00128.75277 145.3 1101011001 1100010001 1100100101 10000001001 10000110011 1011110111 1100111011 1101101011 1011101001 1101011110 1011011001 1100000001 10000100001 10000111011 1100001011 1100000000 1100000001 1011110011 21.500 51.613 1003.3 77638 17 -197 14 59 51 3 $GNGGA,121845.00,4333.69927,N,00128.75277,E,1,06,1.74,145.3,M,53.8,M,,*4F
78 12 18 46 4333.6988400128.75242145.2~ 00128.75242 145.2 1101011001 1100010100 1100100110 10000001010 10000110101 1011101011 1100110010 1101101100 1011101010 1101011110 1011010111 1100000001 10000101110 10000111100 1100010100 1100001000 1100000000 1011111001 21.500 51.606 1003.3 78638 16 -200 15 58 51 3 $GNGGA,121846.00,4333.69884,N,00128.75242,E,1,06,1.74,145.2,M,53.8,M,,*43
79 12 18 47 4333.6992400128.75257145.3~ 00128.75257 145.3 1101011001 1100001111 1100100100 10000001100 10000111000 1011110011 1100111010 1101101000 1011101010 1101011110 1011010110 1011111111 10000100010 10000111001 1100001101 1100001010 1100000001 1011111111 21.500 51.568 1003.3 79638 17 -200 14 59 51 3 $GNGGA,121847.00,4333.69924,N,00128.75257,E,1,06,1.74,145.3,M,53.8,M,,*4C
80 12 18 48 4333.6994700128.75202145.1~ 00128.75202 145.1 1101011001 1100010010 1100100101 10000001010 10000110110 1011111010 1101000001 1101110000 1011100100 1101011110 1011011001 1100000010 10000100011 10000111011 1100010000 1100000100 1100000100 1011111101 21.500 51.552 1003.3 80638 16 -200 15 58 51 3 $GNGGA,121848.00,4333.69947,N,00128.75202,E,1,06,1.74,145.1,M,53.8,M,,*44
81 12 18 49 4333.7002900128.75142145.3~ 00128.75142 145.3 1101011001 1100010100 1100100101 10000001111 10000110101 1011110111 1100111010 1101101100 1011100101 1101011111 1011010110 1100000001 10000100010 10000111100 1100001010 1100000001 1100001010 1011111010 21.500 51.514 1003.3 81638 17 -200 14 59 51 3 $GNGGA,121849.00,4333.70029,N,00128.75142,E,1,06,1.74,145.3,M,53.8,M,,*49
82 12 18 50 4333.7010100128.75089145.2~ 00128.75089 145.2 1101011001 1100010101 1100101001 10000001100 10000110101 1011110111 1100111111 1101101101 1011100001 1101011110 1011011000 1100000000 10000100100 10000111010 1100001011 1100000001 1011111111 1011110111 21.500 51.476 1003.4 82638 16 -202 15 58 51 3 $GNGGA,121850.00,4333.70101,N,00128.75089,E,1,06,1.75,145.2,M,53.8,M,,*4C
83 12 18 51 4333.7013100128.74965144.9~ 00128.74965 144.9 1101011001 1100010100 1100100110 10000010000 10000110101 1011110101 1100111110 1101101101 1011100100 1101011110 1011010011 1100000000 10000100101 10000111011 1100001011 1100000110 1100000110 1011110110 21.500 51.453 1003.4 83638 16 -202 14 58 52 3 $GNGGA,121851.00,4333.70131,N,00128.74965,E,1,06,1.75,144.9,M,53.8,M,,*4E
84 12 18 52 4333.7019000128.74850144.8~ 00128.74850 144.8 1101011001 1100010011 1100100111 10000001010 10000110111 1011110011 1100111100 1101101111 1011110000 1101011110 1011010011 1100000000 10000100111 10000111001 1100010001 1100000110 1100000101 1011111001 21.500 51.423 1003.3 84638 17 -205 14 59 51 3 $GNGGA,121852.00,4333.70190,N,00128.74850,E,1,06,1.75,144.8,M,53.8,M,,*40
85 12 18 53 4333.7023600128.74766144.7~ 00128.74766 144.7 1101011001 1100010100 1100101000 10000000110 10000110110 1011110100 1100110111 1101101111 1011101111 1101011110 1011011000 1011111111 10000011100 10000111000 1100010000 1100000001 1100000110 1100000100 21.500 51.392 1003.3 85638 16 -204 14 58 51 4 $GNGGA,121853.00,4333.70236,N,00128.74766,E,1,06,1.75,144.7,M,53.8,M,,*4B
86 12 18 54 4333.7023600128.74724145.0~ 00128.74724 145.0 1101011001 1100010100 1100100111 10000010000 10000111000 1011111110 1101000000 1101110001 1011101001 1101011110 1011010110 1100000000 10000100011 10000111100 1100001101 1100000000 1100000011 1011111100 21.563 51.362 1003.4 86638 17 -206 14 59 51 3 $GNGGA,121854.00,4333.70236,N,00128.74724,E,1,06,1.75,145.0,M,53.8,M,,*4C
87 12 18 55 4333.7022400128.74684144.8~ 00128.74684 144.8 1101011001 1100010011 1100101001 10000001110 10000110101 1011110111 1101000010 1101101011 1011110011 1101011110 1011010111 1011111100 10000011110 10000111010 1100010000 1100001100 1100001110 1100000111 21.500 51.339 1003.4 87638 16 -205 15 58 51 3 $GNGGA,121855.00,4333.70224,N,00128.74684,E,1,06,1.75,144.8,M,53.8,M,,*4C
88 12 18 56 4333.7020800128.74623144.8~ 00128.74623 144.8 1101011001 1100010010 1100100101 10000001101 10000110101 1011110010 1100111001 1101101100 1011101011 1101011110 1011010111 1011111111 10000100111 10000111011 1100001011 1100000110 1100000100 1011111101 21.500 51.323 1003.4 88638 17 -208 14 59 51 3 $GNGGA,121856.00,4333.70208,N,00128.74623,E,1,06,1.75,144.8,M,53.8,M,,*4C
89 12 18 57 4333.7016000128.74521144.5~ 00128.74521 144.5 1101011001 1100010000 1100100011 10000001100 10000110110 1011101111 1100110101 1101101011 1011110000 1101011111 1011010110 1011111111 10000100011 10000111010 1100001001 1100000000 1100000100 1011111110 21.500 51.316 1003.4 89638 16 -211 15 58 51 3 $GNGGA,121857.00,4333.70160,N,00128.74521,E,1,07,1.61,144.5,M,53.8,M,,*48
90 12 18 58 4333.7008900128.74381144.2~ 00128.74381 144.2 1101011001 1100010011 1100100100 10000001100 10000111000 1011110100 1100110101 1101100111 1011100100 1101011110 1011010111 1011111111 10000100000 10000111010 1100010000 1100001001 1100000110 1011111000 21.500 51.308 1003.4 90638 16 -209 14 58 52 3 $GNGGA,121858.00,4333.70089,N,00128.74381,E,1,07,1.61,144.2,M,53.8,M,,*4A
91 12 18 59 4333.7000700128.74340143.8~ 00128.74340 143.8 1101011001 1100010100 1100100110 10000001000 10000110100 1011101110 1100110000 1101101100 1011101001 1101011110 1011011000 1100000000 10000100110 10000111011 1100010011 1100001000 1100000000 1011111000 21.500 51.285 1003.4 91638 16 -210 15 58 51 3 $GNGGA,121859.00,4333.70007,N,00128.74340,E,1,07,1.61,143.8,M,53.8,M,,*4D
92 12 19 00 4333.6992900128.74288143.6~ 00128.74288 143.6 1101011001 1100010011 1100101000 10000001011 10000110110 1011110111 1100111001 1101101011 1011101001 1101011110 1011010111 1100000001 10000100001 10000111010 1100001100 1100000101 1100000111 1100000000 21.500 51.293 1003.4 92638 16 -212 14 58 52 3 $GNGGA,121900.00,4333.69929,N,00128.74288,E,1,07,1.61,143.6,M,53.8,M,,*46
93 12 19 01 4333.6982900128.74163143.2~ 00128.74163 143.2 1101011000 1100010011 1100101000 10000001011 10000110100 1011110110 1100111001 1101100110 1011101000 1101011110 1011011000 1100000000 10000100000 10000111000 1100001110 1100000011 1100001000 1100000110 21.500 51.270 1003.4 93638 17 -212 14 59 51 3 $GNGGA,121901.00,4333.69829,N,00128.74163,E,1,07,1.61,143.2,M,53.8,M,,*44
94 12 19 02 4333.6976000128.74084142.8~ 00128.74084 142.8 1101011000 1100010010 1100100011 10000001101 10000111000 1011110010 1100110010 1101101111 1011100100 1101011111 1011010110 1100000010 10000100011 10000111010 1100001011 1100000001 1100000001 1011111000 21.500 51.514 1003.4 94638 16 -212 15 58 51 3 $GNGGA,121902.00,4333.69760,N,00128.74084,E,1,06,1.65,142.8,M,53.8,M,,*43
95 12 19 03 4333.6968700128.74034142.9~ 00128.74034 142.9 1101011001 1100010101 1100101000 10000001101 10000111001 1011111001 1101000010 1101101011 1011100010 1101011110 1011011001 1100000000 10000011111 10000111001 1100010111 1100001100 1011111101 1011110111 21.500 51.804 1003.4 95638 17 -215 14 59 51 3 $GNGGA,121903.00,4333.69687,N,00128.74034,E,1,06,1.65,142.9,M,53.8,M,,*40
96 12 19 04 4333.6967300128.73919142.9~ 00128.73919 142.9 1101011001 1100010110 1100101000 10000001011 10000110110 1011110111 1100111101 1101101011 1011100001 1101011111 1011010011 1011111110 10000100011 10000110111 1100001101 1100000110 1100000010 1011111100 21.500 51.735 1003.4 96638 16 -218 15 58 51 3 $GNGGA,121904.00,4333.69673,N,00128.73919,E,1,06,1.65,142.9,M,53.8,M,,*4D
97 12 19 05 4333.6963000128.73823142.7~ 00128.73823 142.7 1101011001 1100010110 1100101001 10000001000 10000110110 1011110110 1100111011 1101101101 1011100001 1101011110 1011010010 1011111110 10000011111 10000111000 1100010101 1100001010 1100000000 1011110101 21.500 52.086 1003.4 97638 17 -216 14 59 51 3 $GNGGA,121905.00,4333.69630,N,00128.73823,E,1,06,1.65,142.7,M,53.8,M,,*4D
98 12 19 06 4333.6963500128.73760142.5~ 00128.73760 142.5 1101011001 1100010101 1100100111 10000000111 10000110011 1011110011 1100110110 1101101000 1011100111 1101011110 1011010110 1100000000 10000011101 10000110111 1100010000 1100000111 1100000100 1011111110 21.500 51.972 1003.4 98638 16 -219 15 58 51 3 $GNGGA,121906.00,4333.69635,N,00128.73760,E,1,06,1.65,142.5,M,53.8,M,,*41
99 12 19 07 4333.6963100128.73716142.4~ 00128.73716 142.4 1101011001 1100010010 1100100110 10000001110 10000110100 1011110101 1101000000 1101101100 1011101010 1101011110 1011010100 1011111111 10000100001 10000111011 1100010000 1100000110 1100000011 1011111000 21.500 51.697 1003.4 99638 16 -218 14 58 52 3 $GNGGA,121907.00,4333.69631,N,00128.73716,E,1,06,1.65,142.4,M,53.8,M,,*44
100 12 19 08 4333.6960500128.73640142.1~ 00128.73640 142.1 1101011001 1100010011 1100100111 10000001011 10000110010 1011110111 1100111011 1101101001 1011100001 1101011110 1011011010 1011111111 10000100001 10000111100 1100010011 1100001001 1100000010 1011111100 21.500 51.529 1003.4 100638 17 -222 14 59 51 3 $GNGGA,121908.00,4333.69605,N,00128.73640,E,1,06,1.65,142.1,M,53.8,M,,*4B
101 12 19 09 4333.6953700128.73592142.0~ 00128.73592 142.0 1101011001 1100010100 1100100110 10000000101 10000110110 1011110110 1100111000 1101101101 1011101010 1101011110 1011010111 1100000001 10000100101 10000111011 1100000110 1100000000 1100000000 1011111010 21.500 51.438 1003.4 101638 16 -221 14 58 51 4 $GNGGA,121909.00,4333.69537,N,00128.73592,E,1,05,1.79,142.0,M,53.8,M,,*4B
102 12 19 10 4333.6953600128.73600141.9~ 00128.73600 141.9 1101011001 1100010011 1100100101 10000001100 10000110111 1011111010 1101000011 1101101111 1011101000 1101011110 1011010100 1011111011 10000100010 10000111001 1100010000 1100000010 1100000000 1011111100 21.500 51.423 1003.4 102638 17 -222 14 59 51 3 $GNGGA,121910.00,4333.69536,N,00128.73600,E,1,05,1.79,141.9,M,53.8,M,,*40
103 12 19 11 4333.6953500128.73607141.6~ 00128.73607 141.6 1101011001 1100010010 1100100110 10000001011 10000111000 1011101111 1100110101 1101110001 1011101011 1101011111 1011011001 1100000000 10000100111 10000111011 1100001111 1100000111 1100001000 1011111100 21.500 51.407 1003.4 103638 16 -223 15 58 51 3 $GNGGA,121911.00,4333.69535,N,00128.73607,E,1,05,1.79,141.6,M,53.8,M,,*4A
104 12 19 12 4333.6950000128.73527141.4~ 00128.73527 141.4 1101011001 1100010100 1100100110 10000001010 10000110011 1011110100 1100111011 1101101101 1011110100 1101011110 1011010111 1100000000 10000100001 10000111001 1100010011 1100001001 1100000100 1011111111 21.500 51.384 1003.4 104638 17 -223 14 59 51 3 $GNGGA,121912.00,4333.69500,N,00128.73527,E,1,05,1.79,141.4,M,53.8,M,,*4C
105 12 19 13 4333.6952100128.73545141.3~ 00128.73545 141.3 1101011001 1100010010 1100100110 10000001111 10000111001 1011110101 1100111101 1101110100 1011101000 1101011110 1011011001 1011111111 10000100001 10000111001 1100001110 1100000110 1100001010 1100000111 21.500 51.331 1003.4 105638 16 -225 15 58 51 3 $GNGGA,121913.00,4333.69521,N,00128.73545,E,1,05,1.79,141.3,M,53.8,M,,*4D
106 12 19 14 4333.6948000128.73500141.2~ 00128.73500 141.2 1101011001 1100010101 1100101000 10000000110 10000110100 1011110110 1100111011 1101101111 1011100101 1101011110 1011010111 1011111110 10000011100 10000111001 1100000110 1100000010 1100000101 1011111111 21.563 51.285 1003.4 106638 16 -226 14 58 52 3 $GNGGA,121914.00,4333.69480,N,00128.73500,E,1,05,1.79,141.2,M,53.8,M,,*40
107 12 19 15 4333.6946700128.73425140.7~ 00128.73425 140.7 1101011001 1100010011 1100101000 10000001001 10000110101 1011110101 1100111001 1101101111 1011101011 1101011110 1011011001 1011111111 10000011101 10000111001 1100001101 1100000000 1011111111 1011111000 21.500 51.247 1003.4 107638 16 -228 15 58 51 3 $GNGGA,121915.00,4333.69467,N,00128.73425,E,1,06,1.65,140.7,M,53.8,M,,*44
108 12 19 16 4333.6934600128.73312140.4~ 00128.73312 140.4 1101011001 1100010011 1100100110 10000000110 10000110100 1011110111 1100110101 1101110010 1011101010 1101011110 1011010101 1100000000 10000100011 10000111101 1100001110 1100000011 1100000100 1011111111 21.500 51.224 1003.4 108638 16 -227 14 58 52 3 $GNGGA,121916.00,4333.69346,N,00128.73312,E,1,06,1.65,140.4,M,53.8,M,,*43
109 12 19 17 4333.6924600128.73306140.2~ 00128.73306 140.2 1101011001 1100010010 1100100101 10000001110 10000110101 1011111001 1101000001 1101110010 1011101100 1101011110 1011010110 1100000000 10000100111 10000111011 1100001110 1100000101 1100001011 1100000100 21.500 51.377 1003.4 109638 17 -228 14 59 51 3 $GNGGA,121917.00,4333.69246,N,00128.73306,E,1,06,1.65,140.2,M,53.8,M,,*40
110 12 19 18 4333.6925400128.73259139.9~ 00128.73259 139.9 1101011001 1100010100 1100100110 10000001011 10000111001 1011111001 1100111010 1101101111 1011101001 1101011110 1011011000 1100000001 10000101000 10000111011 1100010001 1100000110 1100000001 1011110111 21.500 51.629 1003.4 110638 16 -228 15 58 51 3 $GNGGA,121918.00,4333.69254,N,00128.73259,E,1,06,1.65,139.9,M,53.8,M,,*42
111 12 19 19 4333.6921000128.73098139.7~ 00128.73098 139.7 1101011001 1100010010 1100100110 10000010001 10000111101 1011110100 1100111011 1101101110 1011101100 1101011110 1011010111 1100000001 10000100110 10000111001 1100000111 1100000100 1100000101 1011111010 21.500 51.446 1003.4 111638 17 -226 14 59 51 3 $GNGGA,121919.00,4333.69210,N,00128.73098,E,1,07,1.61,139.7,M,53.8,M,,*47
112 12 19 20 4333.6920100128.72967139.5~ 00128.72967 139.5 1101011001 1100010010 1100100100 10000001101 10000110111 1011110010 1100110111 1101110100 1011110101 1101011110 1011011001 1100000011 10000100111 10000111010 1100010000 1100000010 1100000110 1011111100 21.500 51.301 1003.4 112638 16 -229 15 58 51 3 $GNGGA,121920.00,4333.69201,N,00128.72967,E,1,07,1.61,139.5,M,53.8,M,,*47
113 12 19 21 4333.6906100128.72846139.2~ 00128.72846 139.2 1101011001 1100010010 1100100001 10000001101 10000110111 1011110100 1100111000 1101110010 1011101110 1101011110 1011010100 1011111101 10000101011 10000111101 1100000100 1011111111 1100000100 1011111010 21.563 51.194 1003.4 113638 17 -231 14 59 51 3 $GNGGA,121921.00,4333.69061,N,00128.72846,E,1,07,1.61,139.2,M,53.8,M,,*47
114 12 19 22 4333.6899200128.72802139.3~ 00128.72802 139.3 1101011001 1100010001 1100100111 10000001011 10000110110 1011111011 1100111111 1101110000 1011101010 1101011110 1011010110 1100000010 10000101010 10000111101 1100001111 1100000011 1100000101 1011111010 21.500 51.186 1003.4 114638 16 -231 15 58 51 3 $GNGGA,121922.00,4333.68992,N,00128.72802,E,1,08,1.09,139.3,M,53.8,M,,*40
115 12 19 23 4333.6887900128.72739139.4~ 00128.72739 139.4 1101011001 1100010011 1100100101 10000001100 10000110011 1011110111 1100111100 1101101010 1011101000 1101011110 1011010111 1100000010 10000101100 10000111100 1100001011 1100000101 1100000010 1011110110 21.500 51.331 1003.4 115638 16 -232 14 58 52 3 $GNGGA,121923.00,4333.68879,N,00128.72739,E,1,08,1.09,139.4,M,53.8,M,,*45
116 12 19 24 4333.6883900128.72639139.2~ 00128.72639 139.2 1101011001 1100010010 1100101000 10000001011 10000110111 1011110111 1100111101 1101101100 1011110010 1101011110 1011010110 1011111111 10000100000 10000111000 1100001000 1100000000 1100001100 1100000011 21.563 51.362 1003.4 116638 17 -232 14 59 51 3 $GNGGA,121924.00,4333.68839,N,00128.72639,E,1,08,1.09,139.2,M,53.8,M,,*41
117 12 19 25 4333.6875400128.72603138.9~ 00128.72603 138.9 1101011001 1100010010 1100100100 10000001110 10000110110 1011110011 1100110101 1101101110 1011101010 1101011110 1011011110 1100000000 10000100011 10000111100 1100001100 1100000011 1011111100 1011110000 21.563 51.285 1003.3 117638 16 -233 14 58 51 4 $GNGGA,121925.00,4333.68754,N,00128.72603,E,1,08,1.09,138.9,M,53.8,M,,*47
118 12 19 26 4333.6870400128.72654139.1~ 00128.72654 139.1 1101011001 1100010101 1100100111 10000001101 10000110100 1011110101 1100111011 1101101010 1011101010 1101011110 1011010101 1100000000 10000011111 10000111010 1100010000 1100001010 1011111110 1011111010 21.563 51.217 1003.3 118638 17 -237 14 59 51 3 $GNGGA,121926.00,4333.68704,N,00128.72654,E,1,08,1.09,139.1,M,53.8,M,,*4A
119 12 19 27 4333.6861900128.72564139.0~ 00128.72564 139.0 1101011000 1100010011 1100100110 10000001101 10000111000 1011110000 1100111010 1101101001 1011101000 1101011110 1011010010 1011111011 10000100101 10000111100 1100001001 1100000100 1100000111 1100000001 21.500 51.255 1003.4 119638 16 -235 15 58 51 3 $GNGGA,121927.00,4333.68619,N,00128.72564,E,1,08,1.09,139.0,M,53.8,M,,*47
120 12 19 28 4333.6863600128.72505138.7~ 00128.72505 138.7 1101011001 1100010010 1100100110 10000001110 10000111000 1011110100 1100110111 1101101100 1011100101 1101011110 1011010110 1011111111 10000011111 10000111010 1100010000 1100000101 1100000101 1011111011 21.563 51.255 1003.4 120638 17 -238 14 59 51 3 $GNGGA,121928.00,4333.68636,N,00128.72505,E,1,08,1.09,138.7,M,53.8,M,,*44
121 12 19 29 4333.6853900128.72466138.5~ 00128.72466 138.5 1101011001 1100010100 1100100111 10000001011 10000110100 1011110011 1100111000 1101101010 1011010111 1101011110 1011010101 1011111110 10000100110 10000111011 1100001110 1100000101 1100000100 1011110110 21.563 51.232 1003.4 121638 16 -236 15 58 51 3 $GNGGA,121929.00,4333.68539,N,00128.72466,E,1,08,1.09,138.5,M,53.8,M,,*4F
122 12 19 30 4333.6854700128.72486138.1~ 00128.72486 138.1 1101011001 1100010101 1100101001 10000001110 10000110110 1011110000 1100111000 1101100110 1011100001 1101011110 1011011010 1100000000 10000100000 10000111001 1100001100 1100000101 1011111111 1011111010 21.563 51.392 1003.4 122638 16 -239 14 58 52 3 $GNGGA,121930.00,4333.68547,N,00128.72486,E,1,08,1.09,138.1,M,53.8,M,,*44
123 12 19 31 4333.6855100128.72495137.7~ 00128.72495 137.7 1101011001 1100010011 1100101000 10000010001 10000110101 1011111101 1100111111 1101110010 1011100101 1101011110 1011011000 1100000001 10000011011 10000111001 1100001101 1100000000 1100000001 1011110100 21.563 51.468 1003.4 123638 16 -238 15 58 51 3 $GNGGA,121931.00,4333.68551,N,00128.72495,E,1,08,1.09,137.7,M,53.8,M,,*49
124 12 19 32 4333.6849300128.72441137.2~ 00128.72441 137.2 1101011001 1100010001 1100100110 10000001110 10000110101 1011110001 1100110110 1101110101 1011110010 1101011110 1011010101 1011111111 10000100100 10000111000 1100001010 1100000011 1011111011 1011111001 21.563 51.407 1003.4 124638 16 -241 14 58 52 3 $GNGGA,121932.00,4333.68493,N,00128.72441,E,1,07,1.42,137.2,M,53.8,M,,*49
125 12 19 33 4333.6845500128.72403137.2~ 00128.72403 137.2 1101011001 1100010001 1100100101 10000000101 10000110001 1011110001 1100111100 1101101111 1011101000 1101011110 1011010101 1011111111 10000100000 10000111010 1100001010 1100000111 1011111101 1011111100 21.563 51.339 1003.4 125638 17 -242 14 59 51 3 $GNGGA,121933.00,4333.68455,N,00128.72403,E,1,08,1.09,137.2,M,53.8,M,,*44
126 12 19 34 4333.6842900128.72464136.9~ 00128.72464 136.9 1101011001 1100010011 1100100111 10000001011 10000110110 1011110100 1100110100 1101110000 1011101010 1101011110 1011010111 1100000010 10000011101 10000110111 1100001100 1100001010 1100000111 1011111110 21.563 51.285 1003.4 126638 16 -243 15 58 51 3 $GNGGA,121934.00,4333.68429,N,00128.72464,E,1,08,1.09,136.9,M,53.8,M,,*43
127 12 19 35 4333.6837700128.72459136.7~ 00128.72459 136.7 1101011001 1100010100 1100101001 10000001110 10000110111 1011110011 1100110110 1101101100 1011110010 1101011110 1011010111 1011111110 10000100100 10000111011 1100010010 1100001000 1100001001 1100000011 21.563 51.407 1003.4 127638 17 -244 14 59 51 3 $GNGGA,121935.00,4333.68377,N,00128.72459,E,1,08,1.09,136.7,M,53.8,M,,*4E
128 12 19 36 4333.6832400128.72524136.8~ 00128.72524 136.8 1101011001 1100010011 1100101011 10000010011 10000111000 1011111111 1101000101 1101101010 1011101001 1101011110 1011010111 1011111111 10000100110 10000111100 1100010000 1100000110 1011111111 1011111001 21.563 51.377 1003.4 128638 16 -244 15 58 51 3 $GNGGA,121936.00,4333.68324,N,00128.72524,E,1,08,1.09,136.8,M,53.8,M,,*4F
129 12 19 37 4333.6830900128.72500136.6~ 00128.72500 136.6 1101011001 1100010010 1100100110 10000000101 10000110111 1011110001 1100111000 1101101000 1011110110 1101011110 1011010110 1100000000 10000100111 10000111000 1100010010 1100000111 1100000000 1011111011 21.563 51.285 1003.4 129638 17 -248 14 59 51 3 $GNGGA,121937.00,4333.68309,N,00128.72500,E,1,08,1.09,136.6,M,53.8,M,,*49
130 12 19 38 4333.6833200128.72564136.6~ 00128.72564 136.6 1101011001 1100010010 1100100111 10000000110 10000110110 1011110010 1100110100 1101100010 1011101011 1101011110 1011011011 1100000100 10000100010 10000111010 1100001111 1100000100 1100001000 1100000111 21.563 51.194 1003.4 130638 16 -247 15 58 51 3 $GNGGA,121938.00,4333.68332,N,00128.72564,E,1,08,1.09,136.6,M,53.8,M,,*4C
131 12 19 39 4333.6839900128.72601136.4~ 00128.72601 136.4 1101011001 1100010011 1100100111 10000001110 10000110110 1011110000 1100110111 1101101000 1011011111 1101011110 1011011000 1100000000 10000101000 10000111001 1100001110 1100000100 1100000000 1011111110 21.563 51.110 1003.4 131638 16 -247 14 58 52 3 $GNGGA,121939.00,4333.68399,N,00128.72601,E,1,08,1.09,136.4,M,53.8,M,,*4E
132 12 19 40 4333.6829700128.72613136.4~ 00128.72613 136.4 1101011001 1100010011 1100100101 10000001011 10000110101 1011110010 1100110011 1101101001 1011100101 1101011110 1011010110 1011111100 10000100101 10000111010 1100010000 1100000011 1100001010 1011111101 21.563 51.049 1003.4 132638 17 -249 14 59 51 3 $GNGGA,121940.00,4333.68297,N,00128.72613,E,1,08,1.09,136.4,M,53.8,M,,*4C
133 12 19 41 4333.6828400128.72688136.8~ 00128.72688 136.8 1101011001 1100010100 1100100101 10000010010 10000111011 1011110101 1100110111 1101110000 1011110001 1101011110 1011010111 1011111111 10000100011 10000111100 1100001101 1100000100 1100000110 1011111011 21.563 50.995 1003.4 133638 16 -249 14 58 51 4 $GNGGA,121941.00,4333.68284,N,00128.72688,E,1,08,1.09,136.8,M,53.8,M,,*41
134 12 19 42 4333.6824300128.72732137.5~ 00128.72732 137.5 1101011001 1100010100 1100100110 10000001100 10000110100 1011110101 1100110110 1101101110 1011101110 1101011110 1011010101 1100000010 10000100001 10000111010 1100001100 1100000011 1100000101 1011111110 21.563 50.980 1003.4 134638 17 -251 14 59 51 3 $GNGGA,121942.00,4333.68243,N,00128.72732,E,1,08,1.09,137.5,M,53.8,M,,*45
135 12 19 43 4333.6831100128.72699137.4~ 00128.72699 137.4 1101011001 1100010100 1100101001 10000001100 10000110010 1011110111 1100111101 1101101111 1011110000 1101011110 1011010001 1011111100 10000100100 10000111001 1100001111 1100000011 1100000000 1011110111 21.563 51.018 1003.4 135638 16 -249 15 58 51 3 $GNGGA,121943.00,4333.68311,N,00128.72699,E,1,08,1.09,137.4,M,53.8,M,,*43
136 12 19 44 4333.6830700128.72793137.6~ 00128.72793 137.6 1101011001 1100010010 1100100110 10000001011 10000110111 1011110101 1100111000 1101101110 1011101001 1101011110 1011010110 1011111110 10000100011 10000111010 1100001100 1100000000 1011111111 1011111010 21.563 51.049 1003.4 136638 17 -254 14 59 51 3 $GNGGA,121944.00,4333.68307,N,00128.72793,E,1,08,1.09,137.6,M,53.8,M,,*4A
137 12 19 45 4333.6831000128.72873137.2~ 00128.72873 137.2 1101011001 1100010100 1100100111 10000000101 10000110011 1011110111 1100111010 1101110011 1011100111 1101011110 1011010111 1100000001 10000101000 10000111010 1100001100 1100000000 1100001000 1011111010 21.563 51.125 1003.4 137638 16 -253 15 58 51 3 $GNGGA,121945.00,4333.68310,N,00128.72873,E,1,08,1.09,137.2,M,53.8,M,,*48
138 12 19 46 4333.6826000128.72966137.1~ 00128.72966 137.1 1101011001 1100010010 1100100110 10000001101 10000111001 1011110111 1100111100 1101110100 1011101100 1101011110 1011010110 1011111110 10000100111 10000111100 1100001101 1100000011 1100000101 1011111011 21.563 51.240 1003.4 138638 16 -254 14 58 52 3 $GNGGA,121946.00,4333.68260,N,00128.72966,E,1,07,1.42,137.1,M,53.8,M,,*4B
139 12 19 47 4333.6823400128.73075137.2~ 00128.73075 137.2 1101011001 1100010001 1100100101 10000001101 10000110100 1011101110 1100110010 1101101111 1011101101 1101011110 1011010100 1100000001 10000100000 10000111001 1100001111 1100001000 1100000001 1011111011 21.563 51.194 1003.4 139638 16 -255 15 58 51 3 $GNGGA,121947.00,4333.68234,N,00128.73075,E,1,07,1.42,137.2,M,53.8,M,,*42
140 12 19 48 4333.6836800128.73086137.1~ 00128.73086 137.1 1101011001 1100010011 1100101000 10000010000 10000110111 1011111011 1101000000 1101101110 1011101010 1101011110 1011010110 1011111100 10000100011 10000111010 1100010000 1011111111 1011110101 1011101111 21.563 51.110 1003.4 140638 16 -258 14 58 52 3 $GNGGA,121948.00,4333.68368,N,00128.73086,E,1,08,1.09,137.1,M,53.8,M,,*4A
141 12 19 49 4333.6839800128.73103137.3~ 00128.73103 137.3 1101011001 1100010100 1100100111 10000010001 10000111001 1011110100 1100110110 1101110010 1011110001 1101011110 1011010110 1011111111 10000100100 10000111001 1100010001 1100001000 1011111100 1011110011 21.563 51.018 1003.4 141638 17 -257 14 59 51 3 $GNGGA,121949.00,4333.68398,N,00128.73103,E,1,08,1.09,137.3,M,53.8,M,,*4A
142 12 19 50 4333.6849100128.73104137.6~ 00128.73104 137.6 1101011001 1100010000 1100100100 10000001101 10000110110 1011110101 1100110111 1101110000 1011101110 1101011110 1011010101 1011111101 10000100101 10000111010 1100001101 1100000111 1011111101 1011111000 21.563 50.973 1003.4 142638 16 -258 15 58 51 3 $GNGGA,121950.00,4333.68491,N,00128.73104,E,1,08,1.09,137.6,M,53.8,M,,*4E
143 12 19 51 4333.6861200128.73129137.7~ 00128.73129 137.7 1101011001 1100010100 1100100101 10000001110 10000110110 1011110000 1100111010 1101101101 1011101101 1101011110 1011010111 1100000000 10000100111 10000111100 1100001111 1100000110 1100000010 1011111011 21.563 50.927 1003.4 143638 17 -259 14 59 51 3 $GNGGA,121951.00,4333.68612,N,00128.73129,E,1,08,1.09,137.7,M,53.8,M,,*48
144 12 19 52 4333.6872500128.73191137.7~ 00128.73191 137.7 1101011001 1100010010 1100100100 10000001001 10000110010 1011110101 1100111001 1101101110 1011110000 1101011110 1011011001 1100000000 10000100100 10000111011 1100001101 1100000110 1100000000 1011111001 21.563 50.911 1003.4 144638 16 -261 15 58 51 3 $GNGGA,121952.00,4333.68725,N,00128.73191,E,1,08,1.09,137.7,M,53.8,M,,*4D
145 12 19 53 4333.6880800128.73284137.6~ 00128.73284 137.6 1101011001 1100010100 1100101000 10000001101 10000111000 1011111001 1101000001 1101101010 1011101010 1101011110 1011010111 1100000001 10000011110 10000111010 1100001100 1100000010 1100000101 1011111100 21.563 50.942 1003.4 145638 17 -260 14 59 51 3 $GNGGA,121953.00,4333.68808,N,00128.73284,E,1,08,1.09,137.6,M,53.8,M,,*4A
146 12 19 54 4333.6882300128.73258137.6~ 00128.73258 137.6 1101011000 1100010100 1100100110 10000001010 10000110100 1011110000 1100111000 1101110011 1011110000 1101011110 1011011001 1100000001 10000100110 10000111001 1100001111 1100000111 1100000011 1011111011 21.563 51.140 1003.4 146638 16 -262 15 58 51 3 $GNGGA,121954.00,4333.68823,N,00128.73258,E,1,08,1.09,137.6,M,53.8,M,,*45
147 12 19 55 4333.6879200128.73302137.5~ 00128.73302 137.5 1101011001 1100010010 1100100111 10000001010 10000111000 1011110010 1100110110 1101101011 1011100001 1101011110 1011010110 1100000000 10000100011 10000111011 1100001010 1100000010 1100001000 1100000000 21.563 51.201 1003.4 147638 16 -264 14 58 52 3 $GNGGA,121955.00,4333.68792,N,00128.73302,E,1,08,1.09,137.5,M,53.8,M,,*4C
148 12 19 56 4333.6885400128.73341138.0~ 00128.73341 138.0 1101011001 1100001111 1100100011 10000001001 10000110110 1011110010 1100111001 1101101001 1011100101 1101011110 1011010111 1011111111 10000100001 10000111011 1100001001 1100000010 1100000100 1100000010 21.563 51.232 1003.4 148638 17 -263 14 59 51 3 $GNGGA,121956.00,4333.68854,N,00128.73341,E,1,08,1.09,138.0,M,53.8,M,,*47
149 12 19 57 4333.6887600128.73352137.6~ 00128.73352 137.6 1101011001 1100010101 1100101001 10000001100 10000110110 1011110011 1100111110 1101101101 1011100111 1101011111 1011010101 1100000001 10000100001 10000111000 1100001111 1100000100 1100000011 1011111010 21.563 51.171 1003.4 149638 16 -265 14 58 51 4 $GNGGA,121957.00,4333.68876,N,00128.73352,E,1,08,1.09,137.6,M,53.8,M,,*4D
150 12 19 58 4333.6888300128.73403137.7~ 00128.73403 137.7 1101011001 1100010011 1100100111 10000010001 10000111001 1011110110 1100111000 1101110000 1011101011 1101011110 1011010110 1011111111 10000100001 10000111010 1100001100 1100000100 1100000001 1011110010 21.563 51.369 1003.4 150638 17 -265 14 59 51 3 $GNGGA,121958.00,4333.68883,N,00128.73403,E,1,07,1.42,137.7,M,53.8,M,,*4A
151 12 19 59 4333.6889800128.73414137.2~ 00128.73414 137.2 1101011001 1100010000 1100100110 10000001011 10000110110 1011110101 1100111011 1101101011 1011100011 1101011110 1011010101 1011111101 10000100100 10000111010 1100001010 1100001000 1100000100 1011110101 21.563 51.346 1003.4 151638 16 -267 15 58 51 3 $GNGGA,121959.00,4333.68898,N,00128.73414,E,1,06,1.45,137.2,M,53.8,M,,*44
152 12 20 00 4333.6884700128.73403137.0~ 00128.73403 137.0 1101011001 1100010001 1100100100 10000001110 10000110110 1011110101 1100111100 1101101111 1011100001 1101011111 1011010111 1100000000 10000011111 10000111011 1100000010 1011111101 1100000100 1011111000 21.563 51.201 1003.4 152638 17 -268 14 59 51 3 $GNGGA,122000.00,4333.68847,N,00128.73403,E,1,05,1.64,137.0,M,53.8,M,,*44
153 12 20 01 4333.6883000128.73446137.3~ 00128.73446 137.3 1101011001 1100010010 1100100111 10000001110 10000111001 1011110111 1100110110 1101110001 1011101010 1101011110 1011010101 1011111111 10000100100 10000111011 1100001110 1100000011 1100000010 1011111010 21.563 51.079 1003.4 153638 16 -268 15 58 51 3 $GNGGA,122001.00,4333.68830,N,00128.73446,E,1,07,1.42,137.3,M,53.8,M,,*41
154 12 20 02 4333.6883400128.73500137.4~ 00128.73500 137.4 1101011001 1100010100 1100101001 10000001011 10000111000 1011110110 1100111001 1101101111 1011101110 1101011110 1011010110 1011111101 10000101000 10000111010 1100001010 1100000100 1100000110 1011111101 21.563 51.034 1003.4 154638 16 -269 14 58 52 3 $GNGGA,122002.00,4333.68834,N,00128.73500,E,1,07,1.42,137.4,M,53.8,M,,*42
155 12 20 03 4333.6886600128.73535137.6~ 00128.73535 137.6 1101011001 1100010010 1100100111 10000001100 10000110100 1011110001 1100110011 1101101010 1011101100 1101011110 1011010110 1011111111 10000101000 10000111100 1100001000 1100000100 1100000101 1100000001 21.563 51.003 1003.4 155638 16 -270 15 58 51 3 $GNGGA,122003.00,4333.68866,N,00128.73535,E,1,07,1.42,137.6,M,53.8,M,,*40
