id HH MM SS longitude latitude altitude adc_1_ch0 adc_1_ch1 adc_1_ch2 adc_1_ch3 adc_1_ch4 adc_1_ch5 adc_1_ch6 adc_1_ch7 adc_1_ch8 adc_2_ch0 adc_2_ch1 adc_2_ch2 adc_2_ch3 adc_2_ch4 adc_2_ch5 adc_2_ch6 adc_2_ch7 adc_2_ch8 temp hum pres t_prog t_gps t_split t_adc t_temp t_hum t_pres trame_gga
1 13 30 20 Nan Nan Nan 1101011011 11 1101010 11 1101001 100 1101100 111111111111 110010000001 1101100001 100 1101100 100 1101010 100 1101110 111111111111 111111111111 23.750 45.479 795.83 1612 16 -255 11 58 51 3 $GNGGA,133020.00,,,,,0,00,99.9,,,,,,*42
2 13 30 21 Nan Nan Nan 1101011011 11 1101010 11 1100011 100 1101011 111010011001 101101101001 1101100010 100 1101011 100 1101010 100 1101101 111101100000 111111111111 23.750 45.479 1002.9 2612 15 -255 11 58 52 3 $GNGGA,133021.00,,,,,0,00,99.9,,,,,,*43
3 13 30 22 Nan Nan Nan 1101011011 11 1101010 11 101010101 111111111111 111111111111 110101011000 101001110011 1101100010 100 1101011 100 1100111 111111111111 111111111111 110101000001 110110001101 23.750 45.472 1002.9 3612 17 -257 11 59 51 3 $GNGGA,133022.00,,,,,0,00,99.9,,,,,,*40
4 13 30 23 Nan Nan Nan 1101011011 11 1101000 11 1001011110 111111111111 111111111111 110001000011 100110010011 1101100010 100 1101001 100 1100100 111111111111 111111111111 101101111000 101101000110 23.750 45.472 1002.9 4612 16 -256 11 58 51 4 $GNGGA,133023.00,,,,,0,00,99.9,,,,,,*41
5 13 30 24 Nan Nan Nan 1101011011 11 1100101 100 1011110001 111111111111 111111111111 101100111001 100011010001 1101100001 100 1100111 100 11011111 111111111111 111111111111 101000001001 100101111100 23.750 45.479 1002.9 5639 16 -126 11 59 52 3 $GNGGA,133024.00,,,,,0,00,99.9,,,,,,*46
6 13 30 25 Nan Nan Nan 1101011011 11 1100100 100 1100110010 111111111111 111111111111 101001011011 100000101011 1101100010 1001100 1100101 100 110101001 111111111111 111111111111 100011010011 100000010111 23.750 45.479 1002.9 6632 17 -279 11 59 51 3 $GNGGA,133025.00,,,,,0,00,99.9,,,,,,*47
7 13 30 26 Nan Nan Nan 1101011011 1100110 11000010 10100111 1101011001 111111111111 111111111111 100110010111 11110001100 1101100010 11101111 1101000 100 1000111110 111111111111 111111111111 11111011100 11100010000 23.750 45.487 1002.9 7632 16 -280 12 58 51 3 $GNGGA,133026.00,,,,,0,00,99.9,,,,,,*44
8 13 30 27 Nan Nan Nan 1101011011 11110110 101001011 101010101 1101111100 111111111111 111111111111 100011101100 11011111111 1101100001 101100101 11000111 1011001 1010011101 111111111111 111111111111 11100001010 11000110110 23.750 45.479 1002.9 8632 17 -281 11 58 52 3 $GNGGA,133027.00,,,,,0,00,99.9,,,,,,*45
9 13 30 28 Nan Nan Nan 1101011011 101011110 110101011 111001110 1110010000 111111111111 111111111111 100001001111 11010001100 1101100010 110101100 100110011 100011010 1011101000 111111111111 111111111111 11001011111 10110010000 23.750 45.479 1002.9 9632 18 -281 11 58 51 3 $GNGGA,133028.00,,,,,0,00,99.9,,,,,,*4A
10 13 30 29 Nan Nan Nan 1101011011 110110110 111111001 1000110011 1110011011 111111111111 111111111111 11111001001 11000011011 1101100001 111100000 110001001 110100101 1100011010 111111010110 111111111111 10111010110 10100010010 23.750 45.479 1002.9 10632 17 -282 11 58 52 3 $GNGGA,133029.00,,,,,0,00,99.9,,,,,,*4B
11 13 30 30 Nan Nan Nan 1101011011 111110010 1000110100 1010000001 1110100010 111001000000 110011100110 11101001111 10111000000 1101100010 1000000110 111001010 1000010000 1101000001 101111111111 110000001011 10101011001 10010100100 23.750 45.479 1002.9 11632 17 -134 11 60 50 4 $GNGGA,133030.00,,,,,0,00,99.9,,,,,,*43
12 13 30 31 Nan Nan Nan 1101011011 1000011100 1001100000 1011000001 1110100101 101011100101 101000011001 11011110011 10101111000 1101100010 1000100011 111111110 1001110001 1101100000 100110010111 100101110000 10011110110 10001010000 23.750 45.479 1002.9 12632 17 -284 12 58 51 3 $GNGGA,133031.00,,,,,0,00,99.9,,,,,,*42
13 13 30 32 Nan Nan Nan 1101011011 1001000100 1010000000 1100000000 1110101111 100011010010 100001001101 11010010010 10100110010 1101100010 1000110101 1000100001 1010111100 1101110101 100000001000 11111000000 10010101100 10000001110 23.750 45.479 1002.9 13632 18 -285 11 59 51 3 $GNGGA,133032.00,,,,,0,00,99.9,,,,,,*41
14 13 30 33 Nan Nan Nan 1101011011 1001011110 1010010110 1100100111 1110110011 11101110110 11100011101 11000110111 10011101100 1101100010 1001001011 1001000001 1011110110 1110001010 11100000101 11010101011 10001100011 1111011100 23.750 45.479 1002.9 14632 17 -283 12 58 51 3 $GNGGA,133033.00,,,,,0,00,99.9,,,,,,*40
15 13 30 34 Nan Nan Nan 1101011011 1001111001 1010110000 1101001001 1110111100 11010001011 11001011011 10111110101 10010111110 1101100010 1001010110 1001011010 1100011100 1110011000 11001001011 10111101100 10000110011 1110101101 23.750 45.472 1002.9 15632 17 -284 11 59 51 3 $GNGGA,133034.00,,,,,0,00,99.9,,,,,,*47
16 13 30 35 Nan Nan Nan 1101011011 1010001000 1010111100 1101100010 1110111111 10111100100 10111001001 10110101011 10001111110 1101100001 1001100001 1001101010 1101000101 1110100110 10111001000 10101101001 10000000011 1110010010 23.750 45.464 1002.9 16632 17 -285 12 58 51 3 $GNGGA,133035.00,,,,,0,00,99.9,,,,,,*46
17 13 30 36 Nan Nan Nan 1101011011 1010010001 1011000110 1101111000 1111000001 10101101011 10101100000 10101111100 10001011010 1101100010 1001110001 1001111110 1101101000 1110110001 10101101100 10100001010 1111011100 1101110101 23.750 45.456 1002.9 17632 17 -126 10 59 51 4 $GNGGA,133036.00,,,,,0,00,99.9,,,,,,*45
18 13 30 37 Nan Nan Nan 1101011011 1010011110 1011010010 1110010100 1111001000 10100011011 10100011100 10100111011 10000110011 1101100010 1001110100 1010001001 1110000000 1110111010 10100100010 10011000010 1111000001 1101100110 23.750 45.449 1002.9 18632 17 -287 11 59 51 3 $GNGGA,133037.00,,,,,0,00,99.9,,,,,,*44
19 13 30 38 Nan Nan Nan 1101011011 1010101011 1011011011 1110100000 1111001010 10011001111 10011011010 10100011001 10000001110 1101100010 1001111011 1010010101 1110011000 1111000010 10011100000 10010000100 1110100000 1101010100 23.750 45.441 1002.9 19632 17 -286 11 58 51 4 $GNGGA,133038.00,,,,,0,00,99.9,,,,,,*4B
20 13 30 39 Nan Nan Nan 1101011011 1010101101 1011100001 1110101100 1111001110 10010011000 10010101011 10011101011 1111110001 1101100010 1010000001 1010011110 1110101000 1111001010 10010110011 10001011011 1110001111 1101001111 23.750 45.434 1002.9 20632 17 -289 11 59 51 3 $GNGGA,133039.00,,,,,0,00,99.9,,,,,,*4A
21 13 30 40 Nan Nan Nan 1101011011 1010110111 1011101011 1110110110 1111010110 10001110010 10010001111 10011001111 1111011111 1101100001 1010000100 1010100111 1110110100 1111010001 10010001101 10000111100 1101111001 1101000001 23.750 45.426 1002.9 21632 16 -288 12 58 51 3 $GNGGA,133040.00,,,,,0,00,99.9,,,,,,*44
22 13 30 41 Nan Nan Nan 1101011011 1010111001 1011101101 1110111100 1111010101 10001001110 10001101011 10010110000 1111000110 1101100010 1010001100 1010101101 1110111101 1111010110 10001101101 10000011110 1101110000 1100111010 23.750 45.418 1002.9 22632 17 -290 11 59 51 3 $GNGGA,133041.00,,,,,0,00,99.9,,,,,,*45
23 13 30 42 Nan Nan Nan 1101011011 1011000010 1011110001 1111000011 1111010111 10000101100 10001001110 10010011000 1110110011 1101100001 1010010001 1010110010 1111000101 1111011101 10001001011 1111111110 1101100100 1100111000 23.750 45.411 1002.9 23632 16 -132 12 59 50 4 $GNGGA,133042.00,,,,,0,00,99.9,,,,,,*46
24 13 30 43 Nan Nan Nan 1101011011 1011000110 1011110111 1111001101 1111011100 10000011001 10000111100 10001111110 1110100100 1101100010 1010010101 1010111000 1111001011 1111100000 10000110110 1111110010 1101010011 1100101001 23.750 45.403 1002.9 24632 16 -292 11 58 52 3 $GNGGA,133043.00,,,,,0,00,99.9,,,,,,*47
25 13 30 44 Nan Nan Nan 1101011011 1011000110 1011110110 1111010101 1111100001 1111111101 10000101000 10001100111 1110010001 1101100010 1010010111 1010111110 1111010111 1111100100 10000011111 1111011101 1101001010 1100011111 23.750 45.388 1002.9 25632 17 -294 11 58 51 3 $GNGGA,133044.00,,,,,0,00,99.9,,,,,,*40
26 13 30 45 Nan Nan Nan 1101011011 1011001011 1011111011 1111010010 1111011011 1111101011 10000010100 10001010010 1110000100 1101100010 1010011001 1010111111 1111011011 1111101000 10000001100 1111000111 1101000000 1100011101 23.750 45.388 1002.9 26632 16 -295 11 58 52 3 $GNGGA,133045.00,,,,,0,00,99.9,,,,,,*41
27 13 30 46 Nan Nan Nan 1101011011 1011001101 1011111101 1111100000 1111100011 1111011100 10000000010 10000110011 1101110101 1101100010 1010100000 1011000100 1111101000 1111101100 1111111100 1110111100 1100111001 1100011010 23.750 45.373 1002.9 27632 17 -295 11 59 51 3 $GNGGA,133046.00,,,,,0,00,99.9,,,,,,*42
28 13 30 47 Nan Nan Nan 1101011011 1011010010 1100000011 1111011100 1111100010 1110111110 1111110001 10000101000 1101101000 1101100010 1010011101 1011000110 1111100110 1111110000 1111101111 1110110100 1100110101 1100011010 23.750 45.365 1002.9 28632 16 -294 12 58 51 3 $GNGGA,133047.00,,,,,0,00,99.9,,,,,,*43
29 13 30 48 Nan Nan Nan 1101011011 1011010010 1100000000 1111100100 1111100101 1110111100 1111101010 10000011100 1101011110 1101100001 1010100000 1011001001 1111101010 1111110101 1111100011 1110100111 1100110100 1100011110 23.750 45.365 1002.9 29632 17 -130 11 60 50 4 $GNGGA,133048.00,,,,,0,00,99.9,,,,,,*4C
30 13 30 49 Nan Nan Nan 1101011011 1011010110 1100000100 1111100101 1111100110 1110110001 1111100001 10000001110 1101010001 1101100010 1010100010 1011001011 1111100101 1111110110 1111010010 1110011111 1100110100 1100010111 23.750 45.357 1002.9 30632 16 -298 12 58 51 3 $GNGGA,133049.00,,,,,0,00,99.9,,,,,,*4D
31 13 30 50 Nan Nan Nan 1101011011 1011011100 1100001000 1111101001 1111100111 1110100100 1111010101 1111111111 1101000100 1101100010 1010100101 1011001111 1111101111 1111111000 1111001001 1110010110 1100101100 1100010100 23.750 45.342 1002.9 31632 16 -300 11 59 51 3 $GNGGA,133050.00,,,,,0,00,99.9,,,,,,*45
32 13 30 51 Nan Nan Nan 1101011011 1011011010 1100001000 1111100111 1111101000 1110011101 1111010101 1111111011 1100111101 1101100010 1010100101 1011001111 1111110100 1111111011 1110111010 1110001110 1100101011 1100011011 23.750 45.342 1002.9 32632 16 -300 12 58 51 3 $GNGGA,133051.00,,,,,0,00,99.9,,,,,,*44
33 13 30 52 Nan Nan Nan 1101011011 1011011100 1100001010 1111100101 1111101011 1110001111 1111000010 1111101011 1100110000 1101100001 1010101101 1011010101 1111110011 1111111100 1110111001 1110001000 1100011101 1100000111 23.750 45.334 1002.9 33632 16 -300 11 58 52 3 $GNGGA,133052.00,,,,,0,00,99.9,,,,,,*47
34 13 30 53 Nan Nan Nan 1101011011 1011011011 1100001000 1111100110 1111101011 1110001011 1110111011 1111100100 1100110000 1101100010 1010101100 1011010110 1111110111 1111111111 1110101100 1110000011 1100100000 1100011000 23.813 45.327 1002.9 34632 17 -301 11 59 51 3 $GNGGA,133053.00,,,,,0,00,99.9,,,,,,*46
35 13 30 54 Nan Nan Nan 1101011011 1011011101 1100001001 1111101010 1111110001 1110000011 1110111011 1111100011 1100110100 1101100010 1010101111 1011011000 1111111101 10000000010 1110100011 1101111001 1100011010 1100001000 23.750 45.319 1002.9 35632 16 -136 11 59 50 5 $GNGGA,133054.00,,,,,0,00,99.9,,,,,,*41
36 13 30 55 Nan Nan Nan 1101011011 1011100100 1100001110 1111110011 1111110010 1101111100 1110110110 1111100100 1100110011 1101100010 1010110011 1011011011 1111110101 10000000010 1110010111 1101101111 1100011011 1100001011 23.813 45.319 1002.9 36632 17 -303 11 59 51 3 $GNGGA,133055.00,,,,,0,00,99.9,,,,,,*40
37 13 30 56 Nan Nan Nan 1101011011 1011100011 1100001110 1111110100 1111110100 1101110011 1110101111 1111011100 1100101010 1101100010 1010110011 1011011010 10000000001 10000000111 1110001111 1101101101 1100100000 1100010101 23.750 45.311 1002.9 37632 16 -305 12 58 51 3 $GNGGA,133056.00,,,,,0,00,99.9,,,,,,*43
38 13 30 57 Nan Nan Nan 1101011011 1011100010 1100001101 1111110000 1111110101 1101110011 1110101000 1111001101 1100011110 1101100001 1010110010 1011011100 1111111111 10000000111 1110001110 1101101100 1100100011 1100011000 23.813 45.296 1002.9 38632 17 -305 11 59 51 3 $GNGGA,133057.00,,,,,0,00,99.9,,,,,,*42
39 13 30 58 Nan Nan Nan 1101011011 1011100110 1100010010 1111110000 1111110110 1101101101 1110100101 1111001001 1100011111 1101100010 1010110001 1011011100 1111111100 10000000110 1110001010 1101101011 1100011001 1100000111 23.750 45.289 1002.9 39632 16 -306 12 58 51 3 $GNGGA,133058.00,,,,,0,00,99.9,,,,,,*4D
40 13 30 59 Nan Nan Nan 1101011011 1011100011 1100001110 1111110000 1111110101 1101100100 1110100000 1111000100 1100100100 1101100010 1010110110 1011100000 1111111101 10000001001 1110001011 1101100101 1100010111 1100001010 23.750 45.281 1002.9 40632 16 -307 11 58 52 3 $GNGGA,133059.00,,,,,0,00,99.9,,,,,,*4C
41 13 31 00 Nan Nan Nan 1101011011 1011100110 1100010000 1111110100 1111111011 1101100011 1110011100 1110111110 1100010101 1101100010 1010110011 1011100011 10000000001 10000001101 1101111111 1101100000 1100010111 1100000111 23.750 45.273 1002.9 41632 17 -141 10 58 51 4 $GNGGA,133100.00,,,,,0,00,99.9,,,,,,*41
42 13 31 01 Nan Nan Nan 1101011011 1011101001 1100010011 1111101111 1111111001 1101011001 1110010101 1111000010 1100010110 1101100001 1010110010 1011100000 1111111110 10000001101 1101111001 1101011001 1100010101 1100000001 23.813 45.266 1002.9 42632 16 -308 11 58 52 3 $GNGGA,133101.00,,,,,0,00,99.9,,,,,,*40
43 13 31 02 Nan Nan Nan 1101011011 1011101000 1100010000 1111111001 1111111101 1101010100 1110010110 1110110100 1100010001 1101100010 1010110101 1011100100 10000000100 10000001101 1101110100 1101010111 1100010110 1100001100 23.750 45.258 1002.9 43632 17 -309 11 59 51 3 $GNGGA,133102.00,,,,,0,00,99.9,,,,,,*43
44 13 31 03 Nan Nan Nan 1101011011 1011101101 1100011000 1111110001 1111111111 1101010111 1110010010 1110110100 1100001110 1101100001 1010110101 1011100010 10000000100 10000010000 1101101101 1101010011 1100010010 1100001110 23.750 45.250 1002.9 44632 16 -310 12 58 51 3 $GNGGA,133103.00,,,,,0,00,99.9,,,,,,*42
45 13 31 04 Nan Nan Nan 1101011011 1011101010 1100010101 1111110101 1111111110 1101001110 1110001110 1110110011 1100010110 1101100010 1010110110 1011100100 10000000101 10000001110 1101101010 1101010000 1100010001 1100001000 23.750 45.243 1002.9 45632 17 -311 11 59 51 3 $GNGGA,133104.00,,,,,0,00,99.9,,,,,,*45
46 13 31 05 Nan Nan Nan 1101011011 1011101100 1100010110 1111110101 1111111100 1101001111 1110001110 1110110011 1100001010 1101100010 1010111000 1011100011 10000000110 10000010000 1101100110 1101001100 1100010100 1100001010 23.750 45.220 1002.9 46632 16 -312 12 58 51 3 $GNGGA,133105.00,,,,,0,00,99.9,,,,,,*44
47 13 31 06 Nan Nan Nan 1101011011 1011101101 1100010100 1111110100 1111111111 1101000110 1110000010 1110110000 1100010110 1101100010 1010111100 1011100110 10000000111 10000010000 1101100101 1101001010 1100010010 1100001011 23.750 45.220 1002.9 47632 16 -147 11 59 51 3 $GNGGA,133106.00,,,,,0,00,99.9,,,,,,*47
48 13 31 06 Nan Nan Nan 1101011011 1011110000 1100011001 1111111011 10000000001 1101001100 1110001011 1110101010 1100001011 1101100010 1010111000 1011100010 10000001100 10000010110 1101011011 1101000101 1100011001 1100001101 23.813 45.205 1002.9 48632 16 -801 12 58 51 3 $GNGGA,133106.50,,,,,0,00,11.2,,,,,,*49
49 13 31 08 Nan Nan Nan 1101011011 1011110000 1100010110 1111111010 10000000001 1100111110 1110000100 1110100101 1100001110 1101100010 1010111111 1011101011 10000001001 10000010011 1101011010 1101000001 1100010100 1100001101 23.750 45.197 1002.9 49632 16 -314 11 58 52 3 $GNGGA,133108.00,,,,,0,00,11.2,,,,,,*42
50 13 31 09 Nan Nan Nan 1101011011 1011101111 1100010100 1111111001 10000000001 1101000101 1110000001 1110101000 1100001110 1101100010 1010111011 1011101000 10000000111 10000010101 1101011110 1101001010 1100010110 1100001110 23.750 45.182 1002.9 50632 17 -313 11 59 51 3 $GNGGA,133109.00,,,,,0,00,11.2,,,,,,*43
51 13 31 10 Nan Nan Nan 1101011011 1011110001 1100010101 1111111101 10000000110 1100111111 1101111100 1110100100 1100000100 1101100010 1010111110 1011101010 10000001011 10000010111 1101011010 1101000101 1100010001 1100000110 23.813 45.167 1002.9 51632 16 -315 11 58 51 4 $GNGGA,133110.00,,,,,0,00,11.2,,,,,,*4B
52 13 31 11 Nan Nan Nan 1101011011 1011110100 1100011000 1111110000 10000000001 1100111101 1101111110 1110100010 1100000000 1101100010 1010111100 1011101001 10000000100 10000010101 1101011011 1101000100 1100010001 1100001001 23.750 45.144 1002.9 52632 17 -315 11 59 51 3 $GNGGA,133111.00,,,,,0,00,11.1,,,,,,*49
53 13 31 12 Nan Nan Nan 1101011011 1011110011 1100010111 1111110101 10000000100 1100111011 1101111010 1110010111 1011111010 1101100010 1011000001 1011101011 10000001000 10000011000 1101010111 1100111011 1100010110 1100001010 23.750 45.144 1002.9 53632 16 -316 12 58 51 3 $GNGGA,133112.00,,,,,0,00,11.1,,,,,,*4A
54 13 31 13 Nan Nan Nan 1101011011 1011110001 1100010111 1111110110 10000000110 1100111011 1101110110 1110011000 1100000110 1101100010 1011000001 1011101100 10000001001 10000011001 1101001111 1101000001 1100010011 1100001001 23.813 45.128 1002.9 54632 17 -317 11 59 51 3 $GNGGA,133113.00,,,,,0,00,11.1,,,,,,*4B
55 13 31 14 Nan Nan Nan 1101011011 1011101111 1100010011 1111110111 10000000100 1100111010 1101111001 1110010000 1011111110 1101100010 1011000001 1011101101 10000001101 10000011010 1101010111 1101000000 1100010101 1100001100 23.750 45.113 1002.9 55632 16 -318 12 58 51 3 $GNGGA,133114.00,,,,,0,00,11.1,,,,,,*4C
56 13 31 15 Nan Nan Nan 1101011011 1011110011 1100011010 1111111101 10000000111 1100110001 1101101111 1110010000 1011111110 1101100010 1010111111 1011101011 10000000011 10000011000 1101001100 1100110111 1100001100 1100001000 23.813 45.098 1002.9 56632 16 -320 11 58 52 3 $GNGGA,133115.00,,,,,0,00,11.1,,,,,,*4D
57 13 31 16 Nan Nan Nan 1101011011 1011111001 1100011101 1111111001 10000000111 1100111100 1101111001 1110010000 1011111101 1101100010 1011000010 1011101100 10000001000 10000011011 1101001111 1100111111 1100001010 1100001001 23.813 45.098 1002.9 57632 17 -318 11 58 51 3 $GNGGA,133116.00,,,,,0,00,11.1,,,,,,*4E
58 13 31 17 Nan Nan Nan 1101011011 1011110100 1100011000 1111111010 10000000111 1100110101 1101110101 1110001110 1011111110 1101100010 1011000000 1011101101 10000010001 10000011101 1101001101 1100111010 1100001111 1011111110 23.813 45.083 1002.9 58632 16 -322 11 58 52 3 $GNGGA,133117.00,,,,,0,00,11.1,,,,,,*4F
59 13 31 18 Nan Nan Nan 1101011011 1011110100 1100011000 1111111010 10000000111 1100101110 1101101110 1110010101 1100000111 1101100010 1011000011 1011110001 10000001001 10000010111 1101001101 1100111010 1100010111 1100000011 23.813 45.067 1002.9 59632 17 -314 11 59 51 3 $GNGGA,133118.00,,,,,0,00,11.0,,,,,,*41
60 13 31 19 Nan Nan Nan 1101011011 1011110100 1100011010 1111111110 10000001100 1100101011 1101110000 1110010010 1011111111 1101100010 1011000011 1011110001 10000001001 10000011011 1101000000 1100110011 1100010001 1100000010 23.813 45.060 1002.9 60632 16 -314 12 58 51 3 $GNGGA,133119.00,,,,,0,00,11.0,,,,,,*40
61 13 31 20 Nan Nan Nan 1101011011 1011111100 1100100000 10000000000 10000001101 1100101010 1101101011 1110010100 1011111110 1101100010 1011000011 1011110011 10000000011 10000011001 1101000111 1100110100 1100010011 1100010000 23.750 45.044 1002.9 61632 17 -319 11 59 51 3 $GNGGA,133120.00,,,,,0,00,11.0,,,,,,*4A
62 13 31 21 Nan Nan Nan 1101011011 1011110101 1100011000 10000000000 10000001111 1100101100 1101101101 1110010010 1100000101 1101100010 1011000110 1011110001 10000010001 10000011100 1101000000 1100101101 1100001101 1100000100 23.813 45.029 1002.9 62632 16 -320 12 58 51 3 $GNGGA,133121.00,,,,,0,00,11.0,,,,,,*4B
63 13 31 22 Nan Nan Nan 1101011011 1011110101 1100010110 1111111111 10000001101 1100101101 1101101101 1110010011 1011111101 1101100010 1011000000 1011101111 10000010000 10000011101 1101000101 1100110101 1100010011 1100001011 23.750 45.022 1002.9 63632 16 -307 11 59 51 3 $GNGGA,133122.00,,,,,0,00,6.15,,,,,,*4A
64 13 31 23 Nan Nan Nan 1101011011 1011110111 1100011010 1111111100 10000001011 1100101100 1101110000 1110010011 1011111100 1101100010 1011000110 1011110010 10000010000 10000011101 1100111111 1100101110 1100000110 1100000111 23.750 45.006 1002.9 64632 16 -326 12 58 51 3 $GNGGA,133123.00,,,,,0,00,6.15,,,,,,*4B
65 13 31 24 Nan Nan Nan 1101011011 1011111100 1100100000 10000000001 10000001101 1100100101 1101100101 1110001101 1011111100 1101100010 1011000111 1011110001 10000001000 10000011101 1101000000 1100110001 1100010001 1011111110 23.813 44.991 1002.9 65632 16 -327 11 58 52 3 $GNGGA,133124.00,,,,,0,00,1.71,,,,,,*49
66 13 31 25 Nan Nan Nan 1101011011 1011111100 1100011101 10000000011 10000010000 1100100010 1101011110 1110010101 1011111101 1101100010 1011000010 1011110000 10000001011 10000011111 1100111010 1100101000 1100001100 1100000100 23.813 44.976 1002.9 66632 17 -328 11 59 51 3 $GNGGA,133125.00,,,,,0,00,1.71,,,,,,*48
67 13 31 26 4333.6823100128.72122194.3~ 00128.72122 194.3 1101011011 1011111000 1100011001 10000000010 10000001111 1100100001 1101100101 1110010011 1011111101 1101100010 1011001001 1011110010 10000010111 10000100000 1101000001 1100101110 1100001110 1100001010 23.813 44.961 1002.9 67632 16 -318 14 58 51 4 $GNGGA,133126.00,4333.68231,N,00128.72122,E,1,05,1.71,194.3,M,53.8,M,,*43
68 13 31 27 4333.6822400128.72220194.6~ 00128.72220 194.6 1101011011 1011111000 1100011010 10000000011 10000010010 1100101101 1101101101 1110010011 1011111010 1101100010 1011000101 1011110001 10000010001 10000011111 1100111001 1100101000 1100001010 1100000100 23.813 44.945 1002.9 68632 17 -318 14 59 51 3 $GNGGA,133127.00,4333.68224,N,00128.72220,E,1,05,1.71,194.6,M,53.8,M,,*42
69 13 31 28 4333.6820400128.72305196.9~ 00128.72305 196.9 1101011011 1011111011 1100011011 10000000000 10000001110 1100100100 1101100100 1110010001 1011111000 1101100010 1011000011 1011110010 10000001001 10000011101 1100110111 1100101011 1100001111 1100001010 23.750 44.915 1002.9 69632 16 -320 15 58 51 3 $GNGGA,133128.00,4333.68204,N,00128.72305,E,1,05,1.71,196.9,M,53.8,M,,*44
70 13 31 29 4333.6819100128.72404197.5~ 00128.72404 197.5 1101011011 1011111011 1100011100 1111111111 10000001111 1100100010 1101100000 1110010110 1011111111 1101100010 1011000110 1011110010 10000010100 10000100010 1100111000 1100101001 1100001110 1100001011 23.813 44.892 1002.9 70632 17 -321 14 59 51 3 $GNGGA,133129.00,4333.68191,N,00128.72404,E,1,05,1.71,197.5,M,53.8,M,,*41
71 13 31 30 4333.6818100128.72489198.7~ 00128.72489 198.7 1101011011 1011111100 1100011111 10000000101 10000010010 1100100010 1101100000 1110010011 1011111101 1101100010 1011000111 1011110101 10000001110 10000011111 1100111010 1100110010 1100010000 1100000100 23.750 44.861 1002.9 71632 16 -321 15 58 51 3 $GNGGA,133130.00,4333.68181,N,00128.72489,E,1,05,1.71,198.7,M,53.8,M,,*40
72 13 31 31 4333.6818700128.72639197.1~ 00128.72639 197.1 1101011011 1011111110 1100011101 1111111011 10000010010 1100011111 1101100011 1110010011 1011110101 1101100010 1011000110 1011110000 10000001101 10000100000 1100110110 1100101010 1100001010 1100000011 23.750 44.838 1002.9 72632 16 -323 14 58 52 3 $GNGGA,133131.00,4333.68187,N,00128.72639,E,1,05,1.71,197.1,M,53.8,M,,*47
73 13 31 32 4333.6822300128.72781193.9~ 00128.72781 193.9 1101011011 1011111100 1100011101 1111111001 10000010011 1100100010 1101100100 1110010000 1011110010 1101100010 1011000011 1011110010 10000010001 10000100010 1100110111 1100101100 1100001000 1100000100 23.750 44.816 1002.9 73632 16 -324 15 58 51 3 $GNGGA,133132.00,4333.68223,N,00128.72781,E,1,04,1.83,193.9,M,53.8,M,,*4B
74 13 31 33 4333.6825300128.72861192.6~ 00128.72861 192.6 1101011011 1011111011 1100011010 10000000000 10000010110 1100100000 1101011111 1110000111 1011101100 1101100010 1011001010 1011110101 10000001110 10000100000 1100111100 1100101011 1100001010 1100000100 23.813 44.793 1002.9 74632 17 -324 14 58 52 3 $GNGGA,133133.00,4333.68253,N,00128.72861,E,1,05,1.71,192.6,M,53.8,M,,*4E
75 13 31 34 4333.6824300128.72843194.2~ 00128.72843 194.2 1101011011 1011111011 1100011001 1111111000 10000010001 1100011101 1101100001 1110001011 1011110010 1101100010 1011000001 1011110010 10000001010 10000100001 1100110101 1100101000 1100010000 1100001100 23.750 44.785 1002.9 75632 17 -325 14 59 51 3 $GNGGA,133134.00,4333.68243,N,00128.72843,E,1,05,1.71,194.2,M,53.8,M,,*4A
76 13 31 35 4333.6824200128.72802194.0~ 00128.72802 194.0 1101011011 1011111011 1100011100 10000000001 10000010110 1100010111 1101011010 1110000100 1011110001 1101100010 1011001100 1011110111 10000010100 10000100011 1100110011 1100101000 1100001011 1100000000 23.750 44.770 1002.9 76632 16 -326 15 58 51 3 $GNGGA,133135.00,4333.68242,N,00128.72802,E,1,05,1.71,194.0,M,53.8,M,,*4D
77 13 31 36 4333.6827800128.72814192.8~ 00128.72814 192.8 1101011011 1011111100 1100011101 1111111000 10000010011 1100011110 1101011111 1110000110 1011110100 1101100010 1011001000 1011110011 10000001100 10000100011 1100110101 1100100101 1100001011 1100000011 23.813 44.755 1002.9 77632 17 -325 14 59 51 3 $GNGGA,133136.00,4333.68278,N,00128.72814,E,1,05,1.71,192.8,M,53.8,M,,*4E
78 13 31 37 4333.6832200128.72809192.3~ 00128.72809 192.3 1101011011 1011111111 1100011111 10000000000 10000010111 1100010111 1101011101 1110000101 1011110100 1101100010 1011000111 1011110101 10000010001 10000100010 1100110101 1100100101 1100001010 1100000101 23.750 44.762 1002.9 78632 16 -328 15 58 51 3 $GNGGA,133137.00,4333.68322,N,00128.72809,E,1,05,1.71,192.3,M,53.8,M,,*46
79 13 31 38 4333.6838500128.72924190.8~ 00128.72924 190.8 1101011011 1100000000 1100100000 10000000010 10000011011 1100010100 1101010101 1110000111 1011101110 1101100010 1011000111 1011110100 10000010010 10000100100 1100101111 1100100010 1100001110 1100000110 23.750 44.755 1002.9 79632 17 -329 14 59 51 3 $GNGGA,133138.00,4333.68385,N,00128.72924,E,1,05,1.95,190.8,M,53.8,M,,*49
80 13 31 39 4333.6849100128.72893188.2~ 00128.72893 188.2 1101011011 1011111111 1100011110 1111111011 10000010101 1100010111 1101011011 1110001011 1011111101 1101100010 1011001010 1011110101 10000010011 10000100100 1100110000 1100100011 1100001100 1100000101 23.750 44.755 1002.9 80632 16 -329 15 58 51 3 $GNGGA,133139.00,4333.68491,N,00128.72893,E,1,05,1.95,188.2,M,53.8,M,,*44
81 13 31 40 4333.6857800128.72861184.7~ 00128.72861 184.7 1101011011 1100000001 1100100000 10000000000 10000011000 1100010110 1101011100 1110001100 1011111011 1101100010 1011001001 1011110111 10000011001 10000100101 1100110011 1100101000 1100010001 1011111110 23.750 44.770 1002.9 81632 16 -329 14 58 52 3 $GNGGA,133140.00,4333.68578,N,00128.72861,E,1,05,1.95,184.7,M,53.8,M,,*48
82 13 31 41 4333.6843600128.72782191.3~ 00128.72782 191.3 1101011011 1011111111 1100011011 10000000101 10000011011 1100010100 1101011000 1110001101 1100000100 1101100010 1011001001 1011110011 10000001111 10000100101 1100101110 1100100011 1100001111 1011111010 23.750 44.770 1002.9 82632 17 -332 14 59 51 3 $GNGGA,133141.00,4333.68436,N,00128.72782,E,1,03,1.91,191.3,M,53.8,M,,*42
83 13 31 42 4333.6837700128.72883189.8~ 00128.72883 189.8 1101011011 1100000000 1100011110 10000000011 10000011001 1100011001 1101011011 1110010000 1100000011 1101100010 1011001001 1011110100 10000010010 10000100011 1100110000 1100100101 1100001101 1011111101 23.750 44.785 1002.9 83632 16 -332 14 58 51 4 $GNGGA,133142.00,4333.68377,N,00128.72883,E,1,04,1.97,189.8,M,53.8,M,,*4E
84 13 31 43 4333.6835500128.72997188.1~ 00128.72997 188.1 1101011011 1011111110 1100011011 10000000010 10000010111 1100010110 1101011010 1110001100 1100000000 1101100010 1011001011 1011110111 10000011000 10000100110 1100101111 1100100011 1100001001 1011111110 23.750 44.800 1002.9 84632 17 -333 14 59 51 3 $GNGGA,133143.00,4333.68355,N,00128.72997,E,1,04,1.97,188.1,M,53.8,M,,*43
85 13 31 44 Nan Nan Nan 1101011011 1100000010 1100100001 10000000010 10000011011 1100010100 1101010110 1110001000 1011111111 1101100001 1011001010 1011110111 10000010001 10000100111 1100110001 1100100010 1100000111 1011111111 23.750 44.800 1002.9 85632 16 -347 12 58 51 3 $GNGGA,133144.00,,,,,0,00,99.9,,,,,,*41
86 13 31 45 Nan Nan Nan 1101011011 1100000001 1100011111 10000000010 10000011101 1100011010 1101011101 1110010000 1011111111 1101100001 1011001001 1011110111 10000010100 10000100111 1100101011 1100100010 1100001100 1100000000 23.813 44.816 1002.9 86632 17 -349 11 59 51 3 $GNGGA,133145.00,,,,,0,00,99.9,,,,,,*40
87 13 31 46 Nan Nan Nan 1101011011 1100000001 1100011100 10000000100 10000011010 1100010010 1101011000 1110001000 1011111100 1101100010 1011001010 1011111000 10000010110 10000100111 1100101100 1100100001 1100001000 1011111111 23.750 44.816 1002.9 87632 16 -351 12 58 51 3 $GNGGA,133146.00,,,,,0,00,99.9,,,,,,*43
88 13 31 47 Nan Nan Nan 1101011011 1100000110 1100100010 10000000011 10000011101 1100011011 1101100000 1110000111 1011111011 1101100001 1011001000 1011110110 10000010110 10000100110 1100101010 1100011110 1100000100 1011111110 23.750 44.823 1002.9 88632 16 -351 11 58 52 3 $GNGGA,133147.00,,,,,0,00,99.9,,,,,,*42
89 13 31 48 Nan Nan Nan 1101011011 1100000000 1100011100 10000000011 10000011011 1100010100 1101011000 1110000100 1011111000 1101100010 1011001101 1011111001 10000010101 10000100111 1100110001 1100100110 1100001011 1011111101 23.750 44.831 1002.9 89632 17 -352 11 58 51 3 $GNGGA,133148.00,,,,,0,00,99.9,,,,,,*4D
90 13 31 49 Nan Nan Nan 1101011011 1011111111 1100011110 10000000000 10000011010 1100010010 1101011001 1110001001 1011110110 1101100010 1011001100 1011110110 10000010101 10000100111 1100101100 1100011111 1100001111 1100001000 23.750 44.838 1002.9 90632 16 -353 11 58 52 3 $GNGGA,133149.00,,,,,0,00,99.9,,,,,,*4C
91 13 31 50 Nan Nan Nan 1101011011 1100000001 1100011111 10000000011 10000011110 1100001101 1101001110 1110000100 1011111100 1101100010 1011001100 1011111001 10000010111 10000100111 1100101010 1100011111 1100001000 1100000011 23.750 44.838 1002.9 91632 17 -353 11 59 51 3 $GNGGA,133150.00,,,,,0,00,99.9,,,,,,*44
92 13 31 51 Nan Nan Nan 1101011011 1100000100 1100100001 10000000011 10000011100 1100010110 1101010011 1110000000 1011110110 1101100010 1011001101 1011111000 10000010101 10000101000 1100101010 1100011101 1100001111 1100001110 23.750 44.846 1002.9 92632 16 -356 12 58 51 3 $GNGGA,133151.00,,,,,0,00,99.9,,,,,,*45
93 13 31 52 Nan Nan Nan 1101011011 1100000010 1100011100 10000000111 10000011010 1100010010 1101010110 1101111110 1011111100 1101100010 1011001011 1011111010 10000011001 10000101001 1100101011 1100011110 1100010011 1100001100 23.750 44.854 1002.9 93632 17 -356 11 59 51 3 $GNGGA,133152.00,,,,,0,00,99.9,,,,,,*46
94 13 31 53 4333.6778600128.72597186.9~ 00128.72597 186.9 1101011011 1100000001 1100011100 10000001000 10000100000 1100010011 1101010011 1110000100 1011111010 1101100010 1011000111 1011110011 10000010101 10000100100 1100101010 1100100000 1100000110 1100000001 23.750 44.854 1002.9 94632 16 -344 15 58 51 3 $GNGGA,133153.00,4333.67786,N,00128.72597,E,1,03,2.17,186.9,M,53.8,M,,*41
95 13 31 54 Nan Nan Nan 1101011011 1100000010 1100100000 10000000011 10000011110 1100010001 1101010000 1110000010 1011110101 1101100010 1011001010 1011111000 10000001110 10000100111 1100101011 1100011111 1100001010 1100000001 23.750 44.854 1002.9 95632 16 -359 11 59 51 3 $GNGGA,133154.00,,,,,0,00,99.9,,,,,,*40
96 13 31 55 Nan Nan Nan 1101011011 1100000111 1100011110 1111110111 10000011001 1100010111 1101011000 1110000101 1011110101 1101100010 1011001011 1011110110 10000010110 10000100111 1100100110 1100100000 1100000110 1011111000 23.750 44.869 1002.9 96632 16 -358 12 58 51 3 $GNGGA,133155.00,,,,,0,00,99.9,,,,,,*41
97 13 31 56 Nan Nan Nan 1101011011 1100000010 1100011110 10000000010 10000011100 1100010101 1101010011 1101111110 1011101001 1101100010 1011010000 1011111001 10000010010 10000101010 1100101000 1100011010 1100001101 1100000011 23.750 44.869 1002.9 97632 16 -360 11 58 52 3 $GNGGA,133156.00,,,,,0,00,99.9,,,,,,*42
98 13 31 57 Nan Nan Nan 1101011011 1100000100 1100100000 1111111110 10000011101 1100001110 1101010000 1101111111 1011101100 1101100001 1011001100 1011110111 10000011000 10000101010 1100101100 1100100001 1100010001 1011111111 23.750 44.861 1002.9 98632 17 -361 11 59 51 3 $GNGGA,133157.00,,,,,0,00,99.9,,,,,,*43
99 13 31 58 Nan Nan Nan 1101011011 1100000100 1100011111 1111111101 10000011001 1100001101 1101010110 1101111000 1011101110 1101100010 1011001110 1011111100 10000010000 10000101000 1100101010 1100011101 1100001100 1011111110 23.750 44.861 1002.9 99632 16 -361 11 58 51 4 $GNGGA,133158.00,,,,,0,00,99.9,,,,,,*4C
100 13 31 59 Nan Nan Nan 1101011011 1100000100 1100011111 10000000000 10000011111 1100010010 1101010011 1101111011 1011110011 1101100010 1011010000 1011111001 10000011000 10000101011 1100101011 1100100000 1100001010 1100000001 23.750 44.861 1002.9 100632 17 -361 11 59 51 3 $GNGGA,133159.00,,,,,0,00,99.9,,,,,,*4D
101 13 32 00 Nan Nan Nan 1101011011 1100000100 1100100010 10000000011 10000100000 1100001111 1101010011 1101111111 1011110001 1101100010 1011001010 1011110110 10000001111 10000101000 1100101011 1100011101 1100000110 1100000010 23.750 44.869 1002.9 101632 16 -362 12 58 51 3 $GNGGA,133200.00,,,,,0,00,99.9,,,,,,*42
102 13 32 01 Nan Nan Nan 1101011011 1100000110 1100100010 1111111101 10000100000 1100001110 1101010100 1110000010 1011110000 1101100010 1011001010 1011111000 10000011000 10000101001 1100100101 1100010111 1100000111 1011111010 23.750 44.861 1002.9 102632 17 -365 11 59 51 3 $GNGGA,133201.00,,,,,0,00,99.9,,,,,,*43
103 13 32 02 Nan Nan Nan 1101011011 1100000011 1100011100 1111111111 10000011100 1100001101 1101010001 1110000111 1011110011 1101100010 1011001110 1011111001 10000010110 10000101010 1100101001 1100011100 1100000101 1011111111 23.750 44.854 1002.9 103632 16 -367 12 58 51 3 $GNGGA,133202.00,,,,,0,00,99.9,,,,,,*40
104 13 32 03 Nan Nan Nan 1101011011 1100000101 1100100000 1111111110 10000011011 1100001001 1101001011 1110000000 1011110101 1101100010 1011001111 1011111101 10000010111 10000101000 1100100111 1100011100 1100001011 1011111101 23.750 44.861 1002.9 104632 16 -366 11 58 52 3 $GNGGA,133203.00,,,,,0,00,99.9,,,,,,*41
105 13 32 04 Nan Nan Nan 1101011011 1100000111 1100100100 1111111101 10000011100 1100001001 1101001000 1110000110 1011101111 1101100010 1011001001 1011111001 10000011000 10000101011 1100101001 1100011010 1100001100 1100000010 23.688 44.846 1002.9 105632 17 -369 11 58 51 3 $GNGGA,133204.00,,,,,0,00,99.9,,,,,,*46
106 13 32 05 Nan Nan Nan 1101011011 1100000010 1100011111 10000000101 10000100000 1100001101 1101010000 1110000100 1011110100 1101100010 1011001110 1011111011 10000010011 10000101011 1100100110 1100011101 1100000011 1011111100 23.750 44.846 1002.9 106632 16 -370 11 58 52 3 $GNGGA,133205.00,,,,,0,00,99.9,,,,,,*47
107 13 32 06 Nan Nan Nan 1101011011 1100000000 1100011100 10000001000 10000100011 1100001101 1101010001 1110001111 1011111011 1101100010 1011001101 1011111100 10000011001 10000101011 1100100100 1100011000 1100001111 1100001000 23.688 44.838 1002.9 107632 17 -370 11 59 51 3 $GNGGA,133206.00,,,,,0,00,99.9,,,,,,*44
108 13 32 07 Nan Nan Nan 1101011011 1100000100 1100011110 10000000110 10000100110 1100001110 1101011000 1110001100 1011111100 1101100010 1011001100 1011110110 10000011000 10000101001 1100100110 1100011101 1100001000 1011111100 23.688 44.831 1002.9 108632 16 -371 12 58 51 3 $GNGGA,133207.00,,,,,0,00,99.9,,,,,,*45
109 13 32 08 Nan Nan Nan 1101011011 1100000101 1100100001 10000000001 10000100010 1100010000 1101010010 1110000110 1011111000 1101100010 1011001011 1011111000 10000010010 10000101000 1100100010 1100011010 1100001000 1011111100 23.688 44.816 1002.9 109632 17 -373 11 59 51 3 $GNGGA,133208.00,,,,,0,00,99.9,,,,,,*4A
110 13 32 09 Nan Nan Nan 1101011011 1100001001 1100100100 1111111101 10000100010 1100001100 1101010011 1110001000 1011111001 1101100010 1011010000 1011111010 10000010011 10000101010 1100100000 1100011000 1100010000 1100000110 23.688 44.785 1002.9 110632 16 -372 12 58 51 3 $GNGGA,133209.00,,,,,0,00,99.9,,,,,,*4B
111 13 32 10 Nan Nan Nan 1101011011 1100000110 1100100011 10000000001 10000100010 1100001001 1101001100 1110000100 1011110010 1101100010 1011010000 1011111100 10000011000 10000101100 1100100011 1100010101 1100001010 1011111111 23.625 44.739 1002.9 111632 16 -374 11 59 51 3 $GNGGA,133210.00,,,,,0,00,99.9,,,,,,*43
112 13 32 11 Nan Nan Nan 1101011011 1100001000 1100100001 10000000010 10000100011 1100001010 1101001011 1110000000 1011110010 1101100010 1011001111 1011111000 10000011010 10000101011 1100100000 1100011001 1100001011 1100000000 23.625 44.671 1002.9 112632 16 -373 12 58 51 3 $GNGGA,133211.00,,,,,0,00,99.9,,,,,,*42
113 13 32 12 Nan Nan Nan 1101011011 1100000110 1100100000 10000001010 10000100110 1100001001 1101001110 1110000000 1011110111 1101100010 1011001011 1011110101 10000010100 10000101001 1100100100 1100011001 1100000110 1011110001 23.688 44.587 1002.9 113632 16 -374 10 58 52 4 $GNGGA,133212.00,,,,,0,00,99.9,,,,,,*41
114 13 32 13 Nan Nan Nan 1101011011 1100000101 1100100000 10000000111 10000100111 1100001010 1101001110 1110000100 1011111101 1101100010 1011001000 1011111000 10000010011 10000101101 1100100011 1100011100 1100000001 1011111011 23.688 44.495 1002.9 114632 17 -369 11 59 51 3 $GNGGA,133213.00,,,,,0,00,2.87,,,,,,*44
115 13 32 14 Nan Nan Nan 1101011011 1100000110 1100100001 10000000110 10000100110 1100001111 1101010000 1101111011 1011101111 1101100010 1011001110 1011111011 10000010101 10000101101 1100100001 1100010011 1100000001 1100000011 23.625 44.388 1002.9 115632 16 -374 11 58 51 4 $GNGGA,133214.00,,,,,0,00,3.48,,,,,,*41
116 13 32 15 Nan Nan Nan 1101011011 1100000111 1100100100 10000001011 10000101010 1100001000 1101010000 1101111111 1011101000 1101100010 1011001011 1011111010 10000001111 10000101100 1100100011 1100011010 1100001001 1011111011 23.625 44.282 1002.9 116632 17 -377 11 59 51 3 $GNGGA,133215.00,,,,,0,00,19.3,,,,,,*44
117 13 32 16 Nan Nan Nan 1101011011 1100000110 1100011110 1111111001 10000100001 1100001011 1101001011 1110000110 1011111000 1101100010 1011001011 1011111010 10000001110 10000101110 1100100000 1100010101 1100001010 1100000001 23.625 44.167 1002.9 117632 16 -375 12 58 51 3 $GNGGA,133216.00,,,,,0,00,19.3,,,,,,*47
118 13 32 17 Nan Nan Nan 1101011011 1100000110 1100100010 1111111101 10000100000 1100001011 1101010000 1101111010 1011110110 1101100010 1011001011 1011111011 10000001011 10000101101 1100100011 1100010100 1100001001 1011111111 23.625 44.098 1002.9 118632 17 -377 11 59 51 3 $GNGGA,133217.00,,,,,0,00,3.02,,,,,,*4C
119 13 32 18 Nan Nan Nan 1101011011 1100000111 1100100011 1111111111 10000011111 1100001111 1101001111 1101111000 1011100110 1101100010 1011000111 1011111000 10000001001 10000101101 1100100011 1100011000 1100000111 1100000001 23.625 44.053 1002.9 119632 16 -375 12 58 51 3 $GNGGA,133218.00,,,,,0,00,2.12,,,,,,*43
120 13 32 19 Nan Nan Nan 1101011011 1100001000 1100100010 10000000011 10000100110 1100000101 1101001111 1110000000 1011110100 1101100010 1011001011 1011111011 10000000110 10000101111 1100100011 1100010100 1100001100 1100000011 23.688 44.007 1002.9 120632 16 -377 11 58 52 3 $GNGGA,133219.00,,,,,0,00,15.0,,,,,,*47
121 13 32 20 4333.6836600128.77153171.6~ 00128.77153 171.6 1101011011 1100001000 1100100000 10000000110 10000100100 1100000011 1101001101 1110000010 1011110110 1101100010 1011001001 1011111010 1111111111 10000101100 1100100000 1100010100 1100001000 1100000010 23.625 43.999 1002.9 121632 16 -368 15 58 51 3 $GNGGA,133220.00,4333.68366,N,00128.77153,E,1,05,3.75,171.6,M,53.8,M,,*4E
122 13 32 21 4333.6851300128.77427170.2~ 00128.77427 170.2 1101011011 1100000111 1100100010 10000000000 10000100101 1100000011 1101001001 1110000100 1011111000 1101100010 1011001110 1011111111 10000000110 10000101110 1100100010 1100011000 1100001100 1100000100 23.625 43.999 1002.9 122632 16 -368 14 58 52 3 $GNGGA,133221.00,4333.68513,N,00128.77427,E,1,05,3.75,170.2,M,53.8,M,,*48
123 13 32 22 4333.6856300128.77517169.4~ 00128.77517 169.4 1101011011 1100000100 1100011110 10000000001 10000100011 1100001111 1101010011 1110000001 1011111010 1101100010 1011001010 1011111011 10000000001 10000101101 1100100010 1100010011 1100001110 1100000010 23.625 44.014 1002.9 123632 17 -371 14 59 51 3 $GNGGA,133222.00,4333.68563,N,00128.77517,E,1,05,3.75,169.4,M,53.8,M,,*40
124 13 32 23 4333.6853300128.77560168.6~ 00128.77560 168.6 1101011011 1100000111 1100100000 1111111110 10000100100 1100010010 1101010101 1110000101 1011110011 1101100010 1011000111 1011111010 10000000101 10000101110 1100100011 1100010111 1100010000 1100000111 23.688 44.022 1002.9 124632 16 -368 15 58 51 3 $GNGGA,133223.00,4333.68533,N,00128.77560,E,1,05,3.75,168.6,M,53.8,M,,*47
125 13 32 24 4333.6847000128.77562168.3~ 00128.77562 168.3 1101011011 1100000111 1100011110 10000000011 10000100100 1100001110 1101010100 1110000011 1011111011 1101100010 1011001010 1011111001 10000000111 10000101110 1100100011 1100010101 1100000111 1011111101 23.625 44.030 1002.9 125632 17 -369 14 59 51 3 $GNGGA,133224.00,4333.68470,N,00128.77562,E,1,05,3.75,168.3,M,53.8,M,,*41
126 13 32 25 4333.6831400128.77592168.8~ 00128.77592 168.8 1101011011 1100001001 1100100011 1111111111 10000100001 1100000000 1101000100 1110000101 1011111000 1101100010 1011001011 1011111001 10000000110 10000110000 1100100011 1100010101 1100001100 1100000101 23.625 44.053 1002.9 126632 16 -370 15 58 51 3 $GNGGA,133225.00,4333.68314,N,00128.77592,E,1,05,3.75,168.8,M,53.8,M,,*41
127 13 32 26 4333.6834600128.77572168.7~ 00128.77572 168.7 1101011011 1100000111 1100100011 10000001101 10000101010 1100001010 1101001100 1110000010 1011111110 1101100010 1011010000 1011111101 10000001001 10000101100 1100100110 1100010111 1100000110 1011111011 23.625 44.076 1002.9 127632 17 -372 14 59 51 3 $GNGGA,133226.00,4333.68346,N,00128.77572,E,1,06,1.95,168.7,M,53.8,M,,*4B
128 13 32 27 4333.6834800128.77605169.3~ 00128.77605 169.3 1101011011 1100001001 1100100100 10000000010 10000100110 1100000101 1101000111 1101111101 1011110101 1101100010 1011001111 1011111100 10000001010 10000101101 1100100100 1100010110 1100000100 1100000000 23.625 44.114 1002.9 128632 16 -371 15 58 51 3 $GNGGA,133227.00,4333.68348,N,00128.77605,E,1,06,1.95,169.3,M,53.8,M,,*42
129 13 32 28 4333.6831600128.77645169.1~ 00128.77645 169.1 1101011011 1100001010 1100100111 1111110001 10000011100 1100001001 1101001110 1110000010 1011111110 1101100010 1011001111 1011111011 10000001010 10000101110 1100100110 1100010111 1100000101 1100000001 23.625 44.152 1002.9 129632 16 -375 14 58 52 3 $GNGGA,133228.00,4333.68316,N,00128.77645,E,1,04,2.52,169.1,M,53.8,M,,*4A
130 13 32 29 4333.6827600128.77652168.1~ 00128.77652 168.1 1101011011 1100001011 1100100010 1111111001 10000100110 1100000111 1101000111 1101111101 1011110011 1101100001 1011001001 1011111000 10000010011 10000101110 1100011110 1100010101 1011111101 1011111000 23.625 44.182 1003.0 130632 17 -374 14 59 51 3 $GNGGA,133229.00,4333.68276,N,00128.77652,E,1,05,1.61,168.1,M,53.8,M,,*49
131 13 32 30 4333.6824000128.77649166.1~ 00128.77649 166.1 1101011011 1100001101 1100100100 1111110010 10000011100 1100001001 1101000101 1101111100 1011101111 1101100010 1011001110 1011111001 10000010111 10000101110 1100100010 1100010110 1100000001 1011111010 23.625 44.198 1003.0 131632 16 -375 14 58 51 4 $GNGGA,133230.00,4333.68240,N,00128.77649,E,1,06,1.24,166.1,M,53.8,M,,*42
132 13 32 31 4333.6822800128.77467161.9~ 00128.77467 161.9 1101011011 1100001000 1100100011 10000000000 10000100011 1100000101 1101001100 1101110111 1011101110 1101100010 1011001101 1011111101 10000011000 10000110000 1100011110 1100010101 1100001010 1100000111 23.625 44.205 1003.0 132632 17 -376 14 59 51 3 $GNGGA,133231.00,4333.68228,N,00128.77467,E,1,07,1.00,161.9,M,53.8,M,,*4B
133 13 32 32 4333.6817800128.76980153.0~ 00128.76980 153.0 1101011011 1100000101 1100100000 10000000100 10000101001 1100001001 1101001010 1101111010 1011101001 1101100010 1011010000 1011111101 10000001111 10000101110 1100011011 1100010101 1100000110 1100000110 23.625 44.198 1002.9 133632 17 -375 14 58 51 4 $GNGGA,133232.00,4333.68178,N,00128.76980,E,1,07,1.00,153.0,M,53.8,M,,*43
134 13 32 33 4333.6815500128.76793150.1~ 00128.76793 150.1 1101011011 1100000110 1100100001 10000000110 10000101000 1100001100 1101001101 1101110110 1011101000 1101100010 1011001110 1011111001 10000011011 10000101111 1100011011 1100010100 1100000101 1100000010 23.625 44.175 1002.9 134632 17 -376 14 59 51 3 $GNGGA,133233.00,4333.68155,N,00128.76793,E,1,07,1.00,150.1,M,53.8,M,,*43
135 13 32 34 4333.6806800128.76651149.0~ 00128.76651 149.0 1101011011 1100001100 1100100010 10000000111 10000100111 1100000100 1101000110 1101110100 1011111000 1101100010 1011010001 1011111100 10000010101 10000101101 1100100001 1100011011 1100000110 1011111110 23.625 44.137 1002.9 135632 16 -378 15 58 51 3 $GNGGA,133234.00,4333.68068,N,00128.76651,E,1,07,1.20,149.0,M,53.8,M,,*4F
136 13 32 35 4333.6801300128.76484147.1~ 00128.76484 147.1 1101011011 1100001010 1100100100 10000001100 10000101100 1100001100 1101001101 1101110101 1011101101 1101100010 1011001111 1011111011 10000010011 10000101110 1100100010 1100010101 1100000110 1011111001 23.625 44.068 1002.9 136632 17 -378 14 58 52 3 $GNGGA,133235.00,4333.68013,N,00128.76484,E,1,08,0.96,147.1,M,53.8,M,,*44
137 13 32 36 4333.6792200128.76349146.0~ 00128.76349 146.0 1101011011 1100000111 1100100000 10000001001 10000101110 1100001000 1101001111 1101110110 1011101101 1101100010 1011001010 1011111010 10000001111 10000101110 1100100000 1100010101 1100000110 1011111110 23.625 43.992 1002.9 137632 16 -379 15 58 51 3 $GNGGA,133236.00,4333.67922,N,00128.76349,E,1,07,1.20,146.0,M,53.8,M,,*46
138 13 32 37 4333.6783700128.76321146.1~ 00128.76321 146.1 1101011011 1100000101 1100100000 10000001100 10000110001 1100000111 1101001001 1101111000 1011110111 1101100010 1011001101 1011111010 10000010000 10000101101 1100011110 1100010110 1100000010 1011111111 23.625 43.892 1002.9 138632 16 -382 14 58 52 3 $GNGGA,133237.00,4333.67837,N,00128.76321,E,1,08,0.97,146.1,M,53.8,M,,*4F
139 13 32 38 4333.6775100128.76292146.8~ 00128.76292 146.8 1101011011 1100001010 1100100011 10000001000 10000101101 1100000010 1101001001 1101110110 1011101110 1101100010 1011001100 1011111100 10000001110 10000110001 1100100011 1100011000 1100000110 1011111100 23.625 43.793 1002.9 139632 18 -382 14 59 51 3 $GNGGA,133238.00,4333.67751,N,00128.76292,E,1,08,0.97,146.8,M,53.8,M,,*4F
140 13 32 39 4333.6768100128.76186146.1~ 00128.76186 146.1 1101011011 1100001000 1100011111 10000001010 10000101011 1100000111 1101001011 1101111000 1011101100 1101100010 1011000111 1011111001 10000001100 10000101110 1100100001 1100010101 1100000110 1011111110 23.563 43.686 1002.9 140632 16 -381 15 58 51 3 $GNGGA,133239.00,4333.67681,N,00128.76186,E,1,08,0.97,146.1,M,53.8,M,,*4D
141 13 32 40 4333.6763000128.76086145.6~ 00128.76086 145.6 1101011011 1100001001 1100100010 10000001010 10000101101 1011111111 1101000100 1101110111 1011110000 1101100010 1011001100 1011111101 10000000111 10000101011 1100011110 1100010101 1100000101 1011111010 23.563 43.633 1002.9 141632 17 -383 14 59 51 3 $GNGGA,133240.00,4333.67630,N,00128.76086,E,1,08,0.97,145.6,M,53.8,M,,*4C
142 13 32 41 4333.6756700128.75986145.2~ 00128.75986 145.2 1101011011 1100001000 1100100010 10000000110 10000101110 1100000011 1101001001 1101111000 1011101000 1101100010 1011001011 1011111011 10000000110 10000101110 1100100010 1100010100 1011111111 1011110111 23.563 43.618 1002.9 142632 16 -384 15 58 51 3 $GNGGA,133241.00,4333.67567,N,00128.75986,E,1,08,0.97,145.2,M,53.8,M,,*42
143 13 32 42 4333.6750300128.75858144.3~ 00128.75858 144.3 1101011011 1100000101 1100011101 10000000111 10000101001 1100001010 1101001011 1101111010 1011110011 1101100010 1011001000 1011111100 10000001011 10000101111 1100100011 1100001111 1100000010 1011111100 23.563 43.610 1002.9 143632 17 -385 14 59 51 3 $GNGGA,133242.00,4333.67503,N,00128.75858,E,1,08,0.97,144.3,M,53.8,M,,*41
144 13 32 43 4333.6745600128.75757144.4~ 00128.75757 144.4 1101011011 1100001010 1100100001 1111111101 10000101101 1100000101 1101001100 1101110111 1011101011 1101100010 1011001011 1011111100 10000000110 10000101111 1100100001 1100010110 1100000100 1100000111 23.500 43.641 1002.9 144632 16 -386 15 58 51 3 $GNGGA,133243.00,4333.67456,N,00128.75757,E,1,08,0.97,144.4,M,53.8,M,,*46
145 13 32 44 4333.6740500128.75644144.4~ 00128.75644 144.4 1101011011 1100001010 1100100011 1111111011 10000100011 1100001000 1101010010 1101110110 1011101010 1101100010 1011001101 1011111011 10000010011 10000110010 1100100011 1100010110 1100000010 1011111000 23.500 43.679 1002.9 145632 16 -388 14 58 52 3 $GNGGA,133244.00,4333.67405,N,00128.75644,E,1,08,0.97,144.4,M,53.8,M,,*44
146 13 32 45 4333.6736100128.75527144.2~ 00128.75527 144.2 1101011011 1100001000 1100100001 1111111011 10000100001 1100001001 1101001000 1101110100 1011101100 1101100010 1011001001 1011111001 10000001101 10000110010 1100011101 1100010110 1100000000 1011110101 23.500 43.625 1002.9 146632 17 -388 14 59 51 3 $GNGGA,133245.00,4333.67361,N,00128.75527,E,1,08,0.97,144.2,M,53.8,M,,*40
147 13 32 46 4333.6731200128.75418144.2~ 00128.75418 144.2 1101011011 1100000111 1100100011 10000000010 10000101100 1100000111 1101001100 1101110111 1011110011 1101100010 1011001001 1011111101 10000001101 10000101110 1100011101 1100010100 1100000001 1100000000 23.500 43.541 1002.9 147632 16 -389 14 58 51 4 $GNGGA,133246.00,4333.67312,N,00128.75418,E,1,08,0.97,144.2,M,53.8,M,,*4A
148 13 32 47 4333.6727100128.75312143.9~ 00128.75312 143.9 1101011011 1100000110 1100100000 1111101010 10000011110 1100000010 1101001011 1101111011 1011100111 1101100010 1011001000 1011111101 10000001110 10000110101 1100011111 1100011000 1100001001 1100000110 23.500 43.427 1002.9 148632 17 -389 14 59 51 3 $GNGGA,133247.00,4333.67271,N,00128.75312,E,1,08,0.97,143.9,M,53.8,M,,*4E
149 13 32 48 4333.6722100128.75214143.9~ 00128.75214 143.9 1101011011 1100001000 1100100001 1111110100 10000100011 1100000100 1101001000 1101110110 1011110100 1101100010 1011000100 1011111010 10000000000 10000110001 1100011111 1100010010 1100000111 1011111110 23.500 43.335 1002.9 149632 16 -390 15 58 51 3 $GNGGA,133248.00,4333.67221,N,00128.75214,E,1,08,0.97,143.9,M,53.8,M,,*43
150 13 32 49 4333.6717200128.75119143.7~ 00128.75119 143.7 1101011011 1100000110 1100011101 10000000010 10000101101 1100001001 1101001100 1101110100 1011110001 1101100010 1011000001 1011111010 1111111110 10000110011 1100011010 1100010001 1100001001 1011111011 23.500 43.221 1002.9 150632 17 -391 14 59 51 3 $GNGGA,133249.00,4333.67172,N,00128.75119,E,1,09,0.91,143.7,M,53.8,M,,*40
151 13 32 50 4333.6712400128.75031144.0~ 00128.75031 144.0 1101011011 1100000111 1100011110 10000000110 10000101010 1100001000 1101001011 1101110000 1011100001 1101100010 1011000011 1011111011 1111111100 10000110001 1100011111 1100010100 1100001001 1011111111 23.438 43.160 1002.9 151632 16 -393 15 58 51 3 $GNGGA,133250.00,4333.67124,N,00128.75031,E,1,08,0.97,144.0,M,53.8,M,,*47
152 13 32 51 4333.6708200128.74932144.1~ 00128.74932 144.1 1101011011 1100001000 1100100001 10000001001 10000101101 1100001000 1101001011 1101101111 1011101100 1101100010 1011000111 1011111010 1111110011 10000110000 1100011110 1100010010 1100001000 1100000111 23.438 43.076 1002.9 152632 17 -393 14 58 52 3 $GNGGA,133251.00,4333.67082,N,00128.74932,E,1,09,0.91,144.1,M,53.8,M,,*46
153 13 32 52 4333.6704300128.74834143.9~ 00128.74834 143.9 1101011011 1100001000 1100100001 10000000110 10000110000 1100000011 1101000101 1101110111 1011101110 1101100010 1011001000 1011111110 1111110101 10000110001 1100100101 1100010110 1100000000 1011111100 23.375 43.015 1002.9 153632 16 -394 15 58 51 3 $GNGGA,133252.00,4333.67043,N,00128.74834,E,1,09,0.91,143.9,M,53.8,M,,*40
154 13 32 53 4333.6700200128.74740143.6~ 00128.74740 143.6 1101011011 1100001000 1100100010 1111111110 10000101010 1100000101 1101001110 1101110101 1011101101 1101100010 1011000011 1011111000 1111101100 10000101111 1100100001 1100001100 1100001110 1100000101 23.438 42.962 1002.9 154632 16 -396 14 58 52 3 $GNGGA,133253.00,4333.67002,N,00128.74740,E,1,09,0.91,143.6,M,53.8,M,,*47
155 13 32 54 4333.6696800128.74667143.5~ 00128.74667 143.5 1101011011 1100001000 1100100010 1111111111 10000101001 1100001000 1101001010 1101101110 1011101010 1101100010 1011000110 1011111110 1111110011 10000110000 1100100000 1100010100 1100000011 1100000000 23.375 42.931 1002.9 155632 17 -396 14 59 51 3 $GNGGA,133254.00,4333.66968,N,00128.74667,E,1,09,0.91,143.5,M,53.8,M,,*43
156 13 32 55 4333.6692700128.74582143.6~ 00128.74582 143.6 1101011011 1100001010 1100100100 10000000001 10000101100 1100001011 1101001011 1101101101 1011101111 1101100010 1011000101 1011111110 1111110010 10000110010 1100100100 1100010101 1100001000 1100000010 23.375 42.916 1002.9 156632 16 -399 15 58 51 3 $GNGGA,133255.00,4333.66927,N,00128.74582,E,1,08,0.97,143.6,M,53.8,M,,*45
157 13 32 56 4333.6689400128.74488143.3~ 00128.74488 143.3 1101011011 1100001001 1100100010 10000000001 10000101011 1100000101 1101000011 1101101110 1011110011 1101100010 1011001000 1011111011 1111110100 10000110001 1100100010 1100010100 1100001001 1011111111 23.375 42.923 1002.9 157632 17 -398 14 59 51 3 $GNGGA,133256.00,4333.66894,N,00128.74488,E,1,08,0.97,143.3,M,53.8,M,,*41
158 13 32 57 4333.6686100128.74421143.2~ 00128.74421 143.2 1101011011 1100001000 1100100001 1111111001 10000101001 1100000011 1100111111 1101110100 1011110001 1101100010 1011000110 1011111011 1111111010 10000110011 1100100011 1100010101 1011111011 1011111010 23.375 42.923 1002.9 158632 16 -399 15 58 51 3 $GNGGA,133257.00,4333.66861,N,00128.74421,E,1,08,0.97,143.2,M,53.8,M,,*48
159 13 32 58 4333.6681700128.74382143.1~ 00128.74382 143.1 1101011011 1100000111 1100100001 1111110010 10000100101 1100000100 1101000010 1101101111 1011110011 1101100010 1011001011 1011111011 1111111010 10000110010 1100100001 1100010010 1100000011 1011111101 23.375 42.931 1002.9 159632 17 -400 14 59 51 3 $GNGGA,133258.00,4333.66817,N,00128.74382,E,1,08,0.97,143.1,M,53.8,M,,*4B
160 13 32 59 4333.6679500128.74336142.1~ 00128.74336 142.1 1101011011 1100001110 1100101000 1111111101 10000101010 1100001001 1101000110 1101110010 1011101100 1101100010 1011001001 1011111001 1111111111 10000110100 1100100110 1100010100 1100000010 1011111100 23.375 42.931 1002.9 160632 16 -401 15 58 51 3 $GNGGA,133259.00,4333.66795,N,00128.74336,E,1,08,0.94,142.1,M,53.8,M,,*42
161 13 33 00 4333.6677900128.74293140.9~ 00128.74293 140.9 1101011011 1100001001 1100100010 1111111010 10000101000 1100000110 1101000110 1101101100 1011101010 1101100010 1011001100 1011111110 10000000110 10000110010 1100011101 1100010001 1100000011 1011111111 23.375 42.939 1002.9 161632 17 -402 14 58 52 3 $GNGGA,133300.00,4333.66779,N,00128.74293,E,1,09,0.91,140.9,M,53.8,M,,*4D
162 13 33 01 4333.6674600128.74249140.0~ 00128.74249 140.0 1101011011 1100001010 1100100010 1111111110 10000101001 1100001000 1101000110 1101101010 1011101011 1101100010 1011001101 1011111100 10000000011 10000101111 1100100010 1100010001 1100000010 1011111101 23.313 42.939 1002.9 162632 17 -404 14 59 51 3 $GNGGA,133301.00,4333.66746,N,00128.74249,E,1,08,0.94,140.0,M,53.8,M,,*4A
163 13 33 02 4333.6672100128.74213139.1~ 00128.74213 139.1 1101011011 1100001000 1100100000 1111111100 10000101001 1100000110 1101000101 1101100111 1011100111 1101100010 1011001110 1011111110 10000001011 10000110001 1100011110 1100010001 1100000110 1011111100 23.313 42.946 1002.9 163632 16 -404 14 58 51 4 $GNGGA,133302.00,4333.66721,N,00128.74213,E,1,09,0.91,139.1,M,53.8,M,,*4C
164 13 33 03 4333.6668500128.74162138.5~ 00128.74162 138.5 1101011011 1100001010 1100100010 1111110000 10000100110 1100000100 1101001000 1101101011 1011110001 1101100010 1011001101 1011111100 10000010011 10000110011 1100100001 1100010011 1100000100 1100000010 23.313 42.946 1002.9 164632 17 -404 14 59 51 3 $GNGGA,133303.00,4333.66685,N,00128.74162,E,1,08,0.94,138.5,M,53.8,M,,*46
165 13 33 04 4333.6666500128.74111137.6~ 00128.74111 137.6 1101011011 1100001010 1100100110 1111110010 10000101010 1100000010 1101001010 1101101011 1011110001 1101100010 1011001011 1011111001 10000000111 10000110000 1100100001 1100001110 1100001001 1100001001 23.313 42.962 1002.9 165632 16 -405 15 58 51 3 $GNGGA,133304.00,4333.66665,N,00128.74111,E,1,09,0.91,137.6,M,53.8,M,,*43
166 13 33 05 4333.6664500128.74058136.7~ 00128.74058 136.7 1101011011 1100001011 1100100101 10000000001 10000101110 1100001001 1101001001 1101101001 1011110101 1101100010 1011001101 1011111111 10000001100 10000110010 1100100110 1100010001 1011111110 1011110111 23.313 42.985 1002.9 166632 17 -407 14 59 51 3 $GNGGA,133305.00,4333.66645,N,00128.74058,E,1,09,0.91,136.7,M,53.8,M,,*4C
167 13 33 06 4333.6662500128.74015135.7~ 00128.74015 135.7 1101011011 1100000111 1100100011 1111111010 10000101010 1100001001 1101001000 1101101000 1011110010 1101100010 1011001011 1011111101 10000001111 10000110000 1100100001 1100010111 1100000100 1100000000 23.313 43.000 1002.9 167632 16 -410 15 58 51 3 $GNGGA,133306.00,4333.66625,N,00128.74015,E,1,09,0.91,135.7,M,53.8,M,,*43
168 13 33 07 4333.6661800128.73959134.5~ 00128.73959 134.5 1101011011 1100001001 1100100000 1111110000 10000101001 1100001000 1101001010 1101101110 1011101011 1101100010 1011001101 1011111011 10000010011 10000110101 1100100001 1100001111 1100000101 1011111101 23.313 43.023 1002.9 168632 16 -409 14 58 52 3 $GNGGA,133307.00,4333.66618,N,00128.73959,E,1,09,0.91,134.5,M,53.8,M,,*49
169 13 33 08 4333.6660500128.73903133.3~ 00128.73903 133.3 1101011011 1100001000 1100100011 10000000010 10000101101 1100000011 1101000001 1101101100 1011100010 1101100010 1011001100 1011111010 10000001001 10000101111 1100100001 1100010100 1100001001 1100000001 23.313 43.030 1002.9 169632 16 -410 15 58 51 3 $GNGGA,133308.00,4333.66605,N,00128.73903,E,1,09,0.91,133.3,M,53.8,M,,*44
170 13 33 09 4333.6658200128.73852132.4~ 00128.73852 132.4 1101011011 1100001000 1100100010 1111110010 10000100111 1100000010 1101000011 1101101010 1011100111 1101100010 1011001110 1011111100 10000001100 10000110000 1100100000 1100010110 1100000100 1011111001 23.313 43.053 1002.9 170632 16 -410 14 58 52 3 $GNGGA,133309.00,4333.66582,N,00128.73852,E,1,09,0.91,132.4,M,53.8,M,,*4A
171 13 33 10 4333.6654800128.73793131.4~ 00128.73793 131.4 1101011011 1100001000 1100100000 10000000011 10000101101 1100000001 1101000101 1101101101 1011100110 1101100010 1011010011 1011111101 10000010010 10000110011 1100011111 1100010100 1011111111 1011111010 23.313 43.061 1002.9 171632 17 -411 14 59 51 3 $GNGGA,133310.00,4333.66548,N,00128.73793,E,1,09,0.91,131.4,M,53.8,M,,*45
172 13 33 11 4333.6655900128.73785130.6~ 00128.73785 130.6 1101011011 1100001010 1100100010 1111111000 10000101001 1100000110 1101001000 1101110000 1011100111 1101100010 1011001110 1011111101 10000010100 10000110101 1100100000 1100010111 1100000010 1011110100 23.313 43.084 1002.9 172632 16 -412 15 58 51 3 $GNGGA,133311.00,4333.66559,N,00128.73785,E,1,09,0.91,130.6,M,53.8,M,,*40
173 13 33 12 4333.6655500128.73748129.8~ 00128.73748 129.8 1101011011 1100001011 1100100001 1111111001 10000100110 1100000110 1101001000 1101100101 1011100000 1101100010 1011001101 1011111101 10000010011 10000110010 1100100000 1100010110 1100000100 1011111111 23.313 43.091 1002.9 173632 17 -414 14 59 51 3 $GNGGA,133312.00,4333.66555,N,00128.73748,E,1,09,0.91,129.8,M,53.8,M,,*48
174 13 33 13 4333.6655900128.73726129.0~ 00128.73726 129.0 1101011011 1100001100 1100100001 10000000010 10000101110 1100000100 1101000011 1101110000 1011100111 1101100010 1011010000 1011111111 10000010011 10000110010 1100011101 1100010000 1100000110 1011111111 23.313 43.084 1002.9 174632 16 -417 15 58 51 3 $GNGGA,133313.00,4333.66559,N,00128.73726,E,1,09,0.91,129.0,M,53.8,M,,*45
