id HH MM SS longitude latitude altitude adc_1_ch0 adc_1_ch1 adc_1_ch2 adc_1_ch3 adc_1_ch4 adc_1_ch5 adc_1_ch6 adc_1_ch7 adc_1_ch8 adc_2_ch0 adc_2_ch1 adc_2_ch2 adc_2_ch3 adc_2_ch4 adc_2_ch5 adc_2_ch6 adc_2_ch7 adc_2_ch8 temp hum pres t_prog t_gps t_split t_adc t_temp t_hum t_pres trame_gga
1 13 47 01 Nan Nan Nan 1101011011 100 1101011 100 1101001 100 1101100 111111111111 101101100101 1101100010 11 1101010 11 1101001 11 1101101 111111111111 111111111111 23.000 45.281 795.83 1618 15 -598 12 58 51 3 $GNGGA,134701.00,,,,,0,00,99.9,,,,,,*41
2 13 47 02 Nan Nan Nan 1101011011 100 1101011 100 1100011 100 1101100 111111111111 101001111010 1101100010 11 1101010 11 1101001 11 1101100 111111111111 111111111111 23.000 45.289 1002.9 2618 15 -599 11 59 51 3 $GNGGA,134702.00,,,,,0,00,99.9,,,,,,*42
3 13 47 03 Nan Nan Nan 1101011011 100 1101010 100 110000010 111111111111 111111111111 111111100100 100110011001 1101100010 11 1101010 11 1100110 111111111111 111111111111 111011001011 110111010001 23.000 45.289 1002.9 3618 17 -601 11 58 51 3 $GNGGA,134703.00,,,,,0,00,99.9,,,,,,*43
4 13 47 04 Nan Nan Nan 1101011011 100 1101000 100 1010000000 111111111111 111111111111 111010000000 100011011000 1101100010 11 1101001 11 1100011 111111111111 111111111111 110011000110 101110000110 23.000 45.289 1002.9 4618 16 -600 11 58 52 3 $GNGGA,134704.00,,,,,0,00,99.9,,,,,,*44
5 13 47 05 Nan Nan Nan 1101011011 100 1100101 100 1011111110 111111111111 111111111111 110101000110 100000110000 1101100010 11 1100110 11 100010001 111111111111 111111111111 101100011011 100110110010 23.000 45.281 1002.9 5618 17 -601 11 59 51 3 $GNGGA,134705.00,,,,,0,00,99.9,,,,,,*45
6 13 47 06 Nan Nan Nan 1101011011 100 1101001 110 1101000010 111111111111 111111111111 110000100101 11110010000 1101100010 1010011 1100011 11 111010101 111111111111 111111111111 100110111101 100001010001 23.000 45.289 1002.9 6618 16 -442 11 58 51 4 $GNGGA,134706.00,,,,,0,00,99.9,,,,,,*46
7 13 47 07 Nan Nan Nan 1101011011 1111001 11100100 10111110 1101101100 111111111111 111111111111 101100101100 11011111100 1101100010 11110011 1101110 11 1001011011 111111111111 111111111111 100010011101 11100101001 23.000 45.289 1002.9 7618 17 -602 11 59 51 3 $GNGGA,134707.00,,,,,0,00,99.9,,,,,,*47
8 13 47 08 Nan Nan Nan 1101011011 100000011 101100010 101011110 1110000111 111111111111 111111111111 101001001011 11010000000 1101100010 101011101 11011001 100111 1010110101 111111111111 111111111111 11110101110 11001010101 23.000 45.289 1002.9 8619 17 -601 12 58 51 3 $GNGGA,134708.00,,,,,0,00,99.9,,,,,,*48
9 13 47 09 Nan Nan Nan 1101011011 101101011 111000010 111010010 1110010000 111111111111 111111111111 100110010100 11000100000 1101100010 110100100 101000010 11100011 1011111000 111111111111 111111111111 11011101001 10110100100 23.000 45.289 1002.9 9619 18 -601 11 59 51 3 $GNGGA,134709.00,,,,,0,00,99.9,,,,,,*49
10 13 47 10 Nan Nan Nan 1101011100 110110111 1000000111 1000111000 1110100100 111111111111 111111111111 100011101000 10111000000 1101100001 111011010 110010110 101110001 1100100110 111111111111 111111111111 11001000110 10100011101 23.000 45.296 1002.9 10619 17 -606 12 58 51 3 $GNGGA,134710.00,,,,,0,00,99.9,,,,,,*41
11 13 47 11 Nan Nan Nan 1101011011 111110101 1000111111 1010010000 1110101100 111001101101 110100001100 100001001110 10101101010 1101100010 1000000000 111010000 111101101 1101001011 110000101001 110000111010 10110111110 10010110011 23.000 45.296 1002.9 11619 17 -603 11 58 52 3 $GNGGA,134711.00,,,,,0,00,99.9,,,,,,*40
12 13 47 12 Nan Nan Nan 1101011011 1000100100 1001100110 1011000111 1110110011 101100000101 101000101111 11111001011 10100100100 1101100010 1000011111 1000000101 1001000100 1101100111 100110111000 100110001011 10101001011 10001011110 23.000 45.304 1002.9 12619 18 -446 11 58 51 3 $GNGGA,134712.00,,,,,0,00,99.9,,,,,,*43
13 13 47 13 Nan Nan Nan 1101011011 1001000001 1010000000 1011110101 1110110110 100011101000 100001100101 11101010010 10011100011 1101100010 1000110000 1000101001 1010010000 1101111100 100000110001 11111011111 10011110010 10000010111 23.000 45.296 1002.9 13619 17 -606 11 58 52 3 $GNGGA,134713.00,,,,,0,00,99.9,,,,,,*42
14 13 47 14 Nan Nan Nan 1101011011 1001100000 1010011111 1100011010 1110111100 11110001100 11100111001 11011101011 10010101001 1101100010 1001000001 1001000100 1011001000 1110001100 11100011101 11010111100 10010101010 1111101101 23.000 45.296 1002.9 14619 18 -607 11 59 51 3 $GNGGA,134714.00,,,,,0,00,99.9,,,,,,*45
15 13 47 15 Nan Nan Nan 1101011011 1001110011 1010101111 1101000000 1110111110 11010011010 11001100110 11010001100 10001111000 1101100010 1001010000 1001011110 1100000100 1110011100 11001100011 10111111000 10001100101 1111000001 23.000 45.304 1002.9 15619 17 -610 12 58 51 3 $GNGGA,134715.00,,,,,0,00,99.9,,,,,,*44
16 13 47 16 Nan Nan Nan 1101011011 1010000101 1011000000 1101011111 1111000010 10111110000 10111011011 11000110111 10001010010 1101100001 1001010110 1001101010 1100101001 1110101000 10111100000 10101111000 10000100110 1110011011 23.000 45.296 1002.9 16619 18 -609 11 59 51 3 $GNGGA,134716.00,,,,,0,00,99.9,,,,,,*47
17 13 47 17 Nan Nan Nan 1101011011 1010010000 1011000110 1101111010 1111001001 10101111101 10101111000 10111100110 10000011110 1101100001 1001100110 1010000000 1101000111 1110110000 10110000011 10100011011 1111111110 1110000011 23.000 45.304 1002.9 17619 17 -612 12 58 51 3 $GNGGA,134717.00,,,,,0,00,99.9,,,,,,*46
18 13 47 18 Nan Nan Nan 1101011011 1010011111 1011011001 1110000111 1111001100 10100011110 10100011011 10110101011 10000000011 1101100010 1001110001 1010001011 1101100011 1110111011 10100111000 10011001111 1111011011 1101110100 23.000 45.304 1002.9 18619 16 -608 11 59 51 3 $GNGGA,134718.00,,,,,0,00,2.47,,,,,,*41
19 13 47 19 Nan Nan Nan 1101011011 1010100100 1011011011 1110010101 1111001110 10011011111 10011101100 10101110111 1111100111 1101100010 1001110100 1010010101 1101111101 1111000100 10011111010 10010010110 1110111000 1101011000 23.000 45.304 1002.9 19619 16 -605 12 58 51 3 $GNGGA,134719.00,,,,,0,00,2.47,,,,,,*40
20 13 47 20 Nan Nan Nan 1101011011 1010101100 1011100000 1110100001 1111010010 10010101010 10010111111 10101000111 1111001110 1101100010 1001111001 1010011011 1110001100 1111001001 10011001000 10001101100 1110100010 1101010000 23.000 45.304 1002.9 20619 16 -608 11 58 52 3 $GNGGA,134720.00,,,,,0,00,2.47,,,,,,*4A
21 13 47 21 Nan Nan Nan 1101011011 1010110110 1011101110 1110101101 1111010111 10001111001 10010010010 10100010011 1110110001 1101100001 1010000001 1010100101 1110010110 1111001101 10010100000 10001001011 1110001101 1101001001 23.000 45.311 1002.9 21619 17 -609 11 59 51 3 $GNGGA,134721.00,,,,,0,00,2.47,,,,,,*4B
22 13 47 22 Nan Nan Nan 1101011011 1010111000 1011101110 1110110110 1111011011 10001011110 10001111110 10011110010 1110101000 1101100001 1010000110 1010110001 1110101001 1111010110 10010000010 10000101101 1101111101 1100111110 23.000 45.311 1002.9 22619 16 -596 11 58 51 4 $GNGGA,134722.00,,,,,0,00,1.45,,,,,,*49
23 13 47 23 4333.6773000128.75492177.0~ 00128.75492 177.0 1101011011 1010111111 1011110011 1110111011 1111011001 10000111110 10001011110 10011010000 1110100001 1101100010 1010001101 1010110000 1110110101 1111011011 10001100001 10000001111 1101101011 1100101111 23.000 45.311 1002.9 23619 18 -599 14 59 51 3 $GNGGA,134723.00,4333.67730,N,00128.75492,E,1,05,1.45,177.0,M,53.8,M,,*4C
24 13 47 24 4333.6788700128.75220169.3~ 00128.75220 169.3 1101011011 1011000000 1011110110 1111001001 1111100010 10000011101 10001000011 10010011110 1101110011 1101100010 1010010000 1010110110 1110111011 1111100001 10001001000 1111110111 1101010111 1100100101 23.000 45.311 1002.9 24619 17 -601 15 58 51 3 $GNGGA,134724.00,4333.67887,N,00128.75220,E,1,05,1.45,169.3,M,53.8,M,,*4B
25 13 47 25 4333.6807400128.74995163.7~ 00128.74995 163.7 1101011011 1011001000 1011111100 1111001100 1111011111 10000001101 10000111000 10010000101 1101101110 1101100010 1010010001 1010111100 1111000010 1111100011 10000110110 1111101000 1101011000 1100100110 23.000 45.319 1002.9 25619 18 -601 14 59 51 3 $GNGGA,134725.00,4333.68074,N,00128.74995,E,1,05,1.45,163.7,M,53.8,M,,*4B
26 13 47 26 4333.6819800128.74848158.4~ 00128.74848 158.4 1101011011 1011001001 1011111010 1111010011 1111100100 1111111000 10000100100 10001101110 1101101010 1101100010 1010010000 1010111110 1111001010 1111100111 10000011111 1111011001 1101001100 1100100110 23.000 45.319 1002.9 26619 16 -602 15 58 51 3 $GNGGA,134726.00,4333.68198,N,00128.74848,E,1,05,1.45,158.4,M,53.8,M,,*41
27 13 47 27 4333.6833800128.74684152.8~ 00128.74684 152.8 1101011100 1011001010 1011111011 1111010001 1111011111 1111101001 10000010100 10001011011 1101011011 1101100010 1010010110 1011000000 1111010110 1111101011 10000001100 1111001101 1101001100 1100100111 23.000 45.327 1002.9 27619 17 -603 14 58 52 3 $GNGGA,134727.00,4333.68338,N,00128.74684,E,1,06,1.26,152.8,M,53.8,M,,*46
28 13 47 28 4333.6849200128.74595148.9~ 00128.74595 148.9 1101011011 1011010000 1100000001 1111010101 1111100111 1111010000 10000000000 10001001111 1101010001 1101100010 1010010111 1011000001 1111010110 1111101011 1111111111 1111000000 1100111110 1100011111 23.000 45.327 1002.9 28619 16 -606 15 58 51 3 $GNGGA,134728.00,4333.68492,N,00128.74595,E,1,06,1.26,148.9,M,53.8,M,,*47
29 13 47 29 4333.6860600128.74493145.6~ 00128.74493 145.6 1101011011 1011010010 1100000100 1111011001 1111100101 1111001000 1111111001 10000111100 1101000111 1101100001 1010011011 1011000111 1111011100 1111110000 1111110001 1110110101 1100111000 1100100100 23.000 45.327 1002.9 29619 16 -607 14 58 52 3 $GNGGA,134729.00,4333.68606,N,00128.74493,E,1,06,1.26,145.6,M,53.8,M,,*4C
30 13 47 30 4333.6862600128.74676140.7~ 00128.74676 140.7 1101011011 1011010000 1100000100 1111011001 1111101000 1110111111 1111101110 10000100001 1101000010 1101100010 1010011100 1011000111 1111011011 1111110011 1111100101 1110101010 1100110011 1100011001 23.000 45.319 1002.9 30619 17 -605 14 59 51 3 $GNGGA,134730.00,4333.68626,N,00128.74676,E,1,07,1.11,140.7,M,53.8,M,,*4E
31 13 47 31 4333.6860000128.74860137.2~ 00128.74860 137.2 1101011011 1011010010 1100000100 1111100011 1111101011 1110110001 1111100100 10000010100 1100110000 1101100010 1010011111 1011001100 1111100011 1111110010 1111010101 1110011111 1100111100 1100100000 23.000 45.327 1002.9 31619 16 -607 15 58 51 3 $GNGGA,134731.00,4333.68600,N,00128.74860,E,1,07,1.11,137.2,M,53.8,M,,*47
32 13 47 32 4333.6856100128.75022134.7~ 00128.75022 134.7 1101011011 1011011000 1100000111 1111100110 1111101110 1110101010 1111011100 10000000111 1100100111 1101100010 1010011111 1011001110 1111100100 1111110111 1111001111 1110010101 1100101011 1100010100 23.000 45.327 1002.9 32619 17 -607 14 59 51 3 $GNGGA,134732.00,4333.68561,N,00128.75022,E,1,07,1.11,134.7,M,53.8,M,,*49
33 13 47 33 4333.6856300128.75087132.7~ 00128.75087 132.7 1101011011 1011011001 1100001010 1111101010 1111101111 1110100011 1111011000 1111111000 1100100110 1101100001 1010100100 1011010001 1111011110 1111111000 1110111101 1110010000 1100110010 1100011111 23.000 45.327 1002.9 33619 16 -607 15 58 51 3 $GNGGA,134733.00,4333.68563,N,00128.75087,E,1,07,1.11,132.7,M,53.8,M,,*43
34 13 47 34 4333.6860100128.75051131.0~ 00128.75051 131.0 1101011011 1011011110 1100001100 1111101100 1111110011 1110011010 1111010010 1111101000 1100011000 1101100001 1010100111 1011010011 1111100011 1111111011 1110110110 1110001011 1100100111 1100010000 23.000 45.327 1002.9 34619 17 -609 14 59 51 3 $GNGGA,134734.00,4333.68601,N,00128.75051,E,1,06,1.26,131.0,M,53.8,M,,*49
35 13 47 35 4333.6861400128.74950129.1~ 00128.74950 129.1 1101011011 1011011110 1100001010 1111101100 1111110100 1110010000 1111001100 1111011100 1100010010 1101100010 1010100110 1011010110 1111100101 1111111011 1110101100 1101111100 1100100101 1100010010 23.000 45.327 1002.9 35619 16 -610 15 58 51 3 $GNGGA,134735.00,4333.68614,N,00128.74950,E,1,06,1.26,129.1,M,53.8,M,,*4D
36 13 47 36 4333.6860200128.74850128.1~ 00128.74850 128.1 1101011011 1011011010 1100001010 1111101000 1111110010 1110000100 1110111011 1111001111 1100010011 1101100001 1010100111 1011010110 1111101110 1111111111 1110100011 1101111010 1100011111 1100010011 23.000 45.334 1002.9 36619 16 -610 14 58 52 3 $GNGGA,134736.00,4333.68602,N,00128.74850,E,1,06,1.26,128.1,M,53.8,M,,*49
37 13 47 37 4333.6860500128.74812127.6~ 00128.74812 127.6 1101011100 1011100000 1100001101 1111101111 1111110100 1110000011 1110111001 1111010000 1100011101 1101100010 1010101011 1011011000 1111110101 10000000010 1110100000 1101110110 1100100000 1100011000 23.000 45.334 1002.9 37619 17 -611 14 59 51 3 $GNGGA,134737.00,4333.68605,N,00128.74812,E,1,06,1.26,127.6,M,53.8,M,,*41
38 13 47 38 4333.6860900128.74840127.8~ 00128.74840 127.8 1101011011 1011011101 1100001011 1111101101 1111110011 1101111010 1110111000 1111000101 1100001111 1101100010 1010101011 1011011100 1111110110 10000000111 1110100000 1101110011 1100100000 1100001111 23.000 45.334 1002.9 38619 16 -613 14 58 51 4 $GNGGA,134738.00,4333.68609,N,00128.74840,E,1,07,1.11,127.8,M,53.8,M,,*4E
39 13 47 39 4333.6859400128.74796127.8~ 00128.74796 127.8 1101011011 1011100011 1100010001 1111101111 1111110110 1101110001 1110101011 1111000000 1100001100 1101100010 1010101010 1011011010 1111110011 10000000010 1110010110 1101110000 1100011011 1100010100 23.000 45.334 1002.9 39619 17 -614 14 59 51 3 $GNGGA,134739.00,4333.68594,N,00128.74796,E,1,07,1.11,127.8,M,53.8,M,,*4C
40 13 47 40 4333.6859400128.74819128.0~ 00128.74819 128.0 1101011100 1011100100 1100001111 1111101000 1111110101 1101101100 1110100011 1111000000 1100010011 1101100010 1010101010 1011011000 1111110100 10000000110 1110010011 1101110001 1100011111 1100010111 23.000 45.334 1002.9 40619 16 -612 15 58 51 3 $GNGGA,134740.00,4333.68594,N,00128.74819,E,1,07,1.11,128.0,M,53.8,M,,*4D
41 13 47 41 4333.6857200128.74834127.1~ 00128.74834 127.1 1101011011 1011100001 1100001100 1111100111 1111111000 1101101000 1110101000 1110110111 1100001111 1101100010 1010110001 1011011110 1111110011 10000000100 1110001010 1101101000 1100010110 1100001000 22.938 45.342 1002.9 41619 17 -613 14 59 51 3 $GNGGA,134741.00,4333.68572,N,00128.74834,E,1,07,1.11,127.1,M,53.8,M,,*45
42 13 47 42 4333.6857100128.74813126.2~ 00128.74813 126.2 1101011011 1011100101 1100010000 1111101111 1111111010 1101100010 1110011010 1110110000 1100010010 1101100010 1010110000 1011011101 1111110101 10000001000 1110000111 1101100011 1100010001 1100001110 23.000 45.342 1002.9 42619 16 -615 15 58 51 3 $GNGGA,134742.00,4333.68571,N,00128.74813,E,1,07,1.11,126.2,M,53.8,M,,*42
43 13 47 43 4333.6852500128.74753127.0~ 00128.74753 127.0 1101011011 1011100110 1100001111 1111110001 1111111100 1101011101 1110010101 1110110001 1100001101 1101100010 1010110000 1011011111 1111110101 10000001010 1110000010 1101100000 1100010010 1100001100 22.938 45.342 1002.9 43619 16 -616 14 58 52 3 $GNGGA,134743.00,4333.68525,N,00128.74753,E,1,07,1.11,127.0,M,53.8,M,,*4A
44 13 47 44 4333.6854100128.74697127.7~ 00128.74697 127.7 1101011011 1011101001 1100010100 1111101010 1111111011 1101011110 1110010111 1110110101 1100011010 1101100010 1010101111 1011100000 1111111001 10000001010 1101111111 1101100010 1100010100 1100001111 23.000 45.334 1002.9 44619 16 -618 15 58 51 3 $GNGGA,134744.00,4333.68541,N,00128.74697,E,1,07,1.11,127.7,M,53.8,M,,*41
45 13 47 45 4333.6859000128.74532127.5~ 00128.74532 127.5 1101011011 1011101000 1100010010 1111110001 1111111011 1101010010 1110010001 1110110001 1100001000 1101100010 1010110110 1011100010 1111110101 10000001010 1101110110 1101010111 1100011101 1100010001 23.000 45.350 1002.9 45619 16 -618 14 58 52 3 $GNGGA,134745.00,4333.68590,N,00128.74532,E,1,08,0.96,127.5,M,53.8,M,,*43
46 13 47 46 4333.6860600128.74462128.2~ 00128.74462 128.2 1101011011 1011101000 1100010010 1111110101 10000000001 1101011000 1110010001 1110100111 1100001011 1101100010 1010110000 1011011111 10000000010 10000001101 1101110100 1101010011 1100011011 1100001111 23.000 45.350 1002.9 46619 17 -620 14 59 51 3 $GNGGA,134746.00,4333.68606,N,00128.74462,E,1,08,0.96,128.2,M,53.8,M,,*40
47 13 47 47 4333.6860100128.74363128.2~ 00128.74363 128.2 1101011011 1011101000 1100010011 1111110100 10000000000 1101010011 1110010011 1110011101 1011111101 1101100010 1010110011 1011100011 1111110110 10000001101 1101110001 1101010011 1100011100 1100010000 23.000 45.350 1002.8 47619 16 -620 15 58 51 3 $GNGGA,134747.00,4333.68601,N,00128.74363,E,1,07,1.11,128.2,M,53.8,M,,*41
48 13 47 48 4333.6864100128.74330128.3~ 00128.74330 128.3 1101011100 1011101010 1100010100 1111110101 10000000001 1101010101 1110010110 1110011100 1100000000 1101100010 1010110101 1011100010 1111111101 10000010000 1101101001 1101010000 1100011010 1100010010 22.938 45.350 1002.9 48619 17 -621 14 59 51 3 $GNGGA,134748.00,4333.68641,N,00128.74330,E,1,08,0.96,128.3,M,53.8,M,,*4C
49 13 47 49 4333.6863400128.74270127.6~ 00128.74270 127.6 1101011011 1011101101 1100010010 1111111010 10000000000 1101001111 1110001110 1110100010 1100001101 1101100010 1010111000 1011100111 1111111011 10000001110 1101101001 1101010000 1100010101 1100001000 23.000 45.350 1002.9 49619 16 -622 15 58 51 3 $GNGGA,134749.00,4333.68634,N,00128.74270,E,1,08,0.96,127.6,M,53.8,M,,*40
50 13 47 50 4333.6865200128.74259127.7~ 00128.74259 127.7 1101011011 1011101101 1100010101 1111110111 10000000100 1101001000 1110001011 1110100000 1100000111 1101100010 1010110101 1011100110 1111111101 10000010001 1101100010 1101001001 1100010011 1100000111 22.938 45.357 1002.9 50619 17 -626 14 59 51 3 $GNGGA,134750.00,4333.68652,N,00128.74259,E,1,07,1.22,127.7,M,53.8,M,,*43
51 13 47 51 4333.6867400128.74204127.9~ 00128.74204 127.9 1101011011 1011101011 1100010100 1111110101 10000000100 1101000010 1101110101 1110011110 1100000001 1101100010 1010111001 1011100111 10000000100 10000010011 1101100100 1101001100 1100010001 1100001010 23.000 45.350 1002.9 51619 16 -624 15 58 51 3 $GNGGA,134751.00,4333.68674,N,00128.74204,E,1,07,1.22,127.9,M,53.8,M,,*40
52 13 47 52 4333.6866000128.74173128.4~ 00128.74173 128.4 1101011011 1011110001 1100011001 1111110000 10000000010 1101000111 1110000110 1110010101 1011111111 1101100010 1010111001 1011100111 1111111110 10000010000 1101100001 1101001010 1100010000 1100000100 22.938 45.357 1002.9 52619 16 -625 14 58 52 3 $GNGGA,134752.00,4333.68660,N,00128.74173,E,1,07,1.22,128.4,M,53.8,M,,*47
53 13 47 53 4333.6865800128.74177129.4~ 00128.74177 129.4 1101011011 1011101110 1100010100 1111110011 10000000101 1101000101 1110000111 1110011011 1100001000 1101100010 1010110110 1011101000 10000000011 10000010010 1101011101 1101000111 1100011001 1100010010 23.000 45.357 1002.9 53619 17 -626 14 59 51 3 $GNGGA,134753.00,4333.68658,N,00128.74177,E,1,08,0.96,129.4,M,53.8,M,,*49
54 13 47 54 4333.6863600128.74147131.3~ 00128.74147 131.3 1101011011 1011110000 1100010110 1111110110 10000000110 1101000010 1101111110 1110001110 1011111111 1101100010 1010111000 1011101000 10000000011 10000010101 1101011110 1101000100 1100010000 1100000110 23.000 45.357 1002.9 54619 16 -625 14 58 51 4 $GNGGA,134754.00,4333.68636,N,00128.74147,E,1,08,0.96,131.3,M,53.8,M,,*4B
55 13 47 55 4333.6859100128.74188133.4~ 00128.74188 133.4 1101011011 1011101101 1100010110 1111110111 10000000101 1101000001 1110000000 1110010000 1100000010 1101100010 1010111100 1011101011 10000000101 10000010100 1101010111 1101000001 1100001111 1100000101 22.938 45.365 1002.9 55619 17 -627 14 59 51 3 $GNGGA,134755.00,4333.68591,N,00128.74188,E,1,08,0.96,133.4,M,53.8,M,,*42
56 13 47 56 4333.6859500128.74196134.2~ 00128.74196 134.2 1101011011 1011110010 1100010101 1111101111 10000000101 1100111101 1101111010 1110010001 1100001001 1101100010 1010111010 1011100111 1111111101 10000010011 1101011000 1101000001 1100001010 1100000001 22.938 45.357 1002.9 56619 16 -627 15 58 51 3 $GNGGA,134756.00,4333.68595,N,00128.74196,E,1,08,0.96,134.2,M,53.8,M,,*4B
57 13 47 57 4333.6856100128.74149134.6~ 00128.74149 134.6 1101011011 1011110001 1100011000 1111110101 10000000111 1100111100 1101111110 1110000111 1011110101 1101100010 1010111001 1011101000 10000000000 10000010011 1101010010 1100111111 1100001111 1100000110 23.000 45.357 1002.9 57619 17 -631 14 59 51 3 $GNGGA,134757.00,4333.68561,N,00128.74149,E,1,08,0.96,134.6,M,53.8,M,,*47
58 13 47 58 4333.6855500128.74132134.7~ 00128.74132 134.7 1101011011 1011110110 1100011110 1111110111 10000000111 1100110101 1101110101 1110010000 1011111001 1101100010 1010111010 1011101011 10000000011 10000010110 1101010011 1101000000 1100001001 1100001000 23.000 45.365 1002.9 58619 16 -629 15 58 51 3 $GNGGA,134758.00,4333.68555,N,00128.74132,E,1,08,0.96,134.7,M,53.8,M,,*42
59 13 47 59 4333.6860400128.74160134.1~ 00128.74160 134.1 1101011011 1011110011 1100010101 1111110110 10000001101 1100110111 1101110111 1110001100 1011111111 1101100010 1010111010 1011101100 10000000111 10000010101 1101010100 1101000000 1100010010 1100000100 23.000 45.365 1002.9 59619 16 -631 14 58 52 3 $GNGGA,134759.00,4333.68604,N,00128.74160,E,1,07,1.12,134.1,M,53.8,M,,*47
60 13 48 00 4333.6858800128.74191135.3~ 00128.74191 135.3 1101011011 1011110001 1100010111 1111111010 10000001011 1100111110 1101111110 1110001100 1011111101 1101100010 1010111011 1011101010 10000000000 10000010101 1101001110 1100111101 1100001011 1100000110 23.000 45.365 1002.9 60619 16 -628 15 58 51 3 $GNGGA,134800.00,4333.68588,N,00128.74191,E,1,07,1.12,135.3,M,53.8,M,,*4E
61 13 48 01 4333.6859200128.74142135.4~ 00128.74142 135.4 1101011011 1011110010 1100011000 1111111010 10000001101 1100110101 1101110011 1110001111 1011111010 1101100010 1010111101 1011101011 10000000110 10000011000 1101010001 1101000000 1100010011 1100001011 23.000 45.373 1002.9 61619 16 -632 14 58 52 3 $GNGGA,134801.00,4333.68592,N,00128.74142,E,1,07,1.12,135.4,M,53.8,M,,*4D
62 13 48 02 4333.6868900128.74082131.7~ 00128.74082 131.7 1101011011 1011110111 1100011001 1111111111 10000001100 1100110101 1101110101 1110001100 1011111110 1101100010 1010111001 1011101011 10000000011 10000011000 1101010000 1100111110 1100001110 1100001000 22.938 45.373 1002.9 62619 17 -634 14 59 51 3 $GNGGA,134802.00,4333.68689,N,00128.74082,E,1,08,1.04,131.7,M,53.8,M,,*45
63 13 48 03 4333.6875100128.73948127.4~ 00128.73948 127.4 1101011011 1011110100 1100011001 1111111010 10000010000 1100110000 1101110111 1110001110 1011110111 1101100010 1010111101 1011101100 1111111111 10000010110 1101001100 1100111011 1100001110 1100001001 22.938 45.365 1002.9 63619 17 -633 15 58 51 3 $GNGGA,134803.00,4333.68751,N,00128.73948,E,1,08,1.04,127.4,M,53.8,M,,*4C
64 13 48 04 4333.6884600128.73903124.0~ 00128.73903 124.0 1101011011 1011111001 1100011010 1111111000 10000001110 1100101110 1101101101 1110001100 1011110100 1101100001 1010111110 1011101101 10000000110 10000011000 1101001100 1100111000 1100010001 1100000110 23.000 45.373 1002.9 64619 17 -635 14 59 51 3 $GNGGA,134804.00,4333.68846,N,00128.73903,E,1,08,1.04,124.0,M,53.8,M,,*4A
65 13 48 05 4333.6889000128.73898122.1~ 00128.73898 122.1 1101011011 1011110101 1100011000 1111111010 10000001110 1100101100 1101101110 1110001010 1011110111 1101100010 1011000010 1011101110 10000000011 10000011000 1101001101 1100110111 1100001101 1100000001 23.000 45.373 1002.9 65619 16 -637 15 58 51 3 $GNGGA,134805.00,4333.68890,N,00128.73898,E,1,07,1.19,122.1,M,53.8,M,,*47
66 13 48 06 4333.6899000128.73941120.2~ 00128.73941 120.2 1101011011 1011111001 1100011011 1111111101 10000001111 1100101101 1101101101 1110000101 1011111101 1101100010 1011000000 1011101111 10000001001 10000011100 1101001000 1100110100 1100001111 1100000111 23.000 45.380 1002.9 66619 17 -635 14 59 51 3 $GNGGA,134806.00,4333.68990,N,00128.73941,E,1,08,1.04,120.2,M,53.8,M,,*42
67 13 48 07 4333.6904100128.73924118.1~ 00128.73924 118.1 1101011100 1011110111 1100011110 1111111111 10000010011 1100101100 1101101011 1110001011 1011111100 1101100010 1011000010 1011101101 10000000111 10000011000 1101000111 1100110111 1100010101 1100001011 22.938 45.380 1002.9 67619 16 -637 15 58 51 3 $GNGGA,134807.00,4333.69041,N,00128.73924,E,1,08,1.04,118.1,M,53.8,M,,*4C
68 13 48 08 4333.6907100128.73870116.2~ 00128.73870 116.2 1101011011 1011110110 1100011001 1111111001 10000010010 1100101100 1101101100 1110001110 1011111111 1101100010 1010111110 1011101101 10000000110 10000011010 1101000101 1100110100 1100010101 1100001000 22.938 45.380 1002.9 68619 16 -640 14 58 52 3 $GNGGA,134808.00,4333.69071,N,00128.73870,E,1,08,1.04,116.2,M,53.8,M,,*4D
69 13 48 09 4333.6911500128.73871114.4~ 00128.73871 114.4 1101011011 1011111000 1100011010 1111111111 10000010001 1100101101 1101101011 1110001100 1011111001 1101100010 1011000001 1011101111 10000000100 10000011100 1101000100 1100110100 1100010010 1100000111 22.938 45.380 1002.9 69619 17 -640 14 59 51 3 $GNGGA,134809.00,4333.69115,N,00128.73871,E,1,07,1.19,114.4,M,53.8,M,,*49
70 13 48 10 4333.6919100128.73828112.8~ 00128.73828 112.8 1101011011 1011111001 1100011101 1111111110 10000010010 1100101001 1101101101 1110001001 1011111111 1101100010 1010111111 1011101110 10000001000 10000011100 1100111111 1100101101 1100001110 1100001000 22.938 45.388 1002.9 70619 16 -640 14 58 51 4 $GNGGA,134810.00,4333.69191,N,00128.73828,E,1,07,1.19,112.8,M,53.8,M,,*4B
71 13 48 11 4333.6919000128.73720112.7~ 00128.73720 112.7 1101011011 1011111100 1100011111 1111111100 10000010010 1100101001 1101110000 1110010000 1011111010 1101100010 1011000010 1011110001 10000001000 10000011100 1100111111 1100101111 1100010000 1100001010 22.938 45.380 1002.9 71619 17 -642 14 59 51 3 $GNGGA,134811.00,4333.69190,N,00128.73720,E,1,07,1.19,112.7,M,53.8,M,,*43
72 13 48 12 4333.6921900128.73632111.5~ 00128.73632 111.5 1101011011 1011110111 1100011010 10000000101 10000010101 1100101100 1101101011 1110000100 1011110011 1101100010 1011000010 1011101101 10000001011 10000011101 1100111101 1100101110 1100010100 1100000101 22.938 45.380 1002.9 72619 16 -642 15 58 51 3 $GNGGA,134812.00,4333.69219,N,00128.73632,E,1,08,1.04,111.5,M,53.8,M,,*42
73 13 48 13 4333.6928500128.73535109.5~ 00128.73535 109.5 1101011011 1011111000 1100011001 10000000011 10000010100 1100100111 1101100101 1110000101 1011110101 1101100001 1011000001 1011110001 10000000101 10000011100 1100111011 1100101110 1100001110 1100000000 22.938 45.388 1002.9 73619 17 -641 14 59 51 3 $GNGGA,134813.00,4333.69285,N,00128.73535,E,1,08,1.04,109.5,M,53.8,M,,*4B
74 13 48 14 4333.6937200128.73363108.0~ 00128.73363 108.0 1101011011 1011111101 1100011011 1111111101 10000010100 1100100101 1101101100 1110001101 1011111100 1101100010 1011000001 1011101111 10000001100 10000011110 1100111101 1100101011 1100001111 1100000001 22.938 45.388 1002.9 74619 17 -644 14 58 51 4 $GNGGA,134814.00,4333.69372,N,00128.73363,E,1,08,1.04,108.0,M,53.8,M,,*44
75 13 48 15 4333.6941300128.73346106.3~ 00128.73346 106.3 1101011011 1011110111 1100010110 1111111110 10000010101 1100100111 1101101010 1110001110 1011111100 1101100010 1011000001 1011101111 10000000011 10000011100 1100111100 1100101101 1100001011 1100000110 22.938 45.388 1002.9 75619 17 -645 13 58 52 4 $GNGGA,134815.00,4333.69413,N,00128.73346,E,1,08,1.04,106.3,M,53.8,M,,*4F
76 13 48 16 4333.6940200128.73271104.6~ 00128.73271 104.6 1101011011 1011111101 1100011101 10000000001 10000011000 1100100111 1101101000 1110000010 1011101011 1101100000 1011000011 1011110010 10000000110 10000011100 1100110010 1100100011 1100001111 1100001000 22.938 45.388 1002.9 76619 16 -645 15 58 51 3 $GNGGA,134816.00,4333.69402,N,00128.73271,E,1,08,1.04,104.6,M,53.8,M,,*4E
77 13 48 17 4333.6943800128.73183102.9~ 00128.73183 102.9 1101011011 1011111000 1100011000 1111111000 10000010011 1100100011 1101101011 1110001001 1011111111 1101100010 1011000001 1011110010 10000010010 10000011111 1100111011 1100101111 1100001100 1100001010 22.938 45.395 1002.8 77619 17 -648 14 58 52 3 $GNGGA,134817.00,4333.69438,N,00128.73183,E,1,08,1.04,102.9,M,53.8,M,,*41
78 13 48 18 4333.6947000128.73169101.4~ 00128.73169 101.4 1101011011 1011111010 1100011011 10000000011 10000010110 1100011101 1101011101 1110000110 1011111010 1101100001 1011000001 1011110001 10000001110 10000100000 1100111001 1100101000 1100001110 1100000110 22.938 45.395 1002.9 78619 18 -647 14 59 51 3 $GNGGA,134818.00,4333.69470,N,00128.73169,E,1,08,1.04,101.4,M,53.8,M,,*48
79 13 48 19 4333.6949300128.73131100.0~ 00128.73131 100.0 1101011011 1011111101 1100011011 1111111100 10000010101 1100011101 1101011100 1110000111 1011111100 1101100010 1011000101 1011110011 10000001010 10000011111 1100111001 1100101010 1100010001 1100001010 22.938 45.403 1002.8 79619 16 -651 15 58 51 3 $GNGGA,134819.00,4333.69493,N,00128.73131,E,1,08,1.04,100.0,M,53.8,M,,*4C
80 13 48 20 4333.6956800128.7305798.5 00128.73057 98.5  1101011011 1011111011 1100011101 1111111100 10000011001 1100100000 1101100010 1110000010 1011110110 1101100010 1011000011 1011110100 10000001101 10000100000 1100110000 1100101000 1100001011 1100000011 22.938 45.395 1002.8 80619 17 -648 14 59 51 3 $GNGGA,134820.00,4333.69568,N,00128.73057,E,1,08,1.04,98.5,M,53.8,M,,*77
81 13 48 21 4333.6960400128.7299498.1 00128.72994 98.1  1101011011 1011111111 1100011111 1111111101 10000010110 1100010111 1101011000 1110000100 1011111010 1101100010 1011000001 1011101111 10000010000 10000100001 1100111111 1100101111 1100001011 1011111100 22.938 45.395 1002.8 81619 16 -651 15 58 51 3 $GNGGA,134821.00,4333.69604,N,00128.72994,E,1,08,1.04,98.1,M,53.8,M,,*7C
82 13 48 22 4333.6962600128.7300896.8 00128.73008 96.8  1101011011 1011111110 1100011011 10000000000 10000011011 1100011100 1101011111 1110000111 1011111001 1101100010 1011000011 1011110000 10000001011 10000100001 1100110101 1100100101 1100001001 1100000101 22.938 45.395 1002.9 82619 17 -651 14 59 51 3 $GNGGA,134822.00,4333.69626,N,00128.73008,E,1,08,1.04,96.8,M,53.8,M,,*75
83 13 48 23 4333.6970900128.7300394.5 00128.73003 94.5  1101011100 1011111111 1100011111 10000000010 10000011000 1100011101 1101100001 1110001000 1011111100 1101100010 1011000111 1011110100 10000000110 10000100001 1100110100 1100100111 1100001011 1100001000 22.938 45.403 1002.8 83619 16 -654 15 58 51 3 $GNGGA,134823.00,4333.69709,N,00128.73003,E,1,07,1.11,94.5,M,53.8,M,,*77
84 13 48 24 4333.6974300128.7299092.2 00128.72990 92.2  1101011011 1011111011 1100011010 10000000001 10000010111 1100011111 1101100011 1110000100 1011111010 1101100010 1011000011 1011110001 10000001001 10000011111 1100110011 1100100100 1100001100 1100000011 22.938 45.403 1002.8 84619 16 -654 14 58 52 3 $GNGGA,134824.00,4333.69743,N,00128.72990,E,1,06,1.28,92.2,M,53.8,M,,*76
85 13 48 25 4333.6985900128.7302589.8 00128.73025 89.8  1101011011 1011111101 1100011101 1111111001 10000010111 1100011111 1101011101 1101111111 1011110100 1101100010 1011000110 1011110011 10000001100 10000100001 1100111001 1100101001 1100000101 1100000001 22.938 45.411 1002.9 85619 17 -655 14 59 51 3 $GNGGA,134825.00,4333.69859,N,00128.73025,E,1,06,1.28,89.8,M,53.8,M,,*75
86 13 48 26 4333.6995700128.7288388.7 00128.72883 88.7  1101011100 1011111010 1100011001 10000000010 10000011011 1100011100 1101100000 1101111110 1011110001 1101100010 1011000011 1011110100 10000001011 10000100010 1100110101 1100100110 1100001001 1011111101 22.938 45.403 1002.9 86619 16 -658 14 58 51 4 $GNGGA,134826.00,4333.69957,N,00128.72883,E,1,07,1.11,88.7,M,53.8,M,,*79
87 13 48 27 4333.7002800128.7269287.7 00128.72692 87.7  1101011011 1100000000 1100011111 1111111110 10000011011 1100011001 1101011101 1110000001 1011110010 1101100010 1011000111 1011110011 10000001001 10000100001 1100110011 1100100100 1100001110 1100001100 22.938 45.403 1002.8 87619 17 -656 14 59 51 3 $GNGGA,134827.00,4333.70028,N,00128.72692,E,1,07,1.11,87.7,M,53.8,M,,*70
88 13 48 28 4333.7009600128.7258286.2 00128.72582 86.2  1101011100 1011111100 1100011011 1111111010 10000011011 1100011110 1101100100 1101111011 1011101101 1101100010 1011000111 1011110100 10000001100 10000100001 1100110001 1100011111 1100001100 1100000100 22.938 45.411 1002.8 88619 16 -657 15 58 51 3 $GNGGA,134828.00,4333.70096,N,00128.72582,E,1,07,1.11,86.2,M,53.8,M,,*7C
89 13 48 29 4333.7009100128.7247685.1 00128.72476 85.1  1101011011 1011111110 1100011100 1111111110 10000010111 1100011011 1101100010 1101111100 1011101111 1101100010 1011001011 1011111000 10000000110 10000011101 1100110101 1100101001 1100001000 1011111010 22.938 45.411 1002.9 89619 17 -658 14 59 51 3 $GNGGA,134829.00,4333.70091,N,00128.72476,E,1,07,1.11,85.1,M,53.8,M,,*70
90 13 48 30 4333.7011800128.7239084.2 00128.72390 84.2  1101011011 1011111101 1100011111 10000000010 10000011010 1100010010 1101010110 1110000001 1011110111 1101100010 1011000011 1011110000 10000001001 10000100010 1100110100 1100100101 1100000111 1100000001 22.938 45.403 1002.9 90619 16 -661 15 58 51 3 $GNGGA,134830.00,4333.70118,N,00128.72390,E,1,07,1.11,84.2,M,53.8,M,,*75
91 13 48 31 4333.7018700128.7229383.4 00128.72293 83.4  1101011110 1011111101 1100011110 10000000010 10000011011 1100011010 1101011111 1110000000 1011111001 1101100010 1011001000 1011110100 10000001111 10000100100 1100110011 1100100111 1100001100 1100000110 22.938 45.418 1002.9 91619 16 -661 14 58 52 3 $GNGGA,134831.00,4333.70187,N,00128.72293,E,1,07,1.11,83.4,M,53.8,M,,*71
92 13 48 32 4333.7018400128.7224482.7 00128.72244 82.7  1101011011 1011111100 1100011100 1111111011 10000011000 1100010111 1101010111 1110000010 1011110011 1101100010 1011000101 1011110100 10000010000 10000100011 1100110010 1100100011 1100001000 1100001100 22.938 45.418 1002.9 92619 16 -660 15 58 51 3 $GNGGA,134832.00,4333.70184,N,00128.72244,E,1,07,1.11,82.7,M,53.8,M,,*79
93 13 48 33 4333.7026800128.7210081.0 00128.72100 81.0  1101011011 1100000000 1100100000 10000000001 10000011010 1100011001 1101011110 1101110110 1011110010 1101100001 1011000110 1011110011 10000001101 10000100011 1100101101 1100100000 1100001001 1100001000 22.938 45.418 1002.9 93619 16 -661 14 58 52 3 $GNGGA,134833.00,4333.70268,N,00128.72100,E,1,07,1.11,81.0,M,53.8,M,,*7E
94 13 48 34 4333.7032900128.7203779.4 00128.72037 79.4  1101011011 1011111111 1100011111 10000000101 10000011101 1100010101 1101011010 1101111101 1011101100 1101100010 1011000111 1011110011 10000001101 10000100010 1100110000 1100100010 1100001110 1100000101 22.938 45.418 1002.8 94619 17 -662 14 59 51 3 $GNGGA,134834.00,4333.70329,N,00128.72037,E,1,07,1.11,79.4,M,53.8,M,,*7B
95 13 48 35 4333.7036600128.7197478.6 00128.71974 78.6  1101011011 1100000000 1100011111 10000000001 10000011110 1100011011 1101011111 1101111000 1011100100 1101100010 1011000111 1011110100 10000001101 10000100100 1100110000 1100100100 1100000011 1100000001 22.938 45.418 1002.8 95619 16 -663 15 58 51 3 $GNGGA,134835.00,4333.70366,N,00128.71974,E,1,07,1.11,78.6,M,53.8,M,,*7F
96 13 48 36 4333.7030800128.7203078.8 00128.72030 78.8  1101011011 1100000000 1100011100 10000000101 10000011111 1100011001 1101011000 1101111011 1011110011 1101100010 1011000101 1011110101 10000001010 10000100010 1100101111 1100011111 1100010100 1100001010 22.938 45.418 1002.8 96619 17 -664 14 59 51 3 $GNGGA,134836.00,4333.70308,N,00128.72030,E,1,08,1.04,78.8,M,53.8,M,,*7B
97 13 48 37 4333.7021100128.7209978.9 00128.72099 78.9  1101011011 1100000001 1100100001 1111111110 10000011011 1100011011 1101011101 1110000100 1011111111 1101100010 1011000111 1011110100 10000001011 10000100011 1100110000 1100100100 1100001101 1100000010 22.938 45.418 1002.8 97619 16 -667 15 58 51 3 $GNGGA,134837.00,4333.70211,N,00128.72099,E,1,08,1.04,78.9,M,53.8,M,,*71
98 13 48 38 4333.7020600128.7210378.2 00128.72103 78.2  1101011011 1100000000 1100011101 1111111110 10000011101 1100011000 1101011010 1110000001 1011110110 1101100010 1011000101 1011110101 10000001101 10000100011 1100101110 1100100011 1100000111 1100000100 22.938 45.418 1002.8 98619 17 -665 14 59 51 3 $GNGGA,134838.00,4333.70206,N,00128.72103,E,1,08,1.04,78.2,M,53.8,M,,*71
99 13 48 39 4333.7021900128.7200177.0 00128.72001 77.0  1101011011 1100000010 1100011101 1111111111 10000100000 1100010101 1101011010 1110000010 1011111011 1101100010 1011001001 1011110101 10000010010 10000100110 1100101001 1100011111 1100000011 1100000001 22.938 45.426 1002.8 99619 16 -666 15 58 51 3 $GNGGA,134839.00,4333.70219,N,00128.72001,E,1,07,1.11,77.0,M,53.8,M,,*7B
100 13 48 40 4333.7010100128.7211575.6 00128.72115 75.6  1101011011 1100000100 1100011110 1111111100 10000011011 1100010000 1101010101 1110000000 1011111110 1101100010 1011000101 1011110011 10000010001 10000100100 1100110010 1100100110 1100000111 1011110111 22.938 45.418 1002.8 100619 16 -667 14 58 52 3 $GNGGA,134840.00,4333.70101,N,00128.72115,E,1,09,0.90,75.6,M,53.8,M,,*79
101 13 48 41 4333.7003700128.7214074.8 00128.72140 74.8  1101011011 1100000101 1100100000 1111111011 10000011101 1100011010 1101100001 1110000001 1011111110 1101100010 1011001000 1011110101 10000010010 10000100101 1100101100 1100100110 1100001101 1100000111 22.938 45.426 1002.8 101619 17 -669 14 59 51 3 $GNGGA,134841.00,4333.70037,N,00128.72140,E,1,09,0.90,74.8,M,53.8,M,,*73
102 13 48 42 4333.7001400128.7220375.0 00128.72203 75.0  1101011011 1100000101 1100100011 1111111100 10000011110 1100011000 1101011011 1101111001 1011111001 1101100010 1011000101 1011110010 10000010110 10000100101 1100100111 1100011011 1100010100 1100001011 22.938 45.426 1002.8 102619 16 -669 14 58 51 4 $GNGGA,134842.00,4333.70014,N,00128.72203,E,1,08,1.04,75.0,M,53.8,M,,*71
103 13 48 43 4333.6998700128.7221575.6 00128.72215 75.6  1101011011 1100000010 1100100000 10000000000 10000011110 1100010000 1101011000 1101111111 1011111010 1101100010 1011001001 1011110110 10000010011 10000100111 1100101101 1100100011 1100000010 1100000001 22.938 45.426 1002.8 103619 17 -670 14 59 51 3 $GNGGA,134843.00,4333.69987,N,00128.72215,E,1,08,1.04,75.6,M,53.8,M,,*7A
104 13 48 44 4333.6991900128.7226775.7 00128.72267 75.7  1101011011 1100000010 1100100001 10000000100 10000011110 1100010110 1101011010 1101111011 1011110011 1101100010 1011000111 1011110101 10000010011 10000100111 1100101011 1100011111 1100000111 1011111011 22.938 45.434 1002.8 104619 16 -670 15 58 51 3 $GNGGA,134844.00,4333.69919,N,00128.72267,E,1,08,1.04,75.7,M,53.8,M,,*7E
105 13 48 45 4333.6985400128.7239475.1 00128.72394 75.1  1101011011 1100000010 1100011101 10000000001 10000011100 1100010011 1101010111 1101110101 1011110100 1101100010 1011001001 1011110100 10000010100 10000100101 1100101000 1100011101 1100000110 1011111101 22.938 45.434 1002.8 105619 17 -671 14 59 51 3 $GNGGA,134845.00,4333.69854,N,00128.72394,E,1,09,0.90,75.1,M,53.8,M,,*71
106 13 48 46 4333.6982000128.7250974.6 00128.72509 74.6  1101011011 1100000001 1100011110 10000000100 10000011111 1100010101 1101011000 1101111010 1011110010 1101100010 1011001001 1011110111 10000011000 10000100111 1100101100 1100100010 1100001111 1011111111 22.938 45.434 1002.8 106619 16 -672 15 58 51 3 $GNGGA,134846.00,4333.69820,N,00128.72509,E,1,09,0.90,74.6,M,53.8,M,,*75
107 13 48 47 4333.6979700128.7259674.9 00128.72596 74.9  1101011011 1100000010 1100011101 1111111100 10000011111 1100011000 1101011011 1101110100 1011110001 1101100010 1011000111 1011110011 10000011010 10000100111 1100101110 1100100010 1100001001 1011111010 22.938 45.434 1002.8 107619 16 -673 14 58 52 3 $GNGGA,134847.00,4333.69797,N,00128.72596,E,1,08,1.04,74.9,M,53.8,M,,*73
108 13 48 48 4333.6978400128.7263675.4 00128.72636 75.4  1101011011 1100000010 1100011110 1111111111 10000100000 1100001111 1101010011 1101111001 1011110101 1101100010 1011001001 1011110101 10000001110 10000100011 1100101010 1100011110 1100000111 1100000011 22.938 45.441 1002.8 108619 16 -677 15 58 51 3 $GNGGA,134848.00,4333.69784,N,00128.72636,E,1,08,1.04,75.4,M,53.8,M,,*7B
109 13 48 49 4333.6979100128.7271275.6 00128.72712 75.6  1101011011 1100000010 1100011011 1111111111 10000011111 1100010011 1101011000 1101110111 1011101010 1101100010 1011001010 1011110110 10000010111 10000100110 1100101010 1100100010 1100001110 1100001111 22.938 45.434 1002.8 109619 16 -676 14 58 52 3 $GNGGA,134849.00,4333.69791,N,00128.72712,E,1,08,1.04,75.6,M,53.8,M,,*7B
110 13 48 50 4333.6977300128.7273676.0 00128.72736 76.0  1101011011 1100000101 1100011111 10000000100 10000011111 1100010101 1101010111 1101111100 1011111101 1101100010 1011001001 1011110101 10000011001 10000100111 1100101101 1100011111 1100001100 1100000001 22.938 45.434 1002.8 110619 17 -676 14 59 51 3 $GNGGA,134850.00,4333.69773,N,00128.72736,E,1,08,1.04,76.0,M,53.8,M,,*7C
111 13 48 51 4333.6974100128.7283176.0 00128.72831 76.0  1101011011 1100000110 1100100000 10000000101 10000011111 1100010001 1101010110 1101110111 1011110011 1101100010 1011001100 1011110111 10000000111 10000100100 1100101010 1100011101 1100001110 1100000111 22.938 45.441 1002.8 111619 16 -676 15 58 51 3 $GNGGA,134851.00,4333.69741,N,00128.72831,E,1,08,0.99,76.0,M,53.8,M,,*71
112 13 48 52 4333.6964100128.7285875.4 00128.72858 75.4  1101011011 1100000110 1100100000 10000000110 10000100010 1100010001 1101010000 1101101100 1011100111 1101100010 1011001001 1011111001 10000001110 10000101001 1100101000 1100011110 1100001101 1100000000 22.938 45.449 1002.8 112619 17 -678 14 59 51 3 $GNGGA,134852.00,4333.69641,N,00128.72858,E,1,08,0.99,75.4,M,53.8,M,,*7B
113 13 48 53 4333.6956400128.7294874.9 00128.72948 74.9  1101011011 1100000101 1100100000 1111111100 10000011101 1100001100 1101010000 1101101101 1011101100 1101100010 1011001001 1011111001 10000001111 10000100111 1100101101 1100011111 1100010000 1100001110 22.938 45.441 1002.8 113619 16 -679 15 58 51 3 $GNGGA,134853.00,4333.69564,N,00128.72948,E,1,08,0.99,74.9,M,53.8,M,,*72
114 13 48 54 4333.6958600128.7300675.3 00128.73006 75.3  1101011011 1100000111 1100100010 10000000100 10000100010 1100011000 1101011001 1101110010 1011100101 1101100010 1011001001 1011110110 10000010001 10000101001 1100100111 1100100000 1100001001 1100000111 22.938 45.449 1002.8 114619 17 -680 14 59 51 3 $GNGGA,134854.00,4333.69586,N,00128.73006,E,1,08,1.04,75.3,M,53.8,M,,*75
115 13 48 55 4333.6949900128.7304475.0 00128.73044 75.0  1101011011 1100000101 1100011110 10000000010 10000100000 1100010000 1101010011 1101110100 1011100110 1101100010 1011001010 1011110111 10000010011 10000100111 1100101010 1100011111 1100001010 1100000010 22.938 45.441 1002.8 115619 16 -682 15 58 51 3 $GNGGA,134855.00,4333.69499,N,00128.73044,E,1,09,0.90,75.0,M,53.8,M,,*73
116 13 48 56 4333.6939900128.7302775.1 00128.73027 75.1  1101011011 1100000101 1100011110 10000000011 10000100011 1100001110 1101010010 1101111010 1011110001 1101100010 1011001000 1011110110 10000010110 10000101000 1100100100 1100010111 1100000111 1011111011 22.938 45.449 1002.8 116619 16 -681 14 58 52 3 $GNGGA,134856.00,4333.69399,N,00128.73027,E,1,09,0.90,75.1,M,53.8,M,,*73
117 13 48 57 4333.6938000128.7302175.0 00128.73021 75.0  1101011011 1100000100 1100011101 10000000000 10000100000 1100001011 1101010010 1101110100 1011101101 1101100010 1011001100 1011110110 10000010010 10000100111 1100101000 1100011101 1100000100 1011110110 22.938 45.456 1002.8 117619 17 -682 14 59 51 3 $GNGGA,134857.00,4333.69380,N,00128.73021,E,1,09,0.90,75.0,M,53.8,M,,*7D
118 13 48 58 4333.6938900128.7310474.8 00128.73104 74.8  1101011011 1100000110 1100100000 10000000000 10000100001 1100001101 1101010010 1101111100 1011110101 1101100010 1011001101 1011111001 10000001100 10000101000 1100100111 1100011011 1100001011 1100000011 22.938 45.456 1002.8 118619 16 -683 14 58 51 4 $GNGGA,134858.00,4333.69389,N,00128.73104,E,1,09,0.90,74.8,M,53.8,M,,*74
119 13 48 59 4333.6934800128.7314675.0 00128.73146 75.0  1101011100 1100000100 1100011110 10000000000 10000100000 1100001110 1101010011 1101110101 1011110100 1101100010 1011001010 1011110100 10000010001 10000101000 1100101001 1100011111 1100000100 1100000011 22.938 45.456 1002.8 119619 17 -687 14 59 51 3 $GNGGA,134859.00,4333.69348,N,00128.73146,E,1,09,0.90,75.0,M,53.8,M,,*77
120 13 49 00 4333.6932700128.7313775.0 00128.73137 75.0  1101011011 1100000010 1100011011 1111111111 10000100011 1100010001 1101010100 1101111010 1011101111 1101100010 1011001011 1011111000 10000001110 10000100111 1100100100 1100011010 1100000110 1100000001 22.938 45.456 1002.8 120619 16 -681 15 58 51 3 $GNGGA,134900.00,4333.69327,N,00128.73137,E,1,09,0.90,75.0,M,53.8,M,,*75
121 13 49 01 4333.6933100128.7309874.6 00128.73098 74.6  1101011011 1100000011 1100011101 10000000110 10000100111 1100001010 1101001001 1101110111 1011101010 1101100010 1011001100 1011111000 10000010001 10000101000 1100100100 1100010111 1100001110 1100000111 22.938 45.456 1002.9 121619 17 -686 14 59 51 3 $GNGGA,134901.00,4333.69331,N,00128.73098,E,1,09,0.90,74.6,M,53.8,M,,*70
122 13 49 02 4333.6929400128.7305774.7 00128.73057 74.7  1101011011 1100000010 1100011111 10000000111 10000101000 1100001111 1101010011 1101110100 1011101100 1101100010 1011001001 1011110111 10000010010 10000101000 1100100011 1100011101 1100001000 1100000101 22.938 45.464 1002.9 122619 16 -687 15 58 51 3 $GNGGA,134902.00,4333.69294,N,00128.73057,E,1,09,0.90,74.7,M,53.8,M,,*7F
123 13 49 03 4333.6928100128.7304474.2 00128.73044 74.2  1101011011 1100000100 1100011110 10000001011 10000100100 1100001001 1101001111 1101110110 1011101111 1101100010 1011001011 1011111000 10000010110 10000101000 1100100011 1100011101 1100010111 1100000010 22.938 45.464 1002.8 123619 16 -687 14 58 52 3 $GNGGA,134903.00,4333.69281,N,00128.73044,E,1,09,0.90,74.2,M,53.8,M,,*7D
124 13 49 04 4333.6924500128.7302574.1 00128.73025 74.1  1101011011 1100001000 1100100010 10000000011 10000100000 1100001111 1101010000 1101111011 1011110010 1101100010 1011000111 1011110110 10000010010 10000101001 1100101000 1100011011 1100001100 1100000001 22.938 45.464 1002.8 124619 16 -689 15 58 51 3 $GNGGA,134904.00,4333.69245,N,00128.73025,E,1,09,0.90,74.1,M,53.8,M,,*76
125 13 49 05 4333.6926400128.7295274.0 00128.72952 74.0  1101011011 1100000111 1100011111 10000000010 10000100011 1100001001 1101001010 1101111011 1011110010 1101100010 1011001100 1011111010 10000010000 10000100111 1100011110 1100010011 1100000010 1011111111 22.938 45.464 1002.8 125619 16 -690 14 58 52 3 $GNGGA,134905.00,4333.69264,N,00128.72952,E,1,09,0.90,74.0,M,53.8,M,,*7D
126 13 49 06 4333.6928000128.7297474.5 00128.72974 74.5  1101011011 1100000101 1100011111 10000000101 10000100110 1100001101 1101010000 1110000011 1011110110 1101100010 1011001111 1011111001 10000010110 10000101100 1100100101 1100011011 1100001000 1100000001 22.938 45.464 1002.8 126619 17 -693 14 59 51 3 $GNGGA,134906.00,4333.69280,N,00128.72974,E,1,09,0.90,74.5,M,53.8,M,,*75
127 13 49 07 4333.6932400128.7297974.6 00128.72979 74.6  1101011011 1100000111 1100011111 1111111111 10000100010 1100010001 1101010101 1101111011 1011110111 1101100010 1011001100 1011111001 10000011001 10000101000 1100101000 1100011001 1100000111 1011111011 22.938 45.472 1002.8 127619 16 -691 15 58 51 3 $GNGGA,134907.00,4333.69324,N,00128.72979,E,1,09,0.90,74.6,M,53.8,M,,*75
128 13 49 08 4333.6933400128.7297775.1 00128.72977 75.1  1101011011 1100000110 1100100001 1111111110 10000100101 1100001011 1101010001 1110000100 1011110100 1101100010 1011001010 1011111010 10000010010 10000101000 1100100010 1100010111 1100000101 1100000101 22.938 45.472 1002.8 128619 17 -692 14 59 51 3 $GNGGA,134908.00,4333.69334,N,00128.72977,E,1,09,0.90,75.1,M,53.8,M,,*73
129 13 49 09 4333.6930600128.7297075.2 00128.72970 75.2  1101011011 1100000111 1100100100 10000000010 10000100101 1100001111 1101010010 1110000011 1100000000 1101100010 1011001010 1011111000 10000010111 10000101011 1100100011 1100011001 1100000001 1011111111 22.938 45.472 1002.8 129619 16 -693 15 58 51 3 $GNGGA,134909.00,4333.69306,N,00128.72970,E,1,09,0.90,75.2,M,53.8,M,,*77
130 13 49 10 4333.6934800128.7301375.4 00128.73013 75.4  1101011011 1100001010 1100100100 10000000111 10000100101 1100010000 1101010010 1101111001 1011110100 1101100010 1011010000 1011111100 10000010000 10000101000 1100100110 1100011010 1100001101 1100000000 22.938 45.472 1002.8 130619 17 -694 14 59 51 3 $GNGGA,134910.00,4333.69348,N,00128.73013,E,1,09,0.90,75.4,M,53.8,M,,*7E
131 13 49 11 4333.6927600128.7309676.5 00128.73096 76.5  1101011011 1100001000 1100100001 10000000110 10000100100 1100001110 1101010110 1101110010 1011101100 1101100010 1011001001 1011111001 10000010110 10000101011 1100100011 1100011010 1100010011 1100001010 22.938 45.479 1002.9 131619 16 -696 15 58 51 3 $GNGGA,134911.00,4333.69276,N,00128.73096,E,1,08,0.96,76.5,M,53.8,M,,*7B
132 13 49 12 4333.6924700128.7317277.9 00128.73172 77.9  1101011011 1100001000 1100100010 10000000001 10000100010 1100001111 1101001110 1101110100 1011101100 1101100010 1011001011 1011111000 10000010111 10000101011 1100100001 1100010101 1100001010 1011111100 22.938 45.472 1002.8 132619 16 -697 14 58 52 3 $GNGGA,134912.00,4333.69247,N,00128.73172,E,1,08,0.96,77.9,M,53.8,M,,*7C
133 13 49 13 4333.6919300128.7318279.1 00128.73182 79.1  1101011011 1100001000 1100011110 10000001000 10000100100 1100001110 1101010101 1101111010 1011101111 1101100001 1011001011 1011111010 10000010110 10000101010 1100100101 1100011010 1100001000 1011111010 22.938 45.479 1002.9 133619 17 -696 14 59 51 3 $GNGGA,134913.00,4333.69193,N,00128.73182,E,1,08,0.96,79.1,M,53.8,M,,*7E
134 13 49 14 4333.6912800128.7322380.4 00128.73223 80.4  1101011011 1100000111 1100011111 10000001011 10000100101 1100001100 1101010101 1101111010 1011100110 1101100010 1011001010 1011110111 10000010010 10000101010 1100100011 1100010010 1100001010 1100000001 22.938 45.479 1002.9 134619 16 -699 13 58 51 5 $GNGGA,134914.00,4333.69128,N,00128.73223,E,1,07,1.04,80.4,M,53.8,M,,*77
135 13 49 15 4333.6909300128.7323581.7 00128.73235 81.7  1101011011 1100001010 1100100010 10000001000 10000100111 1100000101 1101001100 1101111010 1011110001 1101100010 1011001011 1011110111 10000010110 10000101010 1100100011 1100011100 1100001111 1011111111 22.938 45.479 1002.8 135619 17 -699 14 59 51 3 $GNGGA,134915.00,4333.69093,N,00128.73235,E,1,08,0.96,81.7,M,53.8,M,,*77
136 13 49 16 4333.6903100128.7323283.2 00128.73232 83.2  1101011011 1100001000 1100100000 10000001001 10000100110 1100001011 1101001111 1101110010 1011101110 1101100010 1011001110 1011111010 10000010000 10000101011 1100100011 1100010110 1100001011 1100000011 22.938 45.479 1002.9 136619 16 -699 15 58 51 3 $GNGGA,134916.00,4333.69031,N,00128.73232,E,1,07,1.04,83.2,M,53.8,M,,*79
137 13 49 17 4333.6905700128.7324783.2 00128.73247 83.2  1101011100 1100000111 1100100010 10000001000 10000101000 1100010001 1101010100 1101110111 1011110010 1101100010 1011001100 1011110100 10000011001 10000101011 1100100011 1100010110 1100000111 1100000111 22.938 45.487 1002.9 137619 17 -703 14 59 51 3 $GNGGA,134917.00,4333.69057,N,00128.73247,E,1,09,0.90,83.2,M,53.8,M,,*78
138 13 49 18 4333.6905800128.7321383.8 00128.73213 83.8  1101011101 1100000101 1100011101 10000001000 10000100111 1100001000 1101001111 1110000100 1011111000 1101100010 1011001110 1011111000 10000011000 10000101011 1100100100 1100011001 1100001000 1011111100 22.938 45.487 1002.9 138619 16 -702 15 58 51 3 $GNGGA,134918.00,4333.69058,N,00128.73213,E,1,08,1.04,83.8,M,53.8,M,,*7E
139 13 49 19 4333.6912400128.7324084.2 00128.73240 84.2  1101011011 1100001000 1100011111 10000000111 10000101000 1100000101 1101001010 1101111111 1011110011 1101100010 1011001010 1011110110 10000011000 10000101010 1100101001 1100011101 1100010100 1100001110 22.938 45.487 1002.8 139619 16 -703 14 58 52 3 $GNGGA,134919.00,4333.69124,N,00128.73240,E,1,08,1.04,84.2,M,53.8,M,,*7E
140 13 49 20 4333.6913500128.7321284.8 00128.73212 84.8  1101011011 1100000110 1100011111 10000001011 10000100110 1100001011 1101001111 1101111101 1011110110 1101100010 1011001010 1011110111 10000010001 10000101100 1100100000 1100010110 1100000111 1100000000 22.938 45.487 1002.9 140619 16 -704 15 58 51 3 $GNGGA,134920.00,4333.69135,N,00128.73212,E,1,08,1.04,84.8,M,53.8,M,,*79
141 13 49 21 4333.6911800128.7317285.0 00128.73172 85.0  1101011011 1100001001 1100100110 10000000010 10000100110 1100001111 1101010001 1101110101 1011110110 1101100010 1011001100 1011111001 10000010010 10000101010 1100011101 1100010110 1100001000 1011111111 22.938 45.487 1002.8 141619 16 -705 13 58 52 4 $GNGGA,134921.00,4333.69118,N,00128.73172,E,1,08,1.04,85.0,M,53.8,M,,*7B
142 13 49 22 4333.6911000128.7315885.3 00128.73158 85.3  1101011011 1100000010 1100011101 10000000100 10000101000 1100001100 1101001101 1101110110 1011110001 1101100010 1011001111 1011111001 10000010100 10000101011 1100100010 1100010010 1100000101 1100000000 22.938 45.495 1002.8 142619 17 -705 14 59 51 3 $GNGGA,134922.00,4333.69110,N,00128.73158,E,1,08,1.04,85.3,M,53.8,M,,*7B
143 13 49 23 4333.6912700128.7314785.4 00128.73147 85.4  1101011011 1100001001 1100011111 1111111111 10000100100 1100001000 1101001110 1101110101 1011101011 1101100010 1011001110 1011111011 10000010010 10000101011 1100100101 1100011011 1100000010 1011111110 22.938 45.487 1002.8 143619 16 -706 15 58 51 3 $GNGGA,134923.00,4333.69127,N,00128.73147,E,1,08,1.04,85.4,M,53.8,M,,*77
144 13 49 24 4333.6915100128.7316285.6 00128.73162 85.6  1101011100 1100001001 1100100000 10000000001 10000100101 1100000111 1101001010 1101111000 1011110001 1101100010 1011001111 1011111001 10000010010 10000101011 1100100000 1100010110 1100001001 1100001001 22.938 45.495 1002.8 144619 17 -707 13 59 51 4 $GNGGA,134924.00,4333.69151,N,00128.73162,E,1,08,1.04,85.6,M,53.8,M,,*74
145 13 49 25 4333.6913900128.7314185.9 00128.73141 85.9  1101011011 1100001000 1100100100 10000000000 10000101001 1100001100 1101001011 1101111010 1011101110 1101100010 1011001010 1011111001 10000001101 10000101010 1100011110 1100010000 1100001001 1100000100 22.938 45.495 1002.8 145619 16 -708 14 58 51 4 $GNGGA,134925.00,4333.69139,N,00128.73141,E,1,09,0.90,85.9,M,53.8,M,,*78
146 13 49 26 4333.6911000128.7313185.7 00128.73131 85.7  1101011011 1100000101 1100100000 10000000101 10000101000 1100000111 1101001110 1101111100 1011101111 1101100010 1011001101 1011111010 10000010000 10000101001 1100100101 1100011101 1100001000 1011111111 22.938 45.502 1002.8 146619 17 -709 14 59 51 3 $GNGGA,134926.00,4333.69110,N,00128.73131,E,1,09,0.90,85.7,M,53.8,M,,*79
147 13 49 27 4333.6908300128.7311085.8 00128.73110 85.8  1101011101 1100001101 1100100011 10000000100 10000100100 1100000111 1101001000 1110000001 1011110010 1101100010 1011001111 1011111010 10000001111 10000101011 1100011110 1100011000 1100000101 1011111011 22.938 45.502 1002.9 147619 16 -710 15 58 51 3 $GNGGA,134927.00,4333.69083,N,00128.73110,E,1,09,0.90,85.8,M,53.8,M,,*7F
148 13 49 28 4333.6905400128.7307985.9 00128.73079 85.9  1101011011 1100000110 1100100011 10000000111 10000101000 1100000110 1101001000 1101111010 1011110000 1101100010 1011001100 1011111010 10000010100 10000101010 1100100100 1100011000 1100000100 1011111100 22.938 45.502 1002.8 148619 16 -713 14 58 52 3 $GNGGA,134928.00,4333.69054,N,00128.73079,E,1,09,0.90,85.9,M,53.8,M,,*75
149 13 49 29 4333.6903500128.7303086.3 00128.73030 86.3  1101011011 1100000111 1100100000 10000000110 10000101010 1100000101 1101001000 1101111000 1011110111 1101100010 1011001111 1011111011 10000011001 10000101100 1100100110 1100011101 1100000100 1011111010 22.938 45.502 1002.8 149619 17 -713 14 59 51 3 $GNGGA,134929.00,4333.69035,N,00128.73030,E,1,09,0.90,86.3,M,53.8,M,,*77
150 13 49 30 4333.6904300128.7304486.8 00128.73044 86.8  1101011011 1100001000 1100100001 10000000111 10000101011 1100000111 1101001001 1101110011 1011100111 1101100010 1011001100 1011111000 10000010110 10000101100 1100100001 1100010111 1100000101 1100000100 22.938 45.502 1002.8 150619 16 -712 14 58 51 4 $GNGGA,134930.00,4333.69043,N,00128.73044,E,1,09,0.90,86.8,M,53.8,M,,*76
151 13 49 31 4333.6903800128.7302487.3 00128.73024 87.3  1101011011 1100000110 1100011111 10000000111 10000101100 1100001001 1101001101 1101111010 1011110011 1101100001 1011001111 1011111011 10000001101 10000101101 1100100010 1100011010 1100001011 1011111111 22.938 45.502 1002.8 151619 17 -714 14 59 51 3 $GNGGA,134931.00,4333.69038,N,00128.73024,E,1,08,1.04,87.3,M,53.8,M,,*7A
152 13 49 32 4333.6903900128.7301887.8 00128.73018 87.8  1101011011 1100001001 1100100001 10000001010 10000101010 1100001000 1101001111 1101101110 1011101111 1101100010 1011001001 1011111000 10000011010 10000101110 1100100111 1100011011 1100000100 1011111101 22.938 45.502 1002.8 152619 16 -714 15 58 51 3 $GNGGA,134932.00,4333.69039,N,00128.73018,E,1,08,1.04,87.8,M,53.8,M,,*7C
153 13 49 33 4333.6905300128.7299988.1 00128.72999 88.1  1101011011 1100001001 1100100000 10000001000 10000101001 1100001001 1101001110 1101111001 1011101101 1101100010 1011001100 1011111001 10000010100 10000101100 1100100000 1100010111 1100001011 1100000010 22.938 45.510 1002.8 153619 17 -716 14 59 51 3 $GNGGA,134933.00,4333.69053,N,00128.72999,E,1,08,1.04,88.1,M,53.8,M,,*76
154 13 49 34 4333.6908000128.7299188.8 00128.72991 88.8  1101011011 1100001100 1100100101 10000001001 10000101100 1100000111 1101001001 1101111000 1011110100 1101100011 1011001101 1011111001 10000010111 10000101101 1100100010 1100011000 1100000000 1011110111 22.938 45.510 1002.8 154619 16 -717 15 58 51 3 $GNGGA,134934.00,4333.69080,N,00128.72991,E,1,07,1.19,88.8,M,53.8,M,,*7D
155 13 49 35 4333.6909200128.7301989.1 00128.73019 89.1  1101011011 1100000111 1100011011 10000001001 10000100101 1100000110 1101001011 1101111000 1011101111 1101100010 1011001110 1011111001 10000010011 10000101011 1100100001 1100010111 1100000111 1011111011 22.938 45.510 1002.8 155619 16 -720 14 58 52 3 $GNGGA,134935.00,4333.69092,N,00128.73019,E,1,08,1.04,89.1,M,53.8,M,,*7C
156 13 49 36 4333.6912200128.7304089.4 00128.73040 89.4  1101011011 1100001000 1100100011 10000000010 10000100110 1100000011 1101000101 1101110101 1011101001 1101100001 1011001100 1011111001 10000010111 10000101110 1100100001 1100010101 1100001001 1011111110 22.938 45.517 1002.8 156619 16 -719 15 58 51 3 $GNGGA,134936.00,4333.69122,N,00128.73040,E,1,08,1.04,89.4,M,53.8,M,,*7C
157 13 49 37 4333.6914100128.7304490.0 00128.73044 90.0  1101011011 1100001010 1100100001 10000000011 10000101010 1100000000 1101000111 1101110101 1011101101 1101100010 1011001101 1011111000 10000010100 10000101101 1100011110 1100010100 1100001010 1100000011 22.938 45.510 1002.8 157619 16 -719 14 58 52 3 $GNGGA,134937.00,4333.69141,N,00128.73044,E,1,08,1.04,90.0,M,53.8,M,,*70
158 13 49 38 4333.6916400128.7303390.6 00128.73033 90.6  1101011011 1100001010 1100100000 10000001110 10000101011 1100000101 1101000100 1101111001 1011101111 1101100010 1011010001 1011111011 10000010110 10000101111 1100011111 1100010100 1100000100 1011111110 22.938 45.510 1002.8 158619 17 -721 14 59 51 3 $GNGGA,134938.00,4333.69164,N,00128.73033,E,1,08,1.04,90.6,M,53.8,M,,*7E
159 13 49 39 4333.6920600128.7307990.7 00128.73079 90.7  1101011011 1100001011 1100100010 10000001110 10000101000 1100000111 1101001111 1110000011 1011101111 1101100010 1011001011 1011110111 10000011000 10000101101 1100011110 1100010100 1100001100 1100001000 22.938 45.517 1002.8 159619 16 -724 15 58 51 3 $GNGGA,134939.00,4333.69206,N,00128.73079,E,1,07,1.16,90.7,M,53.8,M,,*7B
160 13 49 40 4333.6922000128.7308691.5 00128.73086 91.5  1101011011 1100001110 1100100100 10000001101 10000101011 1100000010 1101001000 1101111000 1011100101 1101100010 1011001110 1011111000 10000010010 10000101100 1100011111 1100010110 1100000110 1011111100 22.938 45.517 1002.8 160619 17 -722 14 59 51 3 $GNGGA,134940.00,4333.69220,N,00128.73086,E,1,08,1.04,91.5,M,53.8,M,,*7E
161 13 49 41 4333.6922700128.7306292.0 00128.73062 92.0  1101011011 1100001010 1100100000 10000001000 10000101011 1100000110 1101001010 1101111001 1011110000 1101100010 1011001100 1011110111 10000001101 10000101110 1100011011 1100010101 1100001001 1100000101 22.938 45.517 1002.8 161619 16 -724 15 58 51 3 $GNGGA,134941.00,4333.69227,N,00128.73062,E,1,08,1.04,92.0,M,53.8,M,,*74
