id HH MM SS longitude latitude altitude adc_1_ch0 adc_1_ch1 adc_1_ch2 adc_1_ch3 adc_1_ch4 adc_1_ch5 adc_1_ch6 adc_1_ch7 adc_1_ch8 adc_2_ch0 adc_2_ch1 adc_2_ch2 adc_2_ch3 adc_2_ch4 adc_2_ch5 adc_2_ch6 adc_2_ch7 adc_2_ch8 temp hum pres t_prog t_gps t_split t_adc t_temp t_hum t_pres trame_gga
1 12 02 42 Nan Nan Nan 1101011000 1100010010 1100101010 10000000101 10000110111 1100000111 1101001100 1110001011 1011111001 1101011111 1011010000 1011111111 10000001110 10000111001 1100100101 1100011100 1100001000 1100000001 21.750 43.915 795.83 1658 16 -856 12 58 51 3 $GNGGA,120242.00,,,,,0,00,99.9,,,,,,*46
2 12 02 44 Nan Nan Nan 1101011000 1100010011 1100100110 1111111111 10000110111 1100000101 1101001100 1110001001 1011110000 1101011111 1011010001 1011111111 10000010001 10000111011 1100100011 1100010110 1100001011 1100000001 21.688 44.037 1003.4 2765 16 -125 12 59 50 4 $GNGGA,120244.00,,,,,0,00,99.9,,,,,,*40
3 12 02 45 Nan Nan Nan 1101011001 1100010000 1100100101 1111111111 10000110100 1100000110 1101001000 1110001100 1011111000 1101011111 1011010101 1011111111 10000001110 10000110111 1100100010 1100010010 1100000011 1011110111 21.750 44.068 1003.4 3764 16 -126 10 58 52 4 $GNGGA,120245.00,,,,,0,00,99.9,,,,,,*41
4 12 02 46 Nan Nan Nan 1101011000 1100010011 1100101010 1111111101 10000110011 1100001000 1101001001 1110000011 1011101111 1101011111 1011010010 1011111111 10000010000 10000111000 1100011010 1100010011 1100000100 1100000010 21.750 44.037 1003.4 4764 18 -126 10 60 50 4 $GNGGA,120246.00,,,,,0,00,99.9,,,,,,*42
5 12 02 47 Nan Nan Nan 1101011000 1100001111 1100100100 10000000000 10000110011 1100000111 1101000110 1101111101 1011101011 1101011111 1011010011 1011111110 10000001111 10000111001 1100011110 1100010011 1100000111 1100000100 21.688 44.022 1003.4 5764 17 -126 10 59 50 5 $GNGGA,120247.00,,,,,0,00,99.9,,,,,,*43
6 12 02 48 Nan Nan Nan 1101011000 1100010011 1100101000 1111111011 10000110010 1100000100 1101000011 1110000111 1011110101 1101011111 1011001110 1011111100 10000001110 10000111001 1100011111 1100010011 1100001101 1100000101 21.688 44.014 1003.4 6921 16 -126 11 58 52 3 $GNGGA,120248.00,,,,,0,00,99.9,,,,,,*4C
7 12 02 49 Nan Nan Nan 1101011000 1100010011 1100101000 10000001000 10000110110 1100000111 1101001010 1110001111 1011111010 1101011111 1011010010 1011111110 10000010110 10000111001 1100100000 1100010101 1100000101 1100000000 21.688 44.037 1003.4 7914 17 -280 11 59 51 3 $GNGGA,120249.00,,,,,0,00,99.9,,,,,,*4D
8 12 02 50 Nan Nan Nan 1101011001 1100001111 1100100011 10000000000 10000110110 1100001010 1101000110 1110001000 1011110001 1101011111 1011010011 1011111101 10000010011 10000111010 1100011111 1100010010 1100000000 1100000000 21.688 44.076 1003.4 8914 16 -279 12 58 51 3 $GNGGA,120250.00,,,,,0,00,99.9,,,,,,*45
9 12 02 51 Nan Nan Nan 1101011000 1100011000 1100101101 10000000111 10000110101 1100000001 1101001000 1110000110 1011111001 1101011111 1011001111 1011111100 10000010110 10000111000 1100100011 1100010111 1100000110 1011111110 21.750 44.068 1003.4 9914 16 -288 11 59 51 3 $GNGGA,120251.00,,,,,0,00,99.9,,,,,,*44
10 12 02 51 Nan Nan Nan 1101011000 1100001110 1100100101 10000000011 10000110011 1100000100 1101000110 1110001100 1011110011 1101011111 1011010100 1100000000 10000010011 10000111010 1100100010 1100010010 1011111111 1011111000 21.688 44.014 1003.4 10914 17 -289 11 58 51 3 $GNGGA,120251.99,,,,,0,00,99.9,,,,,,*44
11 12 02 53 Nan Nan Nan 1101011000 1100010000 1100100011 10000000000 10000111000 1100000100 1101000110 1110000000 1011100111 1101011111 1011010011 1011111111 10000010000 10000110111 1100011110 1100010111 1100000100 1011111110 21.688 43.984 1003.4 11914 16 -283 11 58 52 3 $GNGGA,120253.00,,,,,0,00,99.9,,,,,,*46
12 12 02 54 Nan Nan Nan 1101011000 1100001100 1100100000 10000001001 10000110111 1100000011 1101000111 1110000100 1011100111 1101011111 1011010100 1011111101 10000001100 10000111001 1100011111 1100011001 1100001000 1100001010 21.688 43.999 1003.4 12915 17 -126 11 60 50 4 $GNGGA,120254.00,,,,,0,00,99.9,,,,,,*41
13 12 02 55 Nan Nan Nan 1101011000 1100010000 1100100011 10000001101 10000110111 1100001000 1101000110 1110000101 1011101101 1101011111 1011010001 1011111111 10000001101 10000111000 1100011001 1100010010 1100001001 1100000010 21.688 44.037 1003.4 13914 16 -285 11 58 51 4 $GNGGA,120255.00,,,,,0,00,99.9,,,,,,*40
14 12 02 56 Nan Nan Nan 1101011000 1100010000 1100100100 10000001001 10000111011 1100000110 1101000110 1110001000 1011101101 1101011111 1011010011 1100000001 10000001101 10000111001 1100011011 1100010011 1100000000 1011111010 21.688 44.037 1003.4 14914 17 -286 11 59 51 3 $GNGGA,120256.00,,,,,0,00,99.9,,,,,,*43
15 12 02 57 Nan Nan Nan 1101011000 1100001111 1100100111 10000000101 10000110100 1100001011 1101001000 1110000111 1011110000 1101011111 1011010010 1011111101 10000010001 10000111010 1100011110 1100010000 1100001010 1011111110 21.688 44.053 1003.4 15915 16 -287 12 58 51 3 $GNGGA,120257.00,,,,,0,00,99.9,,,,,,*42
16 12 02 58 Nan Nan Nan 1101011000 1100010010 1100100111 10000000110 10000110100 1100001001 1101001100 1110001000 1011110010 1101011111 1011010011 1011111111 10000001110 10000111011 1100100000 1100010011 1011111110 1011111011 21.688 44.083 1003.4 16915 17 -289 11 59 51 3 $GNGGA,120258.00,,,,,0,00,99.9,,,,,,*4D
17 12 02 59 Nan Nan Nan 1101011000 1100010101 1100101000 10000001001 10000110110 1100001101 1101001001 1110000101 1011101111 1101011111 1011010010 1011111101 10000010001 10000111001 1100100001 1100011011 1100000011 1011111110 21.688 44.076 1003.4 17915 16 -289 12 58 51 3 $GNGGA,120259.00,,,,,0,00,99.9,,,,,,*4C
18 12 03 00 Nan Nan Nan 1101011000 1100010000 1100100010 10000000010 10000110100 1100000110 1101000110 1101111111 1011101100 1101011111 1011010010 1011111111 10000001111 10000111001 1100010101 1100001111 1011111111 1011111111 21.688 44.053 1003.4 18915 16 -131 10 58 52 4 $GNGGA,120300.00,,,,,0,00,99.9,,,,,,*41
19 12 03 01 Nan Nan Nan 1101011000 1100010100 1100101000 10000000010 10000110110 1100000110 1101001001 1110000001 1011100011 1101011111 1011010001 1011111110 10000010010 10000111010 1100011110 1100010010 1100000101 1100000100 21.688 44.037 1003.4 19915 17 -292 11 58 51 3 $GNGGA,120301.00,,,,,0,00,99.9,,,,,,*40
20 12 03 02 Nan Nan Nan 1101011000 1100010011 1100101001 1111111001 10000110010 1100001011 1101001100 1110000110 1011101011 1101011111 1011010001 1011111111 10000010100 10000111001 1100011111 1100010100 1100001100 1011111101 21.688 43.984 1003.4 20915 16 -293 11 58 52 3 $GNGGA,120302.00,,,,,0,00,99.9,,,,,,*43
21 12 03 03 Nan Nan Nan 1101011001 1100010001 1100100100 1111111011 10000110011 1100000101 1101000111 1110000100 1011101011 1101011111 1011010010 1011111100 10000010100 10000111001 1100011101 1100010100 1100000001 1011111011 21.688 43.976 1003.4 21915 17 -294 11 59 51 3 $GNGGA,120303.00,,,,,0,00,99.9,,,,,,*42
22 12 03 04 Nan Nan Nan 1101011000 1100010010 1100100110 1111111001 10000110011 1100000001 1101000100 1110000010 1011110000 1101011111 1011010101 1100000000 10000010000 10000111010 1100011101 1100010100 1100000100 1100000010 21.688 44.022 1003.4 22915 16 -294 12 58 51 3 $GNGGA,120304.00,,,,,0,00,99.9,,,,,,*45
23 12 03 05 Nan Nan Nan 1101011001 1100010100 1100101000 1111111011 10000110010 1100000111 1101000110 1110000101 1011101001 1101011111 1011010100 1100000010 10000010001 10000110111 1100011010 1100010000 1100001000 1100000001 21.688 44.014 1003.4 23915 17 -302 11 59 51 3 $GNGGA,120305.00,,,,,0,00,99.9,,,,,,*44
24 12 03 05 Nan Nan Nan 1101011000 1100010001 1100100110 10000000011 10000110111 1100000110 1101001000 1110001011 1011110100 1101011111 1011001111 1011111111 10000010111 10000111011 1100100011 1100010110 1100001010 1011111111 21.688 43.992 1003.4 24915 16 -144 12 58 51 3 $GNGGA,120305.99,,,,,0,00,99.9,,,,,,*44
25 12 03 07 Nan Nan Nan 1101011000 1100010100 1100101011 10000000101 10000110101 1100000011 1101000100 1110001100 1011110011 1101011111 1011010100 1011111110 10000001110 10000111000 1100100001 1100010110 1100000100 1100000100 21.688 43.999 1003.4 25915 16 -297 11 59 51 3 $GNGGA,120307.00,,,,,0,00,99.9,,,,,,*46
26 12 03 08 Nan Nan Nan 1101011001 1100010100 1100101000 10000001000 10000110101 1100000000 1101000110 1110000010 1011101101 1101011111 1011010011 1011111101 10000001101 10000111000 1100011101 1100010100 1100000101 1011111110 21.688 44.022 1003.4 26915 16 -299 12 58 51 3 $GNGGA,120308.00,,,,,0,00,99.9,,,,,,*49
27 12 03 09 Nan Nan Nan 1101011000 1100001111 1100100001 1111111011 10000110110 1100001000 1101001000 1110001000 1011110101 1101011111 1011010010 1011111100 10000010100 10000111011 1100100011 1100010011 1100000100 1011111101 21.688 44.060 1003.4 27915 16 -299 11 58 52 3 $GNGGA,120309.00,,,,,0,00,99.9,,,,,,*48
28 12 03 10 Nan Nan Nan 1101011000 1100010100 1100100101 10000000100 10000110101 1100000101 1101001000 1110001010 1011101100 1101011111 1011010011 1011111111 10000010101 10000111011 1100100010 1100011010 1100001010 1011111111 21.688 44.091 1003.4 28915 17 -301 11 59 51 3 $GNGGA,120310.00,,,,,0,00,99.9,,,,,,*40
29 12 03 11 Nan Nan Nan 1101011000 1100001110 1100100101 10000000010 10000110110 1100000010 1101000101 1110001001 1011101010 1101011111 1011010001 1011111111 10000010101 10000111100 1100100000 1100011001 1100000100 1100000011 21.688 44.152 1003.4 29915 16 -303 11 58 51 4 $GNGGA,120311.00,,,,,0,00,99.9,,,,,,*41
30 12 03 12 Nan Nan Nan 1101011001 1100001110 1100100100 10000000110 10000110111 1100001011 1101010000 1110001111 1011110110 1101011111 1011010101 1100000000 10000010010 10000111001 1100100100 1100010111 1100001000 1011111110 21.688 44.152 1003.4 30915 17 -143 11 59 51 3 $GNGGA,120312.00,,,,,0,00,99.9,,,,,,*42
31 12 03 13 Nan Nan Nan 1101011000 1100001111 1100100011 10000000101 10000110100 1100000111 1101001001 1110000110 1011101110 1101011111 1011010010 1011111111 10000010011 10000111011 1100100000 1100010111 1100001100 1100001001 21.688 44.343 1003.4 31915 16 -303 12 58 51 3 $GNGGA,120313.00,,,,,0,00,99.9,,,,,,*43
32 12 03 14 Nan Nan Nan 1101011000 1100010000 1100101000 10000000101 10000110111 1100000001 1101000110 1110010011 1011110101 1101011111 1011010011 1011111110 10000010000 10000111000 1100011111 1100010101 1100000011 1011111000 21.688 44.472 1003.4 32915 17 -304 11 59 51 3 $GNGGA,120314.00,,,,,0,00,99.9,,,,,,*44
33 12 03 15 Nan Nan Nan 1101011000 1100010010 1100101010 10000000011 10000110101 1100000100 1101000110 1110001111 1011110011 1101011111 1011010001 1011111101 10000001110 10000111000 1100011110 1100010001 1100001001 1011111101 21.688 44.358 1003.4 33915 16 -306 12 58 51 3 $GNGGA,120315.00,,,,,0,00,99.9,,,,,,*45
34 12 03 16 Nan Nan Nan 1101011000 1100010011 1100100111 10000000101 10000110110 1100001001 1101001011 1110000011 1011101011 1101011111 1011010100 1100000000 10000010001 10000111100 1100100100 1100010100 1100001010 1011111111 21.688 44.259 1003.4 34915 16 -306 11 58 52 3 $GNGGA,120316.00,,,,,0,00,99.9,,,,,,*46
35 12 03 17 Nan Nan Nan 1101011000 1100010010 1100101000 10000000110 10000110111 1100001010 1101001011 1110001101 1011110110 1101011111 1011010010 1100000001 10000001100 10000111000 1100011110 1100010000 1100001010 1011111101 21.688 44.198 1003.4 35915 17 -314 11 58 51 3 $GNGGA,120317.00,,,,,0,00,99.9,,,,,,*47
36 12 03 18 Nan Nan Nan 1101011001 1100010010 1100100010 10000000011 10000110011 1100000110 1101000100 1110000110 1011110110 1101011111 1011010100 1100000011 10000001110 10000111001 1100100011 1100010100 1100001001 1011111111 21.688 44.167 1003.4 36915 16 -154 11 58 52 3 $GNGGA,120318.00,,,,,0,00,99.9,,,,,,*48
37 12 03 19 Nan Nan Nan 1101011000 1100010001 1100100101 10000000011 10000110100 1100000100 1101000101 1110001011 1011110110 1101011111 1011010000 1011111100 10000010000 10000111001 1100100001 1100010100 1100001100 1100001011 21.688 44.129 1003.4 37915 17 -316 11 59 51 3 $GNGGA,120319.00,,,,,0,00,99.9,,,,,,*49
38 12 03 20 Nan Nan Nan 1101011000 1100010100 1100101001 10000000100 10000110111 1100000011 1101001000 1110000110 1011110010 1101011111 1011010001 1011111100 10000010011 10000111001 1100100001 1100010111 1100001110 1100000111 21.688 44.137 1003.4 38915 16 -317 12 58 51 3 $GNGGA,120320.00,,,,,0,00,99.9,,,,,,*43
39 12 03 21 Nan Nan Nan 1101011000 1100010101 1100100111 1111111101 10000110100 1100001110 1101010000 1110001011 1011110111 1101011111 1011010010 1011111111 10000010101 10000111001 1100100000 1100011011 1100000100 1011111110 21.688 44.205 1003.4 39915 17 -317 11 59 51 3 $GNGGA,120321.00,,,,,0,00,99.9,,,,,,*42
40 12 03 21 Nan Nan Nan 1101011000 1100001111 1100100011 1111111101 10000110110 1100001010 1101001110 1110000101 1011101110 1101011111 1011010101 1100000000 10000010000 10000111011 1100100001 1100010001 1100001100 1100000011 21.688 44.213 1003.4 40915 16 -767 12 58 51 3 $GNGGA,120321.51,,,,,0,00,4.24,,,,,,*4D
41 12 03 23 Nan Nan Nan 1101011000 1100010011 1100101001 10000000101 10000110100 1100001001 1101001010 1110000110 1011101011 1101011111 1011010010 1011111100 10000010110 10000111011 1100011100 1100010010 1100000001 1100000011 21.688 44.167 1003.4 41915 16 -314 11 59 51 3 $GNGGA,120323.00,,,,,0,00,17.3,,,,,,*4C
42 12 03 24 Nan Nan Nan 1101011000 1100010010 1100100111 10000000000 10000110010 1100001001 1101000111 1110001011 1011110111 1101011111 1011010001 1011111111 10000010001 10000111011 1100011101 1100010000 1100001110 1100001011 21.688 44.167 1003.4 42915 16 -320 12 58 51 3 $GNGGA,120324.00,,,,,0,00,17.3,,,,,,*4B
43 12 03 25 Nan Nan Nan 1101011000 1100010101 1100101001 1111111011 10000110010 1100001001 1101001100 1110010011 1100000001 1101011111 1011010011 1011111100 10000010000 10000111010 1100011101 1100010000 1100000011 1011111110 21.688 44.159 1003.4 43915 16 -322 11 58 52 3 $GNGGA,120325.00,,,,,0,00,17.4,,,,,,*4D
44 12 03 26 Nan Nan Nan 1101011000 1100010001 1100100100 10000000010 10000110110 1100001010 1101001111 1110001110 1011111011 1101011111 1011010001 1011111111 10000010101 10000111010 1100011111 1100011000 1100001001 1100000010 21.688 44.098 1003.4 44915 17 -322 11 59 51 3 $GNGGA,120326.00,,,,,0,00,2.84,,,,,,*42
45 12 03 27 Nan Nan Nan 1101011000 1100010000 1100100110 10000000000 10000110011 1100001010 1101001000 1110001001 1011111010 1101011111 1011010010 1011111111 10000010000 10000111000 1100011101 1100010011 1100000110 1100000011 21.688 44.045 1003.4 45915 16 -323 11 58 51 4 $GNGGA,120327.00,,,,,0,00,2.84,,,,,,*43
46 12 03 28 Nan Nan Nan 1101011000 1100010010 1100100111 10000000000 10000110011 1100001000 1101001001 1110001010 1011111110 1101011111 1011010010 1100000000 10000010011 10000111000 1100011110 1100010011 1100001101 1100001011 21.688 44.022 1003.4 46915 17 -324 11 59 51 3 $GNGGA,120328.00,,,,,0,00,2.84,,,,,,*4C
47 12 03 29 4333.6879300128.72260189.9~ 00128.72260 189.9 1101011000 1100010101 1100101001 1111111010 10000110100 1100001001 1101001000 1110000011 1011110010 1101011111 1011001111 1011111100 10000010010 10000111010 1100011110 1100010011 1100000111 1100000011 21.688 44.053 1003.4 47915 16 -314 15 58 51 3 $GNGGA,120329.00,4333.68793,N,00128.72260,E,1,05,2.84,189.9,M,53.8,M,,*4B
48 12 03 30 4333.6879500128.72302190.4~ 00128.72302 190.4 1101011001 1100010101 1100101000 10000000100 10000110101 1100001001 1101001000 1110000111 1011110010 1101011111 1011010100 1011111100 10000010101 10000111010 1100100000 1100010101 1011111110 1011110111 21.688 44.091 1003.4 48915 17 -316 14 59 51 3 $GNGGA,120330.00,4333.68795,N,00128.72302,E,1,05,2.84,190.4,M,53.8,M,,*45
49 12 03 31 4333.6879200128.72264191.4~ 00128.72264 191.4 1101011000 1100010010 1100100111 1111111010 10000110101 1100000110 1101001001 1110000111 1011101101 1101011111 1011010010 1011111101 10000001110 10000111000 1100100001 1100010000 1100001000 1100001000 21.688 44.060 1003.4 49915 16 -316 15 58 51 3 $GNGGA,120331.00,4333.68792,N,00128.72264,E,1,05,2.84,191.4,M,53.8,M,,*43
50 12 03 32 4333.6884600128.72332189.1~ 00128.72332 189.1 1101011000 1100010000 1100100001 10000000100 10000110011 1100001100 1101001011 1110001101 1011110011 1101011111 1011001111 1011111101 10000010010 10000111010 1100100000 1100010110 1100000111 1011111110 21.688 44.114 1003.4 50915 16 -318 14 58 52 3 $GNGGA,120332.00,4333.68846,N,00128.72332,E,1,05,2.84,189.1,M,53.8,M,,*48
51 12 03 33 4333.6885200128.72331189.6~ 00128.72331 189.6 1101011000 1100001110 1100100011 10000000011 10000110111 1100001000 1101001011 1110010001 1011110101 1101011111 1011010101 1011111111 10000001111 10000111001 1100011111 1100010101 1100000101 1011111110 21.688 44.205 1003.4 51915 16 -318 15 58 51 3 $GNGGA,120333.00,4333.68852,N,00128.72331,E,1,05,2.84,189.6,M,53.8,M,,*48
52 12 03 34 4333.6889200128.72382189.0~ 00128.72382 189.0 1101011000 1100010010 1100101000 10000000011 10000110101 1100000011 1101000010 1110001001 1011110001 1101011111 1011010010 1011111110 10000001110 10000111010 1100011000 1100001111 1100000011 1011111110 21.688 44.259 1003.4 52915 16 -319 14 58 52 3 $GNGGA,120334.00,4333.68892,N,00128.72382,E,1,05,2.84,189.0,M,53.8,M,,*4D
53 12 03 35 4333.6890200128.72494188.1~ 00128.72494 188.1 1101011000 1100010100 1100100110 10000000010 10000110100 1100000110 1101000100 1110000001 1011101111 1101011111 1011010110 1100000000 10000001011 10000111000 1100011010 1100010000 1100000011 1011111100 21.688 44.282 1003.4 53915 17 -320 14 59 51 3 $GNGGA,120335.00,4333.68902,N,00128.72494,E,1,05,2.84,188.1,M,53.8,M,,*44
54 12 03 36 4333.6888500128.72601186.9~ 00128.72601 186.9 1101011000 1100010011 1100100111 10000000100 10000110110 1100000010 1101000100 1110000110 1011101110 1101011111 1011001110 1011111101 10000011011 10000111100 1100100001 1100010011 1100000110 1100000110 21.688 44.266 1003.4 54915 16 -321 15 58 51 3 $GNGGA,120336.00,4333.68885,N,00128.72601,E,1,05,2.84,186.9,M,53.8,M,,*41
55 12 03 37 4333.6885900128.72594187.8~ 00128.72594 187.8 1101011000 1100010010 1100100110 10000000111 10000111011 1100001100 1101001100 1110000101 1011110111 1101011111 1011010001 1011111110 10000010010 10000111010 1100010101 1100001111 1100000010 1100000000 21.688 44.220 1003.4 55915 17 -323 14 59 51 3 $GNGGA,120337.00,4333.68859,N,00128.72594,E,1,05,2.84,187.8,M,53.8,M,,*4E
56 12 03 38 4333.6890600128.72643186.7~ 00128.72643 186.7 1101011000 1100001111 1100100100 1111111111 10000110010 1100001000 1101000101 1110000111 1011110001 1101011111 1011010110 1011111111 10000010010 10000111001 1100100010 1100011011 1100000011 1100000001 21.688 44.190 1003.4 56915 16 -323 15 58 51 3 $GNGGA,120338.00,4333.68906,N,00128.72643,E,1,05,2.84,186.7,M,53.8,M,,*4D
57 12 03 39 4333.6889100128.72698186.3~ 00128.72698 186.3 1101011000 1100001111 1100100100 10000000101 10000111000 1100001010 1101001110 1110001001 1011110111 1101011111 1011010011 1011111111 10000010000 10000111000 1100100000 1100010011 1100001100 1011111101 21.688 44.121 1003.4 57915 17 -325 14 59 51 3 $GNGGA,120339.00,4333.68891,N,00128.72698,E,1,05,2.84,186.3,M,53.8,M,,*41
58 12 03 40 4333.6892700128.72682186.2~ 00128.72682 186.2 1101011000 1100001111 1100100011 10000000000 10000110101 1100001011 1101001001 1110001011 1011111000 1101011111 1011010101 1100000010 10000010110 10000111001 1100100010 1100011000 1100000111 1100000010 21.688 44.106 1003.4 58915 16 -327 15 58 51 3 $GNGGA,120340.00,4333.68927,N,00128.72682,E,1,05,2.84,186.2,M,53.8,M,,*49
59 12 03 41 4333.6888900128.72670187.1~ 00128.72670 187.1 1101011000 1100010100 1100101010 10000000000 10000110100 1100001010 1101001010 1110001100 1011110011 1101011111 1011010001 1011111101 10000010001 10000111000 1100011010 1100010001 1100000001 1011110111 21.688 44.068 1003.4 59915 16 -326 14 58 52 3 $GNGGA,120341.00,4333.68889,N,00128.72670,E,1,05,2.84,187.1,M,53.8,M,,*42
60 12 03 42 4333.6889700128.72679186.5~ 00128.72679 186.5 1101011000 1100010001 1100100011 10000000011 10000110101 1100000010 1101000100 1110000111 1011110110 1101011111 1011010001 1011111110 10000010100 10000111011 1100011110 1100010100 1100000000 1011111000 21.688 44.037 1003.4 60915 17 -328 14 59 51 3 $GNGGA,120342.00,4333.68897,N,00128.72679,E,1,05,2.84,186.5,M,53.8,M,,*42
61 12 03 43 4333.6893900128.72673185.7~ 00128.72673 185.7 1101011000 1100010001 1100100111 10000000001 10000110110 1100001100 1101001010 1110001110 1011110110 1101011111 1011001111 1011111011 10000011000 10000111010 1100011100 1100010001 1100000101 1100000001 21.688 44.037 1003.4 61915 16 -328 14 58 51 4 $GNGGA,120343.00,4333.68939,N,00128.72673,E,1,05,2.85,185.7,M,53.8,M,,*4C
62 12 03 44 4333.6895500128.72697184.6~ 00128.72697 184.6 1101011000 1100010001 1100100111 10000000101 10000110101 1100000001 1101000010 1110001001 1011110101 1101011111 1011010011 1100000000 10000010101 10000111011 1100011100 1100010011 1100000111 1100000101 21.688 44.053 1003.4 62915 17 -329 14 59 51 3 $GNGGA,120344.00,4333.68955,N,00128.72697,E,1,05,2.85,184.6,M,53.8,M,,*4B
63 12 03 45 4333.6895300128.72652185.1~ 00128.72652 185.1 1101011000 1100010010 1100100101 10000001000 10000111000 1100000100 1101001010 1110010001 1011111000 1101011111 1011010100 1011111111 10000001111 10000111001 1100011111 1100010000 1100000101 1100000011 21.688 44.091 1003.4 63915 16 -329 15 58 51 3 $GNGGA,120345.00,4333.68953,N,00128.72652,E,1,05,2.85,185.1,M,53.8,M,,*43
64 12 03 46 4333.6898300128.72652183.9~ 00128.72652 183.9 1101011000 1100010000 1100100101 1111111111 10000110101 1100000110 1101000010 1110001111 1011111010 1101011111 1011010010 1011111101 10000001100 10000110110 1100010111 1100001011 1100001100 1100000101 21.688 44.137 1003.4 64915 17 -331 14 59 51 3 $GNGGA,120346.00,4333.68983,N,00128.72652,E,1,05,2.85,183.9,M,53.8,M,,*43
65 12 03 47 4333.6903200128.72635182.6~ 00128.72635 182.6 1101011000 1100010011 1100100110 1111111111 10000110100 1100001010 1101001010 1110001110 1011111110 1101011111 1011010001 1100000001 10000010000 10000111010 1100011110 1100010101 1100000111 1100000111 21.688 44.175 1003.4 65915 16 -332 15 58 51 3 $GNGGA,120347.00,4333.69032,N,00128.72635,E,1,05,2.85,182.6,M,53.8,M,,*4F
66 12 03 48 4333.6905300128.72632181.8~ 00128.72632 181.8 1101011000 1100010001 1100100101 10000001001 10000111001 1100000111 1101001100 1110001111 1011111010 1101011111 1011010100 1100000000 10000010011 10000111000 1100011110 1100010001 1100001001 1100001000 21.688 44.175 1003.4 66915 16 -333 14 58 52 3 $GNGGA,120348.00,4333.69053,N,00128.72632,E,1,05,2.85,181.8,M,53.8,M,,*4D
67 12 03 49 4333.6905400128.72658181.6~ 00128.72658 181.6 1101011000 1100010001 1100100101 10000000001 10000110101 1100000111 1101001010 1110001010 1011111001 1101011111 1011001111 1011111110 10000010011 10000111011 1100011101 1100010000 1100000000 1011110100 21.688 44.175 1003.4 67915 16 -335 15 58 51 3 $GNGGA,120349.00,4333.69054,N,00128.72658,E,1,05,2.85,181.6,M,53.8,M,,*49
68 12 03 50 4333.6907300128.72668180.6~ 00128.72668 180.6 1101011000 1100010001 1100100101 10000000001 10000110110 1100000110 1101000101 1110010000 1011110100 1101011111 1011010100 1011111111 10000001111 10000111001 1100100001 1100010101 1100001000 1011111001 21.688 44.228 1003.4 68915 16 -335 14 58 52 3 $GNGGA,120350.00,4333.69073,N,00128.72668,E,1,05,2.85,180.6,M,53.8,M,,*46
69 12 03 51 4333.6910500128.72661180.3~ 00128.72661 180.3 1101011000 1100001111 1100100011 10000001000 10000111000 1100001011 1101010001 1110001101 1011111001 1101011111 1011010010 1011111100 10000001011 10000111000 1100100000 1100010100 1100000101 1011111010 21.688 44.304 1003.4 69915 17 -338 14 59 51 3 $GNGGA,120351.00,4333.69105,N,00128.72661,E,1,05,2.85,180.3,M,53.8,M,,*4B
70 12 03 52 4333.6909800128.72675179.8~ 00128.72675 179.8 1101011000 1100010001 1100100100 10000000100 10000110011 1100001000 1101001010 1110001100 1011110101 1101011111 1011010100 1100000000 10000001111 10000111001 1100011100 1100010011 1100000011 1011111100 21.688 44.350 1003.4 70915 16 -337 15 58 51 3 $GNGGA,120352.00,4333.69098,N,00128.72675,E,1,05,2.85,179.8,M,53.8,M,,*45
71 12 03 53 4333.6913100128.72619180.0~ 00128.72619 180.0 1101011000 1100010000 1100100011 10000001100 10000110111 1100001010 1101001001 1110000011 1011110111 1101011111 1011010010 1100000001 10000001001 10000111000 1100100011 1100011000 1100000101 1100000000 21.688 44.381 1003.4 71915 17 -338 14 59 51 3 $GNGGA,120353.00,4333.69131,N,00128.72619,E,1,05,2.85,180.0,M,53.8,M,,*42
72 12 03 54 4333.6908000128.72652180.0~ 00128.72652 180.0 1101011001 1100010001 1100100110 10000001010 10000110111 1100000111 1101001011 1110001010 1011110001 1101011111 1011010100 1100000000 10000000110 10000110111 1100011111 1100010101 1100000101 1011111111 21.625 44.404 1003.4 72915 16 -340 15 58 51 3 $GNGGA,120354.00,4333.69080,N,00128.72652,E,1,05,2.85,180.0,M,53.8,M,,*41
73 12 03 55 4333.6905100128.72630181.1~ 00128.72630 181.1 1101011000 1100010010 1100100101 10000000000 10000110100 1100001000 1101001000 1110000010 1011101011 1101011111 1011001100 1011111100 10000001100 10000110111 1100100010 1100010110 1100000010 1011111111 21.688 44.388 1003.4 73915 17 -338 14 59 51 3 $GNGGA,120355.00,4333.69051,N,00128.72630,E,1,05,2.85,181.1,M,53.8,M,,*48
74 12 03 56 4333.6907900128.72648180.4~ 00128.72648 180.4 1101011000 1100010001 1100100110 10000000110 10000110110 1100000111 1101001110 1101111111 1011101111 1101011111 1011010001 1011111110 10000001100 10000111010 1100011100 1100010001 1100010010 1100000100 21.688 44.343 1003.4 74915 16 -340 15 58 51 3 $GNGGA,120356.00,4333.69079,N,00128.72648,E,1,05,2.85,180.4,M,53.8,M,,*4A
75 12 03 57 4333.6907200128.72672179.8~ 00128.72672 179.8 1101011000 1100010010 1100100101 10000000100 10000110100 1100000100 1101000100 1110000100 1011110111 1101011111 1011010010 1011111110 10000010011 10000111010 1100100000 1100010100 1100001100 1100001001 21.688 44.282 1003.4 75915 16 -341 14 58 52 3 $GNGGA,120357.00,4333.69072,N,00128.72672,E,1,05,2.85,179.8,M,53.8,M,,*43
76 12 03 58 4333.6907900128.72659179.5~ 00128.72659 179.5 1101011000 1100010100 1100100110 10000000010 10000110111 1100000011 1101000110 1110000111 1011110000 1101011111 1011010011 1011111110 10000010010 10000111001 1100011110 1100010010 1100001100 1100000100 21.688 44.220 1003.4 76915 17 -345 14 59 51 3 $GNGGA,120358.00,4333.69079,N,00128.72659,E,1,05,2.85,179.5,M,53.8,M,,*43
77 12 03 59 4333.6903200128.72712178.9~ 00128.72712 178.9 1101011001 1100010001 1100100111 1111111111 10000110111 1100001110 1101010011 1101111111 1011110001 1101011111 1011010100 1011111101 10000010100 10000111010 1100011110 1100010010 1100001000 1011111101 21.688 44.182 1003.4 77915 16 -344 14 58 51 4 $GNGGA,120359.00,4333.69032,N,00128.72712,E,1,05,2.85,178.9,M,53.8,M,,*4E
78 12 04 00 4333.6901600128.72735177.8~ 00128.72735 177.8 1101011000 1100010100 1100100111 1111111111 10000110001 1100001011 1101001101 1110000010 1011110000 1101011111 1011010101 1100000001 10000010000 10000111001 1100100001 1100010000 1100000111 1011111010 21.688 44.228 1003.4 78915 17 -345 14 59 51 3 $GNGGA,120400.00,4333.69016,N,00128.72735,E,1,05,2.85,177.8,M,53.8,M,,*48
79 12 04 01 4333.6897500128.72810176.6~ 00128.72810 176.6 1101011001 1100001110 1100100100 10000000010 10000110010 1100000001 1100111111 1110000111 1011110011 1101011111 1011001110 1011111110 10000010010 10000111010 1100100010 1100011001 1100000011 1100000001 21.688 44.228 1003.4 79915 16 -345 15 58 51 3 $GNGGA,120401.00,4333.68975,N,00128.72810,E,1,05,2.85,176.6,M,53.8,M,,*43
80 12 04 02 4333.6898400128.72828175.6~ 00128.72828 175.6 1101011000 1100010011 1100100101 1111111101 10000110101 1100000111 1101000100 1110000100 1011110000 1101011111 1011010000 1100000000 10000010010 10000111010 1100011010 1100001100 1100000101 1011111001 21.688 44.182 1003.4 80915 17 -347 14 59 51 3 $GNGGA,120402.00,4333.68984,N,00128.72828,E,1,05,2.85,175.6,M,53.8,M,,*46
81 12 04 03 4333.6894900128.72845175.1~ 00128.72845 175.1 1101011000 1100001111 1100100101 10000000000 10000110101 1100001010 1101001010 1110000010 1011100111 1101011111 1011010011 1011111110 10000010111 10000111001 1100011101 1100010101 1100000100 1011111000 21.688 44.159 1003.4 81915 16 -348 15 58 51 3 $GNGGA,120403.00,4333.68949,N,00128.72845,E,1,05,2.85,175.1,M,53.8,M,,*4A
82 12 04 04 4333.6891800128.72894174.4~ 00128.72894 174.4 1101011000 1100001110 1100100100 10000000110 10000111000 1100001000 1101001000 1110000110 1011110010 1101011111 1011010000 1011111101 10000010010 10000111001 1100100101 1100010100 1100000111 1011111100 21.688 44.144 1003.4 82915 17 -349 14 58 52 3 $GNGGA,120404.00,4333.68918,N,00128.72894,E,1,05,2.85,174.4,M,53.8,M,,*41
83 12 04 05 4333.6888300128.72963173.5~ 00128.72963 173.5 1101011000 1100010110 1100101011 1111111101 10000110100 1100000101 1101001011 1101111111 1011101110 1101011111 1011010010 1100000000 10000001111 10000111000 1100011101 1100010100 1100001000 1011111101 21.625 44.144 1003.4 83915 16 -349 15 58 51 3 $GNGGA,120405.00,4333.68883,N,00128.72963,E,1,05,2.85,173.5,M,53.8,M,,*4C
84 12 04 06 4333.6884000128.73032172.6~ 00128.73032 172.6 1101011000 1100001110 1100100010 1111111111 10000110111 1100000011 1101000101 1101111111 1011110000 1101011111 1011010110 1100000000 10000001101 10000111000 1100011110 1100010011 1100001010 1011111110 21.625 44.121 1003.4 84915 16 -351 14 58 52 3 $GNGGA,120406.00,4333.68840,N,00128.73032,E,1,05,2.85,172.6,M,53.8,M,,*4E
85 12 04 07 4333.6883400128.73055172.0~ 00128.73055 172.0 1101011001 1100010001 1100100011 1111111100 10000110100 1100000111 1101000101 1110000010 1011110110 1101011111 1011010010 1011111110 10000001100 10000110111 1100100000 1100010101 1100000011 1011111001 21.688 44.129 1003.4 85915 17 -352 14 59 51 3 $GNGGA,120407.00,4333.68834,N,00128.73055,E,1,05,2.85,172.0,M,53.8,M,,*4B
86 12 04 08 4333.6884900128.73075171.5~ 00128.73075 171.5 1101011000 1100001111 1100100011 10000000001 10000110110 1100000001 1101000011 1110000100 1011111000 1101011111 1011010010 1011111101 10000001111 10000111010 1100100000 1100010001 1100001010 1100001000 21.625 44.213 1003.4 86915 16 -353 15 58 51 3 $GNGGA,120408.00,4333.68849,N,00128.73075,E,1,05,2.85,171.5,M,53.8,M,,*4A
87 12 04 09 4333.6886000128.73062171.1~ 00128.73062 171.1 1101011000 1100010001 1100100101 10000000001 10000111000 1100001001 1101001011 1110001001 1011110111 1101011111 1011010010 1011111110 10000010000 10000111010 1100011110 1100010110 1100000011 1011110111 21.625 44.297 1003.4 87915 17 -355 14 59 51 3 $GNGGA,120409.00,4333.68860,N,00128.73062,E,1,05,2.85,171.1,M,53.8,M,,*42
88 12 04 10 4333.6886700128.73046170.7~ 00128.73046 170.7 1101011000 1100010100 1100101010 10000000010 10000110110 1100000100 1101000010 1101111100 1011101101 1101011111 1011010010 1011111110 10000001101 10000111001 1100011111 1100010101 1100000011 1011111101 21.625 44.282 1003.4 88915 16 -356 15 58 51 3 $GNGGA,120410.00,4333.68867,N,00128.73046,E,1,05,2.85,170.7,M,53.8,M,,*4C
89 12 04 11 4333.6887100128.73061170.0~ 00128.73061 170.0 1101011000 1100001111 1100100100 10000000010 10000110110 1100000110 1101000100 1101111111 1011100110 1101011111 1011010000 1011111101 10000001100 10000111010 1100011110 1100010011 1011111111 1011111010 21.688 44.335 1003.4 89915 17 -356 14 59 51 3 $GNGGA,120411.00,4333.68871,N,00128.73061,E,1,05,2.85,170.0,M,53.8,M,,*48
90 12 04 12 4333.6888300128.73071169.6~ 00128.73071 169.6 1101011000 1100010000 1100100101 10000000001 10000110001 1100001000 1101000111 1110000100 1011101110 1101011111 1011010001 1011111110 10000010000 10000111011 1100100000 1100010110 1100000010 1011111101 21.625 44.358 1003.4 90915 16 -356 15 58 51 3 $GNGGA,120412.00,4333.68883,N,00128.73071,E,1,05,2.85,169.6,M,53.8,M,,*49
91 12 04 13 4333.6888400128.73072169.4~ 00128.73072 169.4 1101011000 1100010000 1100100101 1111111110 10000110011 1100001000 1101001001 1110001110 1011110001 1101011111 1011010101 1011111111 10000001111 10000111001 1100100000 1100010101 1100001001 1100000010 21.625 44.335 1003.4 91915 16 -358 14 58 52 3 $GNGGA,120413.00,4333.68884,N,00128.73072,E,1,05,2.85,169.4,M,53.8,M,,*4E
92 12 04 14 4333.6887200128.73114168.6~ 00128.73114 168.6 1101011000 1100010011 1100101000 10000000110 10000110111 1100000100 1101001010 1110000110 1011110001 1101011111 1011010001 1011111110 10000010001 10000111001 1100011000 1100010001 1100001101 1100000100 21.625 44.320 1003.4 92915 17 -358 14 59 51 3 $GNGGA,120414.00,4333.68872,N,00128.73114,E,1,05,2.85,168.6,M,53.8,M,,*42
93 12 04 15 4333.6888800128.73092168.9~ 00128.73092 168.9 1101011000 1100010000 1100100110 1111111010 10000110010 1100001000 1101000101 1110000001 1011101111 1101011111 1011010110 1100000010 10000010001 10000111001 1100011101 1100010100 1100000101 1011111100 21.688 44.236 1003.4 93915 16 -360 14 58 51 4 $GNGGA,120415.00,4333.68888,N,00128.73092,E,1,05,2.85,168.9,M,53.8,M,,*46
94 12 04 16 4333.6889900128.73102168.7~ 00128.73102 168.7 1101011000 1100010010 1100100111 1111111111 10000110110 1100000010 1101000011 1110001011 1011101100 1101011111 1011010110 1100000010 10000000111 10000110111 1100100000 1100010110 1100000011 1011111000 21.625 44.190 1003.4 94915 17 -360 14 59 51 3 $GNGGA,120416.00,4333.68899,N,00128.73102,E,1,05,2.85,168.7,M,53.8,M,,*43
95 12 04 17 4333.6890800128.73124168.4~ 00128.73124 168.4 1101011000 1100010000 1100100101 10000000000 10000111000 1100000110 1101001001 1110001100 1011110001 1101011111 1011010010 1011111111 10000001101 10000111000 1100011101 1100010110 1100000001 1100000001 21.625 44.129 1003.4 95915 16 -361 15 58 51 3 $GNGGA,120417.00,4333.68908,N,00128.73124,E,1,05,2.85,168.4,M,53.8,M,,*4C
96 12 04 18 4333.6891700128.73141168.3~ 00128.73141 168.3 1101011000 1100010001 1100100011 1111111100 10000111000 1100000111 1101001001 1110001101 1011101101 1101011111 1011010000 1011111101 10000010000 10000111001 1100011101 1100001111 1100000001 1100000001 21.688 44.091 1003.4 96915 17 -363 14 59 51 3 $GNGGA,120418.00,4333.68917,N,00128.73141,E,1,05,2.85,168.3,M,53.8,M,,*49
97 12 04 19 4333.6893600128.73133168.4~ 00128.73133 168.4 1101011000 1100010001 1100100100 1111111011 10000110011 1100000011 1101001001 1110000111 1011101101 1101011111 1011010100 1011111111 10000001000 10000111001 1100011101 1100001111 1100000110 1011111111 21.625 44.106 1003.4 97915 16 -363 15 58 51 3 $GNGGA,120419.00,4333.68936,N,00128.73133,E,1,05,2.85,168.4,M,53.8,M,,*49
98 12 04 20 4333.6895500128.73155168.2~ 00128.73155 168.2 1101011001 1100001111 1100100110 10000000011 10000110110 1100001010 1101001101 1110001100 1011110111 1101011111 1011010110 1100000000 10000001010 10000110111 1100011110 1100010010 1100000100 1011111110 21.625 44.114 1003.4 98915 16 -367 14 58 52 3 $GNGGA,120420.00,4333.68955,N,00128.73155,E,1,05,2.85,168.2,M,53.8,M,,*40
99 12 04 21 4333.6898500128.73184168.0~ 00128.73184 168.0 1101011000 1100001101 1100100101 10000000000 10000110011 1100000101 1101000110 1110001011 1011110111 1101011111 1011010011 1011111111 10000001111 10000111001 1100011111 1100010010 1100000110 1100000001 21.625 44.129 1003.4 99915 16 -365 15 58 51 3 $GNGGA,120421.00,4333.68985,N,00128.73184,E,1,05,2.85,168.0,M,53.8,M,,*42
