id HH MM SS longitude latitude altitude adc_1_ch0 adc_1_ch1 adc_1_ch2 adc_1_ch3 adc_1_ch4 adc_1_ch5 adc_1_ch6 adc_1_ch7 adc_1_ch8 adc_2_ch0 adc_2_ch1 adc_2_ch2 adc_2_ch3 adc_2_ch4 adc_2_ch5 adc_2_ch6 adc_2_ch7 adc_2_ch8 temp hum pres t_prog t_gps t_split t_adc t_temp t_hum t_pres trame_gga
0 12 04 35 4333.6898800128.73305167.5~ 00128.73305 167.5 1101011000 1100010001 1100101000 10000000000 10000110110 1100000100 1101001000 1110001100 1011110011 1101011111 1011010001 1011111100 10000010100 10000111001 1100011100 1100010001 1011111100 1011111001 21.688 44.068 795.83 1034 16 -125 14 59 51 4 $GNGGA,120435.00,4333.68988,N,00128.73305,E,1,05,2.86,167.5,M,53.8,M,,*48
1 12 04 36 4333.6898400128.73301167.4~ 00128.73301 167.4 1101011000 1100010001 1100100110 10000001011 10000111010 1100000100 1101001000 1110000101 1011110010 1101011111 1011010001 1011111111 10000000110 10000110110 1100011101 1100010010 1100001000 1011111100 21.625 44.045 1003.4 2032 18 -126 13 59 51 4 $GNGGA,120436.00,4333.68984,N,00128.73301,E,1,05,2.86,167.4,M,53.8,M,,*42
1 12 04 37 4333.6898100128.73280167.5~ 00128.73280 167.5 1101011001 1100010100 1100100111 10000000001 10000110011 1100000101 1101000111 1110001100 1011110000 1101011111 1011010011 1011111111 10000010011 10000111001 1100011110 1100010100 1100000001 1011111110 21.625 44.022 1003.4 3031 16 -125 15 58 51 3 $GNGGA,120437.00,4333.68981,N,00128.73280,E,1,05,2.86,167.5,M,53.8,M,,*4F
1 12 04 38 4333.6898000128.73228167.8~ 00128.73228 167.8 1101011001 1100001111 1100100110 10000000100 10000110010 1100000100 1101000100 1110000101 1011111001 1101011111 1011010010 1011111110 10000001001 10000111000 1100011111 1100010001 1100000011 1011111110 21.625 44.007 1003.4 4028 17 -126 14 60 50 4 $GNGGA,120438.00,4333.68980,N,00128.73228,E,1,05,2.86,167.8,M,53.8,M,,*4E
2 12 04 39 4333.6895900128.73225167.7~ 00128.73225 167.7 1101011000 1100010010 1100101000 10000000110 10000110111 1100000100 1101000101 1110001001 1011110001 1101011111 1011010100 1011111100 10000010011 10000111010 1100011000 1100010100 1100001100 1100000111 21.625 44.007 1003.4 5028 17 -126 14 58 51 4 $GNGGA,120439.00,4333.68959,N,00128.73225,E,1,05,2.86,167.7,M,53.8,M,,*49
2 12 04 40 4333.6894000128.73228167.2~ 00128.73228 167.2 1101011001 1100001111 1100100011 10000000011 10000110111 1011111111 1101000110 1110000111 1011110010 1101011111 1011010001 1011111010 10000010000 10000111001 1100011101 1100011000 1100000110 1011111100 21.625 44.007 1003.4 6028 16 -126 14 59 52 3 $GNGGA,120440.00,4333.68940,N,00128.73228,E,1,05,2.86,167.2,M,53.8,M,,*47
3 12 04 41 4333.6892300128.73213167.0~ 00128.73213 167.0 1101011001 1100010010 1100100111 10000000000 10000110100 1100000111 1101001000 1110001000 1011110010 1101011111 1011010100 1011111111 10000010001 10000110111 1100011100 1100010100 1100000010 1100000000 21.625 43.999 1003.4 7027 16 -126 15 59 50 4 $GNGGA,120441.00,4333.68923,N,00128.73213,E,1,05,2.86,167.0,M,53.8,M,,*49
3 12 04 42 4333.6890400128.73220166.4~ 00128.73220 166.4 1101011000 1100010000 1100100011 1111111110 10000110100 1100000100 1101001000 1110000101 1011101111 1101011111 1011010011 1100000000 10000010011 10000111010 1100100001 1100010111 1100001010 1100000011 21.625 43.992 1003.4 8026 17 -126 13 58 51 5 $GNGGA,120442.00,4333.68904,N,00128.73220,E,1,05,2.86,166.4,M,53.8,M,,*4A
4 12 04 43 4333.6889800128.73217166.3~ 00128.73217 166.3 1101011000 1100001100 1100100011 10000000000 10000111000 1100000100 1101001001 1110001000 1011111110 1101011111 1011010010 1011111110 10000010100 10000111101 1100011011 1100001100 1100000111 1011111110 21.625 43.992 1003.4 9025 18 -126 13 59 51 4 $GNGGA,120443.00,4333.68898,N,00128.73217,E,1,05,2.86,166.3,M,53.8,M,,*4C
4 12 04 44 4333.6888700128.73213166.2~ 00128.73213 166.2 1101011001 1100010110 1100101010 10000000000 10000110100 1100000110 1101000101 1110000010 1011110100 1101011111 1011010011 1011111111 10000010000 10000111001 1100010111 1100010001 1100000010 1100000001 21.625 43.984 1003.4 10024 16 -126 15 59 51 3 $GNGGA,120444.00,4333.68887,N,00128.73213,E,1,05,2.86,166.2,M,53.8,M,,*40
5 12 04 45 4333.6886600128.73213165.8~ 00128.73213 165.8 1101011001 1100010101 1100100101 1111111111 10000110111 1100001011 1101001001 1101111110 1011101010 1101011111 1011010011 1011111100 10000010111 10000111001 1100011111 1100010100 1100000011 1011111011 21.625 44.022 1003.4 11023 17 -126 14 60 50 4 $GNGGA,120445.00,4333.68866,N,00128.73213,E,1,05,2.86,165.8,M,53.8,M,,*47
5 12 04 46 4333.6885000128.73179165.5~ 00128.73179 165.5 1101011000 1100010001 1100100101 10000000011 10000111001 1100000111 1101001000 1110000000 1011110011 1101011111 1011010011 1011111101 10000010110 10000111000 1100100000 1100010100 1100001001 1011111100 21.625 44.022 1003.4 12022 17 -126 14 58 51 4 $GNGGA,120446.00,4333.68850,N,00128.73179,E,1,05,2.86,165.5,M,53.8,M,,*43
5 12 04 47 4333.6884800128.73136165.6~ 00128.73136 165.6 1101011000 1100010110 1100101100 1111111101 10000110011 1100000110 1101000100 1110000011 1011101110 1101011111 1011010101 1011111111 10000010101 10000111010 1100011101 1100010001 1100000110 1100000100 21.625 44.030 1003.4 13022 16 -126 14 59 52 3 $GNGGA,120447.00,4333.68848,N,00128.73136,E,1,05,2.86,165.6,M,53.8,M,,*43
5 12 04 48 4333.6883400128.73150165.0~ 00128.73150 165.0 1101011000 1100001111 1100100011 10000000010 10000110011 1100000110 1101000010 1110001000 1011110010 1101011111 1011010000 1011111110 10000010001 10000111010 1100100011 1100010111 1100000001 1011111000 21.625 44.037 1003.4 14020 17 -126 14 60 51 3 $GNGGA,120448.00,4333.68834,N,00128.73150,E,1,05,2.86,165.0,M,53.8,M,,*41
5 12 04 49 4333.6881500128.73144164.6~ 00128.73144 164.6 1101011001 1100010010 1100100111 10000000001 10000110010 1011111110 1101000010 1110001010 1011110111 1101011111 1011010000 1011111110 10000011011 10000111011 1100100010 1100011000 1100001010 1100000111 21.625 44.037 1003.4 15017 16 -126 15 59 50 4 $GNGGA,120449.00,4333.68815,N,00128.73144,E,1,05,2.86,164.6,M,53.8,M,,*41
6 12 04 50 4333.6880800128.73102164.3~ 00128.73102 164.3 1101011000 1100001111 1100100101 10000000010 10000110110 1100001011 1101001101 1110001110 1011110010 1101011111 1011010010 1011111110 10000001101 10000111010 1100100000 1100010100 1100000110 1011111110 21.625 44.045 1003.4 16018 17 -126 14 60 50 4 $GNGGA,120450.00,4333.68808,N,00128.73102,E,1,05,2.86,164.3,M,53.8,M,,*42
6 12 04 51 4333.6880100128.73062164.2~ 00128.73062 164.2 1101011001 1100010001 1100100110 10000000011 10000110010 1100001000 1101000100 1110001110 1011110000 1101011111 1011010010 1011111101 10000010000 10000111001 1100011110 1100010110 1100000011 1011111110 21.625 44.045 1003.4 17017 16 -126 15 59 51 3 $GNGGA,120451.00,4333.68801,N,00128.73062,E,1,05,2.86,164.2,M,53.8,M,,*4C
6 12 04 52 4333.6880000128.72991164.5~ 00128.72991 164.5 1101011001 1100010001 1100100101 10000000110 10000110110 1100000010 1101000100 1110000101 1011101111 1101011111 1011010010 1011111111 10000010000 10000111000 1100011101 1100010010 1100000111 1100000001 21.625 44.060 1003.4 18017 16 -126 14 59 52 3 $GNGGA,120452.00,4333.68800,N,00128.72991,E,1,05,2.86,164.5,M,53.8,M,,*4D
7 12 04 53 4333.6878500128.72972164.2~ 00128.72972 164.2 1101011000 1100010000 1100100100 10000000110 10000110111 1100000010 1101000111 1110001101 1011110101 1101011111 1011010000 1011111110 10000010100 10000111000 1100100100 1100010111 1100000101 1100000001 21.625 44.060 1003.4 19015 18 -126 13 59 51 4 $GNGGA,120453.00,4333.68785,N,00128.72972,E,1,05,2.86,164.2,M,53.8,M,,*44
7 12 04 54 4333.6876500128.72977163.6~ 00128.72977 163.6 1101011000 1100010001 1100100101 10000000111 10000111000 1100000110 1101001000 1110000101 1011110001 1101011111 1011010011 1011111110 10000010000 10000111001 1100100000 1100010010 1100001000 1011111111 21.625 44.076 1003.4 20015 17 -126 13 58 51 5 $GNGGA,120454.00,4333.68765,N,00128.72977,E,1,05,2.86,163.6,M,53.8,M,,*4B
7 12 04 55 4333.6875100128.72966163.3~ 00128.72966 163.3 1101011001 1100001111 1100100100 10000000011 10000110111 1100000111 1101001000 1110001000 1011111000 1101011111 1011010010 1011111101 10000010000 10000111001 1100100010 1100011000 1100000111 1011111111 21.625 44.129 1003.4 21013 17 -126 14 60 50 4 $GNGGA,120455.00,4333.68751,N,00128.72966,E,1,05,2.86,163.3,M,53.8,M,,*48
7 12 04 56 4333.6874000128.72938163.2~ 00128.72938 163.2 1101011000 1100010001 1100100110 10000001001 10000110110 1100000110 1101000110 1110000100 1011110100 1101011111 1011010000 1011111110 10000001111 10000111011 1100011011 1100010110 1100000010 1011111100 21.625 44.312 1003.4 22013 16 -125 15 59 50 4 $GNGGA,120456.00,4333.68740,N,00128.72938,E,1,05,2.86,163.2,M,53.8,M,,*41
7 12 04 57 4333.6874300128.72907163.1~ 00128.72907 163.1 1101011000 1100010001 1100100011 10000000010 10000110100 1100000000 1101000010 1110000001 1011101100 1101011111 1011010010 1011111101 10000001011 10000111001 1100011011 1100010101 1100000010 1011111011 21.625 44.365 1003.4 23012 17 -126 14 60 51 3 $GNGGA,120457.00,4333.68743,N,00128.72907,E,1,05,2.86,163.1,M,53.8,M,,*4C
8 12 04 58 4333.6874200128.72872163.2~ 00128.72872 163.2 1101011000 1100010011 1100101000 1111111110 10000110001 1100001011 1101001001 1110000101 1011101110 1101011111 1011010010 1011111110 10000001101 10000111000 1100011100 1100010101 1100000100 1100000010 21.625 44.373 1003.4 24010 17 -126 14 58 51 4 $GNGGA,120458.00,4333.68742,N,00128.72872,E,1,05,2.86,163.2,M,53.8,M,,*42
8 12 04 59 4333.6872800128.72850163.1~ 00128.72850 163.1 1101011000 1100010001 1100100100 10000000100 10000110111 1100001010 1101001000 1110001010 1011110110 1101011111 1011010110 1100000000 10000001111 10000111000 1100011101 1100011001 1100000110 1011111000 21.625 44.312 1003.4 25010 16 -126 14 59 51 4 $GNGGA,120459.00,4333.68728,N,00128.72850,E,1,05,2.86,163.1,M,53.8,M,,*4C
8 12 05 00 4333.6873100128.72800163.4~ 00128.72800 163.4 1101011000 1100010000 1100100100 1111111011 10000110001 1100001001 1101000111 1110000000 1011110000 1101011111 1011010010 1011111101 10000010100 10000111011 1100011111 1100010011 1100000101 1011111011 21.625 44.259 1003.4 26007 17 -126 14 60 51 3 $GNGGA,120500.00,4333.68731,N,00128.72800,E,1,05,2.86,163.4,M,53.8,M,,*49
9 12 05 01 4333.6874300128.72751163.6~ 00128.72751 163.6 1101011000 1100010000 1100100101 10000000000 10000110101 1100000110 1101000111 1110000100 1011110010 1101011111 1011010001 1011111100 10000010010 10000110111 1100100001 1100010101 1100001010 1100000001 21.625 44.220 1003.4 27008 16 -125 15 59 51 3 $GNGGA,120501.00,4333.68743,N,00128.72751,E,1,05,2.86,163.6,M,53.8,M,,*44
10 12 05 02 4333.6874700128.72724163.6~ 00128.72724 163.6 1101011000 1100010010 1100100110 10000000011 10000110101 1100000110 1101001000 1110001011 1011110001 1101011111 1011010101 1011111111 10000010111 10000111011 1100011100 1100010000 1100001010 1011111111 21.625 44.236 1003.4 28006 17 -126 14 60 50 4 $GNGGA,120502.00,4333.68747,N,00128.72724,E,1,05,2.86,163.6,M,53.8,M,,*41
10 12 05 03 4333.6875100128.72709163.5~ 00128.72709 163.5 1101011000 1100010001 1100100110 1111111110 10000110101 1100001000 1101001011 1110001011 1011101101 1101011111 1011010100 1100000000 10000001111 10000111010 1100011100 1100010010 1100000001 1011111001 21.625 44.251 1003.4 29005 17 -126 14 58 51 4 $GNGGA,120503.00,4333.68751,N,00128.72709,E,1,05,2.86,163.5,M,53.8,M,,*4B
10 12 05 04 4333.6875400128.72694163.5~ 00128.72694 163.5 1101011001 1100010100 1100101001 1111111110 10000110101 1100001010 1101001001 1110001000 1011101011 1101011111 1011010100 1011111111 10000001111 10000110111 1100011111 1100011000 1100000000 1011111000 21.625 44.251 1003.4 30005 16 -126 14 59 52 3 $GNGGA,120504.00,4333.68754,N,00128.72694,E,1,05,2.86,163.5,M,53.8,M,,*4C
11 12 05 05 4333.6874300128.72714163.3~ 00128.72714 163.3 1101011001 1100010011 1100101010 10000000100 10000110100 1100001011 1101010000 1110000101 1011101110 1101011111 1011010101 1100000001 10000010010 10000110111 1100011110 1100010011 1100000101 1011111101 21.625 44.251 1003.4 31003 17 -126 14 60 50 4 $GNGGA,120505.00,4333.68743,N,00128.72714,E,1,05,2.86,163.3,M,53.8,M,,*44
11 12 05 06 4333.6874100128.72721163.1~ 00128.72721 163.1 1101011000 1100001100 1100100011 10000000011 10000110101 1100000010 1100111111 1110001100 1011110000 1101011111 1011010100 1011111101 10000010001 10000110111 1100011100 1100010011 1011111100 1011111110 21.625 44.312 1003.4 32003 16 -126 14 59 51 4 $GNGGA,120506.00,4333.68741,N,00128.72721,E,1,05,2.86,163.1,M,53.8,M,,*41
11 12 05 07 4333.6873900128.72717163.1~ 00128.72717 163.1 1101011000 1100010010 1100100110 10000000110 10000110110 1100001000 1101001010 1110000001 1011100111 1101011111 1011010000 1011111101 10000010100 10000111011 1100100100 1100010111 1100000101 1011111101 21.625 44.320 1003.4 33000 17 -125 14 60 50 4 $GNGGA,120507.00,4333.68739,N,00128.72717,E,1,05,2.86,163.1,M,53.8,M,,*4A
12 12 05 08 4333.6872800128.72738162.8~ 00128.72738 162.8 1101011001 1100010101 1100101001 10000000000 10000111000 1100000001 1101001000 1110000010 1011101000 1101011111 1011010000 1011111111 10000010000 10000111000 1100100010 1100010001 1100001000 1100000001 21.625 44.297 1003.4 34000 16 -126 15 59 51 3 $GNGGA,120508.00,4333.68728,N,00128.72738,E,1,05,2.86,162.8,M,53.8,M,,*40
12 12 05 09 4333.6871800128.72781162.3~ 00128.72781 162.3 1101011000 1100010001 1100101000 1111111111 10000110110 1100000010 1101000100 1110001000 1011100111 1101011111 1011001111 1011111101 10000001101 10000111001 1100100001 1100010011 1100001100 1100000101 21.625 44.480 1003.4 35000 16 -126 14 59 52 3 $GNGGA,120509.00,4333.68718,N,00128.72781,E,1,05,2.86,162.3,M,53.8,M,,*4B
13 12 05 10 4333.6872800128.72784162.2~ 00128.72784 162.2 1101011000 1100010100 1100100110 1111111101 10000110100 1100000001 1101000101 1110000010 1011101011 1101011111 1011010011 1100000000 10000001101 10000111001 1100100001 1100010110 1100001001 1100000111 21.625 44.755 1003.4 35999 16 -125 15 59 51 3 $GNGGA,120510.00,4333.68728,N,00128.72784,E,1,05,2.86,162.2,M,53.8,M,,*44
13 12 05 11 4333.6873300128.72797162.0~ 00128.72797 162.0 1101011000 1100010011 1100100110 10000000011 10000110110 1100000111 1101000100 1110000000 1011101011 1101011111 1011010100 1100000000 10000001010 10000110111 1100100000 1100010011 1100000111 1100000010 21.625 44.701 1003.4 36998 16 -126 14 59 51 4 $GNGGA,120511.00,4333.68733,N,00128.72797,E,1,05,2.86,162.0,M,53.8,M,,*4F
14 12 05 12 4333.6873400128.72836161.6~ 00128.72836 161.6 1101011000 1100010001 1100100100 10000000110 10000110111 1100000110 1101001100 1110000111 1011111101 1101011111 1011010011 1011111101 10000010100 10000111010 1100100101 1100010110 1100001010 1100000001 21.625 44.602 1003.4 37997 17 -126 14 60 50 4 $GNGGA,120512.00,4333.68734,N,00128.72836,E,1,05,2.86,161.6,M,53.8,M,,*4A
14 12 05 13 4333.6874300128.72873161.1~ 00128.72873 161.1 1101011000 1100001111 1100100010 10000000000 10000110101 1100000111 1101001000 1110001010 1011110011 1101011111 1011010010 1011111101 10000001101 10000111000 1100011000 1100001011 1100000111 1100000110 21.625 44.510 1003.4 38996 16 -126 15 59 51 3 $GNGGA,120513.00,4333.68743,N,00128.72873,E,1,05,2.86,161.1,M,53.8,M,,*4D
14 12 05 14 4333.6875200128.72898160.8~ 00128.72898 160.8 1101011000 1100001111 1100100100 10000000110 10000110101 1100000110 1101001101 1101111110 1011100100 1101011111 1011010001 1011111101 10000010000 10000111000 1100100001 1100010001 1100000101 1011111111 21.625 44.472 1003.4 39995 17 -126 14 60 51 3 $GNGGA,120514.00,4333.68752,N,00128.72898,E,1,05,2.86,160.8,M,53.8,M,,*47
14 12 05 15 4333.6875800128.72923160.5~ 00128.72923 160.5 1101011000 1100001111 1100100001 10000000110 10000110011 1100001000 1101001010 1110001100 1011110100 1101011111 1011010110 1100000000 10000010011 10000111001 1100011001 1100010000 1100000011 1011111001 21.625 44.518 1003.4 40993 17 -126 14 58 51 4 $GNGGA,120515.00,4333.68758,N,00128.72923,E,1,05,2.86,160.5,M,53.8,M,,*40
14 12 05 16 4333.6875500128.72965160.1~ 00128.72965 160.1 1101011000 1100010001 1100101000 10000000110 10000110111 1100001100 1101000101 1110001000 1011111101 1101011111 1011010010 1011111101 10000010111 10000110111 1100100001 1100010001 1100000111 1100000010 21.625 44.549 1003.4 41993 16 -126 14 59 51 4 $GNGGA,120516.00,4333.68755,N,00128.72965,E,1,05,2.86,160.1,M,53.8,M,,*48
14 12 05 17 4333.6876200128.72974160.2~ 00128.72974 160.2 1101011000 1100001111 1100100011 10000000001 10000110101 1100001001 1101001110 1110000110 1011111011 1101011111 1011010000 1011111111 10000010001 10000110111 1100011001 1100010011 1100000000 1011111011 21.625 44.495 1003.4 42992 17 -125 14 60 51 3 $GNGGA,120517.00,4333.68762,N,00128.72974,E,1,05,2.86,160.2,M,53.8,M,,*4E
14 12 05 18 4333.6877200128.72991159.9~ 00128.72991 159.9 1101011000 1100010011 1100101000 10000000100 10000110110 1100000011 1101000010 1110000000 1011110011 1101011111 1011010101 1100000001 10000010010 10000111001 1100011011 1100010000 1100000001 1011111110 21.625 44.671 1003.4 43990 16 -125 15 59 51 3 $GNGGA,120518.00,4333.68772,N,00128.72991,E,1,05,2.86,159.9,M,53.8,M,,*4A
15 12 05 19 4333.6879100128.73002159.9~ 00128.73002 159.9 1101011001 1100010100 1100101000 10000000011 10000110111 1011111110 1101000000 1110000110 1011110101 1101011111 1011010010 1100000001 10000010011 10000111000 1100011101 1100010001 1100000100 1100000000 21.625 44.571 1003.4 44991 17 -126 14 60 51 3 $GNGGA,120519.00,4333.68791,N,00128.73002,E,1,05,2.86,159.9,M,53.8,M,,*44
15 12 05 20 4333.6879900128.73018159.7~ 00128.73018 159.7 1101011000 1100010101 1100101001 10000000011 10000110110 1100001011 1101001010 1110001100 1011111100 1101011111 1011010010 1011111111 10000001111 10000111001 1100011001 1100001011 1100000010 1011111000 21.625 44.465 1003.4 45988 16 -126 15 59 50 4 $GNGGA,120520.00,4333.68799,N,00128.73018,E,1,05,2.86,159.7,M,53.8,M,,*43
15 12 05 21 4333.6879600128.73044159.4~ 00128.73044 159.4 1101011000 1100010000 1100100100 1111111110 10000110001 1100000010 1101001011 1110000110 1011101111 1101011111 1011010100 1011111110 10000010010 10000111000 1100011101 1100010001 1100000101 1100000110 21.625 44.457 1003.4 46988 16 -126 14 59 51 4 $GNGGA,120521.00,4333.68796,N,00128.73044,E,1,05,2.87,159.4,M,53.8,M,,*46
16 12 05 22 4333.6879600128.73064159.1~ 00128.73064 159.1 1101011001 1100001110 1100100010 10000000010 10000110110 1100001000 1101000111 1110000110 1011101111 1101011111 1011010001 1100000000 10000010000 10000111001 1100011100 1100010011 1100001010 1100000010 21.625 44.472 1003.4 47988 16 -126 15 59 51 3 $GNGGA,120522.00,4333.68796,N,00128.73064,E,1,05,2.87,159.1,M,53.8,M,,*42
17 12 05 23 4333.6879900128.73075159.0~ 00128.73075 159.0 1101011000 1100001110 1100100111 10000000010 10000110111 1100001000 1101001010 1110000101 1011101011 1101011111 1011010011 1011111111 10000010001 10000111001 1100011100 1100010010 1100001000 1011111100 21.625 44.457 1003.4 48988 17 -126 13 59 52 4 $GNGGA,120523.00,4333.68799,N,00128.73075,E,1,05,2.87,159.0,M,53.8,M,,*4D
17 12 05 24 4333.6878800128.73104158.6~ 00128.73104 158.6 1101011000 1100010000 1100100011 10000000101 10000110101 1100000100 1101000101 1110001000 1011110111 1101011111 1011010100 1100000000 10000010001 10000111001 1100100000 1100010100 1100000011 1011111001 21.625 44.396 1003.4 49985 17 -126 14 60 51 3 $GNGGA,120524.00,4333.68788,N,00128.73104,E,1,05,2.87,158.6,M,53.8,M,,*4A
18 12 05 25 4333.6878000128.73133158.3~ 00128.73133 158.3 1101011001 1100010001 1100100101 10000000011 10000110011 1100001001 1101001010 1110001101 1011111111 1101011111 1011010111 1011111110 10000010100 10000111000 1100011100 1100001110 1100000100 1011111100 21.625 44.388 1003.4 50984 17 -126 14 58 51 4 $GNGGA,120525.00,4333.68780,N,00128.73133,E,1,05,2.87,158.3,M,53.8,M,,*42
18 12 05 26 4333.6877200128.73152158.2~ 00128.73152 158.2 1101011000 1100010101 1100101010 10000000001 10000110100 1100001110 1101001110 1110000111 1011111010 1101011111 1011010101 1100000000 10000010010 10000111000 1100100010 1100010000 1100001011 1011111101 21.625 44.365 1003.4 51983 17 -126 14 60 51 3 $GNGGA,120526.00,4333.68772,N,00128.73152,E,1,05,2.87,158.2,M,53.8,M,,*4A
18 12 05 27 4333.6878200128.73149158.2~ 00128.73149 158.2 1101011000 1100010001 1100100111 10000000110 10000111010 1100001001 1101001011 1110000100 1011110001 1101011111 1011010010 1011111101 10000010110 10000111100 1100011111 1100010101 1100000100 1011111010 21.625 44.365 1003.4 52982 16 -126 15 59 51 3 $GNGGA,120527.00,4333.68782,N,00128.73149,E,1,05,2.87,158.2,M,53.8,M,,*4E
19 12 05 28 4333.6879000128.73141158.2~ 00128.73141 158.2 1101011000 1100001110 1100100101 10000000001 10000110111 1100001001 1101001001 1110000111 1011110111 1101011111 1011010010 1011111110 10000001110 10000110111 1100011000 1100001010 1100001100 1100000101 21.625 44.373 1003.4 53982 17 -126 13 59 52 4 $GNGGA,120528.00,4333.68790,N,00128.73141,E,1,05,2.87,158.2,M,53.8,M,,*4A
19 12 05 29 4333.6877800128.73172157.8~ 00128.73172 157.8 1101011000 1100001111 1100100011 10000001000 10000111000 1100001010 1101001000 1110000110 1011110010 1101011111 1011010000 1011111111 10000001111 10000111000 1100011100 1100010000 1100010010 1100000110 21.625 44.358 1003.4 54979 18 -126 13 59 51 4 $GNGGA,120529.00,4333.68778,N,00128.73172,E,1,05,2.87,157.8,M,53.8,M,,*48
19 12 05 30 4333.6878000128.73162157.9~ 00128.73162 157.9 1101011000 1100001100 1100100010 1111111110 10000110000 1100000111 1101001101 1110001001 1011110110 1101011111 1011010011 1011111101 10000010000 10000111000 1100010111 1100010000 1100001000 1011111111 21.625 44.358 1003.4 55980 16 -124 15 59 51 3 $GNGGA,120530.00,4333.68780,N,00128.73162,E,1,05,2.87,157.9,M,53.8,M,,*47
20 12 05 31 4333.6878000128.73161157.7~ 00128.73161 157.7 1101011000 1100010100 1100100110 10000000101 10000111000 1100000111 1101001101 1110000101 1011110100 1101011111 1011010010 1011111110 10000010000 10000110111 1100011110 1100010110 1100000110 1011111011 21.625 44.327 1003.4 56978 17 -126 14 60 50 4 $GNGGA,120531.00,4333.68780,N,00128.73161,E,1,05,2.87,157.7,M,53.8,M,,*4B
20 12 05 32 4333.6878000128.73157157.5~ 00128.73157 157.5 1101011000 1100010111 1100101000 10000000111 10000111000 1100001000 1101001001 1110000101 1011110001 1101011111 1011010011 1011111110 10000010001 10000111001 1100011101 1100010010 1100000110 1011111101 21.625 44.304 1003.4 57977 16 -126 15 59 51 3 $GNGGA,120532.00,4333.68780,N,00128.73157,E,1,05,2.87,157.5,M,53.8,M,,*4F
20 12 05 33 4333.6874600128.73219156.8~ 00128.73219 156.8 1101011001 1100010011 1100101001 10000000001 10000110001 1100000111 1101000011 1110000000 1011101100 1101011111 1011010101 1100000001 10000010010 10000111011 1100100000 1100010101 1011111101 1011111100 21.625 44.297 1003.4 58976 16 -126 14 59 51 4 $GNGGA,120533.00,4333.68746,N,00128.73219,E,1,05,2.87,156.8,M,53.8,M,,*41
21 12 05 34 4333.6873000128.73250156.4~ 00128.73250 156.4 1101011001 1100001110 1100100100 10000000010 10000110101 1100001101 1101001110 1110000101 1011101111 1101011111 1011010101 1100000001 10000001100 10000111000 1100011101 1100011000 1100000110 1011111100 21.625 44.282 1003.4 59975 17 -126 14 60 50 4 $GNGGA,120534.00,4333.68730,N,00128.73250,E,1,05,2.87,156.4,M,53.8,M,,*46
21 12 05 35 4333.6872500128.73265156.1~ 00128.73265 156.1 1101011001 1100010010 1100100100 10000000000 10000110011 1100000111 1101000111 1110001100 1011110110 1101011111 1011010001 1011111100 10000001111 10000111010 1100100001 1100010001 1100000010 1100000001 21.625 44.282 1003.4 60975 16 -126 14 59 51 4 $GNGGA,120535.00,4333.68725,N,00128.73265,E,1,05,2.87,156.1,M,53.8,M,,*40
21 12 05 36 4333.6872000128.73293155.7~ 00128.73293 155.7 1101011001 1100010010 1100101000 10000000110 10000110110 1100000100 1101000101 1110001010 1011110011 1101011111 1011010010 1011111011 10000010000 10000111010 1100011011 1100010101 1100000011 1100000010 21.625 44.266 1003.4 61972 17 -126 14 60 51 3 $GNGGA,120536.00,4333.68720,N,00128.73293,E,1,05,2.87,155.7,M,53.8,M,,*4A
22 12 05 37 4333.6871900128.73311155.4~ 00128.73311 155.4 1101011000 1100010000 1100100011 10000001001 10000110111 1100000011 1101000110 1110000001 1011101011 1101011111 1011010001 1011111101 10000010100 10000111011 1100100010 1100010111 1100001110 1100001111 21.625 44.251 1003.4 62972 16 -126 15 59 50 4 $GNGGA,120537.00,4333.68719,N,00128.73311,E,1,05,2.87,155.4,M,53.8,M,,*49
22 12 05 38 4333.6871700128.73332155.0~ 00128.73332 155.0 1101011000 1100010001 1100100111 10000000010 10000110001 1100000101 1101000011 1110000110 1011110000 1101011111 1011010001 1011111110 10000001111 10000111001 1100100001 1100010010 1100001011 1100000100 21.625 44.236 1003.4 63972 17 -126 14 60 51 3 $GNGGA,120538.00,4333.68717,N,00128.73332,E,1,05,2.87,155.0,M,53.8,M,,*4D
22 12 05 39 4333.6869300128.73386154.5~ 00128.73386 154.5 1101011000 1100001111 1100100100 10000000011 10000110101 1100001010 1101001000 1110000111 1011110111 1101011111 1011010000 1011111111 10000010000 10000110111 1100011011 1100010011 1100001001 1100000000 21.625 44.228 1003.4 64970 16 -126 15 59 51 3 $GNGGA,120539.00,4333.68693,N,00128.73386,E,1,05,2.87,154.5,M,53.8,M,,*4A
22 12 05 40 4333.6867200128.73422154.2~ 00128.73422 154.2 1101011000 1100010000 1100100110 10000000100 10000110110 1100000111 1101000011 1110010001 1011111100 1101011111 1011001111 1011111100 10000001110 10000111010 1100100101 1100010110 1100000001 1100000000 21.625 44.236 1003.4 65968 16 -126 14 59 51 4 $GNGGA,120540.00,4333.68672,N,00128.73422,E,1,05,2.87,154.2,M,53.8,M,,*45
23 12 05 41 4333.6865300128.73164158.9~ 00128.73164 158.9 1101011000 1100001111 1100100110 10000001010 10000111000 1100000110 1101001010 1110001100 1011110000 1101011111 1011010010 1011111101 10000010011 10000110111 1100011010 1100010001 1100001001 1100000001 21.688 44.503 1003.4 66967 17 -126 14 60 51 3 $GNGGA,120541.00,4333.68653,N,00128.73164,E,1,03,4.41,158.9,M,53.8,M,,*4D
23 12 05 42 4333.6865000128.73135158.9~ 00128.73135 158.9 1101011000 1100001110 1100100010 10000000101 10000110110 1100000111 1101000000 1110001010 1011110010 1101011111 1011010101 1100000000 10000000110 10000110101 1100011100 1100010100 1100000101 1100000001 21.688 44.663 1003.4 67966 17 -126 14 58 51 4 $GNGGA,120542.00,4333.68650,N,00128.73135,E,1,03,4.41,158.9,M,53.8,M,,*49
23 12 05 43 4333.6864600128.73095159.0~ 00128.73095 159.0 1101011001 1100001111 1100100010 1111111111 10000110100 1100001001 1101001001 1110001010 1011110110 1101011111 1011010010 1011111111 10000010010 10000111001 1100100001 1100010111 1100001011 1100000111 21.688 44.663 1003.4 68965 17 -126 14 60 50 4 $GNGGA,120543.00,4333.68646,N,00128.73095,E,1,03,4.41,159.0,M,53.8,M,,*4C
23 12 05 44 4333.6867200128.73069159.0~ 00128.73069 159.0 1101011000 1100010001 1100100011 10000001000 10000110101 1011111111 1100111110 1110001000 1011110010 1101011111 1011010010 1100000000 10000010001 10000111100 1100011100 1100010101 1100000110 1011111101 21.688 44.579 1003.4 69964 16 -126 15 59 51 3 $GNGGA,120544.00,4333.68672,N,00128.73069,E,1,03,4.41,159.0,M,53.8,M,,*4F
23 12 05 45 4333.6869100128.73075159.0~ 00128.73075 159.0 1101011000 1100010001 1100100101 10000000011 10000110101 1100000010 1101001010 1110001000 1011110101 1101011111 1011010011 1100000001 10000010011 10000111001 1100011101 1100010100 1100000011 1011111011 21.688 44.495 1003.4 70964 16 -125 14 59 51 4 $GNGGA,120545.00,4333.68691,N,00128.73075,E,1,03,4.42,159.0,M,53.8,M,,*4D
24 12 05 46 4333.6866500128.73014159.1~ 00128.73014 159.1 1101011000 1100010001 1100100110 1111111011 10000110011 1100000111 1101001010 1110001011 1011110010 1101011111 1011010000 1011111111 10000010010 10000111010 1100011100 1100010000 1100001010 1100000101 21.688 44.358 1003.4 71962 17 -126 14 59 51 4 $GNGGA,120546.00,4333.68665,N,00128.73014,E,1,03,4.42,159.1,M,53.8,M,,*43
24 12 05 47 4333.6870300128.72973159.2~ 00128.72973 159.2 1101011001 1100010001 1100100101 1111111111 10000110011 1100000100 1101001000 1110010000 1011111110 1101011111 1011010011 1011111100 10000001111 10000111000 1100100011 1100010110 1100001100 1100000101 21.750 44.259 1003.4 72960 16 -125 15 59 51 3 $GNGGA,120547.00,4333.68703,N,00128.72973,E,1,03,4.42,159.2,M,53.8,M,,*49
25 12 05 48 4333.6872500128.73003159.2~ 00128.73003 159.2 1101011001 1100010101 1100101000 1111111100 10000110101 1100000010 1101000100 1110001001 1011101101 1101011111 1011010110 1100000011 10000010011 10000111010 1100011101 1100010000 1100000101 1100000001 21.750 44.182 1003.4 73960 17 -126 14 60 50 4 $GNGGA,120548.00,4333.68725,N,00128.73003,E,1,03,4.42,159.2,M,53.8,M,,*4D
25 12 05 49 Nan Nan Nan 1101011000 1100010110 1100101011 1111111100 10000110000 1100000110 1101000100 1110001000 1011110101 1101011111 1011010100 1100000001 10000001111 10000110110 1100011001 1100010000 1100001010 1100000011 21.688 44.129 1003.4 74947 17 -126 11 60 51 3 $GNGGA,120549.00,,,,,0,00,99.9,,,,,,*4A
25 12 05 50 Nan Nan Nan 1101011001 1100010000 1100100011 1111111110 10000110111 1100000100 1101001000 1110001010 1011110011 1101011111 1011010101 1011111100 10000010100 10000111001 1100011110 1100010101 1100000100 1100000100 21.750 44.098 1003.3 75947 16 -125 11 59 51 4 $GNGGA,120550.00,,,,,0,00,99.9,,,,,,*42
25 12 05 51 Nan Nan Nan 1101011001 1100010010 1100101000 10000000001 10000110110 1011111111 1101000011 1110000011 1011101001 1101011111 1011010101 1100000001 10000001111 10000111000 1100011100 1100010110 1100000010 1011111011 21.750 44.091 1003.3 76945 16 -126 11 60 51 3 $GNGGA,120551.00,,,,,0,00,99.9,,,,,,*43
26 12 05 52 4333.6873800128.73159159.2~ 00128.73159 159.2 1101011001 1100001111 1100100101 10000000111 10000110011 1011111100 1101000000 1110001001 1011111001 1101011111 1011010011 1011111101 10000010110 10000111010 1100100010 1100010101 1100001010 1100000001 21.750 44.114 1003.3 77958 16 -126 14 59 52 3 $GNGGA,120552.00,4333.68738,N,00128.73159,E,1,03,4.43,159.2,M,53.8,M,,*45
26 12 05 53 4333.6896300128.73649159.6~ 00128.73649 159.6 1101011001 1100010010 1100100111 10000000010 10000110010 1100000010 1101000010 1110000101 1011110000 1101011111 1011010110 1100000010 10000011001 10000111010 1100100001 1100010011 1100000000 1011111100 21.750 44.251 1003.3 78956 17 -126 14 60 51 3 $GNGGA,120553.00,4333.68963,N,00128.73649,E,1,03,4.43,159.6,M,53.8,M,,*46
27 12 05 54 4333.6904600128.73710160.7~ 00128.73710 160.7 1101011001 1100010010 1100100111 10000000100 10000110110 1100000100 1101000111 1110000100 1011110010 1101011111 1011010010 1011111111 10000010110 10000111010 1100011111 1100010011 1100001011 1100000101 21.750 44.182 1003.3 79955 16 -126 15 59 50 4 $GNGGA,120554.00,4333.69046,N,00128.73710,E,1,05,2.87,160.7,M,53.8,M,,*40
27 12 05 55 4333.6893100128.73821161.2~ 00128.73821 161.2 1101011001 1100010011 1100100111 10000000000 10000110101 1100000110 1101001000 1101111111 1011110000 1101011111 1011010001 1011111111 10000010001 10000111001 1100011101 1100010011 1100001010 1100000100 21.813 44.121 1003.3 80955 17 -126 14 60 51 3 $GNGGA,120555.00,4333.68931,N,00128.73821,E,1,05,2.87,161.2,M,53.8,M,,*40
28 12 05 56 4333.6905500128.73913161.5~ 00128.73913 161.5 1101011000 1100010001 1100100011 10000000110 10000110111 1100000111 1101001010 1110001000 1011110000 1101011111 1011010101 1011111110 10000010100 10000111010 1100011101 1100010001 1100000110 1011111011 21.813 44.068 1003.3 81954 16 -126 15 59 51 3 $GNGGA,120556.00,4333.69055,N,00128.73913,E,1,05,2.87,161.5,M,53.8,M,,*4E
28 12 05 57 4333.6918400128.74033161.3~ 00128.74033 161.3 1101011000 1100010100 1100101010 10000000001 10000110011 1100001011 1101001100 1110000010 1011100011 1101011111 1011010001 1011111101 10000001110 10000110111 1100011010 1100010001 1100001011 1100000001 21.813 44.022 1003.3 82953 17 -126 13 58 52 4 $GNGGA,120557.00,4333.69184,N,00128.74033,E,1,05,2.87,161.3,M,53.8,M,,*48
28 12 05 58 4333.6928000128.73884161.7~ 00128.73884 161.7 1101011001 1100010010 1100101000 10000000011 10000110101 1100000010 1101001000 1101111110 1011100101 1101011111 1011010010 1011111101 10000011001 10000111010 1100011111 1100010101 1100000110 1100000100 21.813 43.999 1003.3 83951 17 -126 14 60 51 3 $GNGGA,120558.00,4333.69280,N,00128.73884,E,1,05,2.87,161.7,M,53.8,M,,*47
29 12 05 59 4333.6928000128.73836162.2~ 00128.73836 162.2 1101011001 1100010010 1100100100 10000000010 10000110100 1100001011 1101001000 1101111110 1011100110 1101011111 1011010001 1011111101 10000010011 10000111000 1100011111 1100010011 1100000010 1011111000 21.813 44.014 1003.3 84952 16 -126 14 59 50 5 $GNGGA,120559.00,4333.69280,N,00128.73836,E,1,05,2.87,162.2,M,53.8,M,,*49
30 12 06 00 4333.6931000128.73859162.4~ 00128.73859 162.4 1101011000 1100001110 1100100101 10000000100 10000110011 1100000111 1101000010 1110000001 1011100110 1101011111 1011010001 1011111101 10000001101 10000111000 1100011111 1100010100 1100000101 1100000001 21.813 44.022 1003.3 85951 17 -126 14 60 51 3 $GNGGA,120600.00,4333.69310,N,00128.73859,E,1,05,2.87,162.4,M,53.8,M,,*41
30 12 06 01 4333.6928900128.73961162.6~ 00128.73961 162.6 1101011001 1100001111 1100100011 1111111101 10000110011 1100000110 1101000100 1101111101 1011100000 1101011111 1011010001 1011111111 10000010100 10000111010 1100100001 1100010110 1100001111 1100001100 21.813 44.045 1003.3 86950 16 -125 15 59 51 3 $GNGGA,120601.00,4333.69289,N,00128.73961,E,1,05,2.87,162.6,M,53.8,M,,*49
30 12 06 02 4333.6930000128.73988162.8~ 00128.73988 162.8 1101011000 1100010001 1100100110 1111111111 10000110100 1100000100 1101001000 1110000110 1011101111 1101011111 1011010100 1011111110 10000010110 10000111001 1100011110 1100010101 1100000001 1011111101 21.875 44.030 1003.3 87949 16 -126 14 59 52 3 $GNGGA,120602.00,4333.69300,N,00128.73988,E,1,05,2.87,162.8,M,53.8,M,,*43
30 12 06 03 4333.6929700128.73903162.9~ 00128.73903 162.9 1101011001 1100010010 1100101000 10000000110 10000110111 1100000101 1101000111 1110000111 1011110001 1101011111 1011010100 1011111110 10000010011 10000111000 1100100001 1100010101 1100000011 1011111101 21.875 44.037 1003.3 88947 16 -126 15 59 50 4 $GNGGA,120603.00,4333.69297,N,00128.73903,E,1,05,2.87,162.9,M,53.8,M,,*4F
30 12 06 04 4333.6929300128.73819163.0~ 00128.73819 163.0 1101011001 1100010001 1100100100 10000000001 10000110001 1100001011 1101001011 1110001100 1011111110 1101011111 1011010000 1011111101 10000001110 10000111000 1100100000 1100010010 1100000000 1011110111 21.875 44.037 1003.3 89947 16 -126 14 59 50 5 $GNGGA,120604.00,4333.69293,N,00128.73819,E,1,05,2.87,163.0,M,53.8,M,,*4E
30 12 06 05 4333.6930100128.73864163.0~ 00128.73864 163.0 1101011001 1100010010 1100100110 10000000110 10000110111 1100000001 1101000010 1110001110 1011111000 1101011111 1011010010 1011111100 10000010100 10000111010 1100011111 1100010110 1100000100 1100000000 21.813 44.022 1003.3 90946 17 -125 14 60 50 4 $GNGGA,120605.00,4333.69301,N,00128.73864,E,1,05,2.88,163.0,M,53.8,M,,*40
31 12 06 06 4333.6928100128.73926163.0~ 00128.73926 163.0 1101011001 1100001111 1100100110 10000000110 10000110101 1100001010 1101001010 1110001011 1011111010 1101011111 1011010010 1011111110 10000010100 10000111011 1100011111 1100010101 1100000011 1011111101 21.875 44.022 1003.3 91945 16 -126 15 59 51 3 $GNGGA,120606.00,4333.69281,N,00128.73926,E,1,05,2.88,163.0,M,53.8,M,,*4D
31 12 06 07 4333.6927900128.73882163.0~ 00128.73882 163.0 1101011000 1100010110 1100101011 10000001001 10000110011 1100000010 1101000101 1110001000 1011101111 1101011111 1011010010 1100000001 10000001010 10000110111 1100011011 1100001111 1100001001 1011111100 21.875 44.022 1003.3 92944 18 -126 13 59 51 4 $GNGGA,120607.00,4333.69279,N,00128.73882,E,1,05,2.88,163.0,M,53.8,M,,*44
31 12 06 08 4333.6936000128.73951162.8~ 00128.73951 162.8 1101011000 1100010000 1100100110 10000001011 10000111000 1100001001 1101001010 1110000111 1011111000 1101011111 1011010010 1011111110 10000010110 10000111010 1100100000 1100010000 1100001001 1011111111 21.875 44.014 1003.3 93943 16 -125 15 59 50 4 $GNGGA,120608.00,4333.69360,N,00128.73951,E,1,05,2.88,162.8,M,53.8,M,,*44
31 12 06 09 4333.6942900128.74053162.8~ 00128.74053 162.8 1101011000 1100010000 1100100110 10000000010 10000110101 1100001001 1101001011 1110000110 1011110101 1101011111 1011010100 1011111111 10000010000 10000110111 1100010110 1100001111 1100000100 1100000110 21.875 43.999 1003.3 94941 16 -126 14 59 52 3 $GNGGA,120609.00,4333.69429,N,00128.74053,E,1,05,2.88,162.8,M,53.8,M,,*43
32 12 06 10 4333.6947800128.74135162.9~ 00128.74135 162.9 1101011001 1100010001 1100100101 10000000111 10000110100 1100000101 1101000111 1110001000 1011110100 1101011111 1011010011 1011111111 10000010011 10000111001 1100011100 1100010000 1100000000 1011111000 21.875 43.984 1003.3 95941 17 -126 14 60 51 3 $GNGGA,120610.00,4333.69478,N,00128.74135,E,1,04,6.79,162.9,M,53.8,M,,*44
32 12 06 11 4333.6953900128.74208163.0~ 00128.74208 163.0 1101011001 1100010001 1100100110 1111111101 10000110010 1100000011 1101000111 1101111010 1011101000 1101011111 1011010010 1011111111 10000010010 10000111010 1100011110 1100010011 1100000001 1011111011 21.875 43.976 1003.3 96940 16 -125 15 59 50 4 $GNGGA,120611.00,4333.69539,N,00128.74208,E,1,04,6.79,163.0,M,53.8,M,,*44
32 12 06 12 4333.6961500128.74300163.0~ 00128.74300 163.0 1101011000 1100010001 1100100110 1111111000 10000110011 1100000100 1101000110 1110000101 1011110101 1101011111 1011010010 1011111101 10000010010 10000111000 1100100010 1100010110 1100000101 1011111110 21.875 43.953 1003.3 97939 17 -126 14 60 51 3 $GNGGA,120612.00,4333.69615,N,00128.74300,E,1,04,6.79,163.0,M,53.8,M,,*43
32 12 06 13 4333.6968000128.74397162.9~ 00128.74397 162.9 1101011001 1100010001 1100100101 1111111101 10000110100 1011111111 1101000000 1110001010 1011111110 1101011111 1011010100 1100000000 10000010000 10000110111 1100100000 1100010111 1100000111 1011111110 21.875 43.953 1003.3 98937 16 -126 15 59 50 4 $GNGGA,120613.00,4333.69680,N,00128.74397,E,1,04,6.80,162.9,M,53.8,M,,*4E
32 12 06 14 4333.6967700128.74494162.8~ 00128.74494 162.8 1101011001 1100010000 1100100011 1111111101 10000110001 1100000110 1101001001 1110001000 1011110111 1101011111 1011010011 1011111110 10000010110 10000111001 1100011100 1100010011 1011111111 1011111110 21.938 43.931 1003.3 99937 16 -126 14 59 52 3 $GNGGA,120614.00,4333.69677,N,00128.74494,E,1,04,6.80,162.8,M,53.8,M,,*44
33 12 06 15 4333.6971500128.74561162.8~ 00128.74561 162.8 1101011001 1100010100 1100101000 10000000010 10000111001 1100001001 1101000111 1110001100 1011111110 1101011111 1011010010 1011111101 10000010011 10000111001 1100100101 1100010111 1100001100 1100000101 21.938 43.915 1003.3 100936 18 -126 13 59 51 4 $GNGGA,120615.00,4333.69715,N,00128.74561,E,1,04,6.80,162.8,M,53.8,M,,*4B
33 12 06 16 4333.6957000128.74417162.2~ 00128.74417 162.2 1101011000 1100010001 1100100111 1111111111 10000110011 1100000111 1101000101 1110001000 1011110110 1101011111 1011010011 1011111111 10000001110 10000111001 1100100001 1100010101 1011111110 1011111011 21.938 43.877 1003.3 101934 16 -125 14 59 50 5 $GNGGA,120616.00,4333.69570,N,00128.74417,E,1,05,2.88,162.2,M,53.8,M,,*4E
34 12 06 17 4333.6948900128.74325161.7~ 00128.74325 161.7 1101011001 1100010100 1100100111 10000000100 10000110111 1100001011 1101001101 1110000101 1011110010 1101011111 1011010000 1100000000 10000010101 10000111010 1100011111 1100010011 1100000000 1011111110 21.938 43.854 1003.3 102934 18 -126 13 60 51 4 $GNGGA,120617.00,4333.69489,N,00128.74325,E,1,05,2.88,161.7,M,53.8,M,,*48
34 12 06 18 4333.6941300128.74166161.4~ 00128.74166 161.4 1101011000 1100010001 1100100110 10000001000 10000110110 1100000111 1101000110 1110000100 1011101001 1101011111 1011010000 1011111101 10000010000 10000111001 1100011000 1100001111 1100000111 1100000001 21.938 43.862 1003.3 103932 16 -126 15 59 50 4 $GNGGA,120618.00,4333.69413,N,00128.74166,E,1,05,2.88,161.4,M,53.8,M,,*42
34 12 06 19 4333.6929100128.73961161.2~ 00128.73961 161.2 1101011000 1100010010 1100100001 10000000011 10000110101 1100000101 1101001010 1110000101 1011101011 1101011111 1011010011 1100000001 10000011000 10000111011 1100011001 1100001110 1100000010 1011111111 21.938 43.870 1003.3 104931 17 -126 14 60 50 4 $GNGGA,120619.00,4333.69291,N,00128.73961,E,1,05,2.88,161.2,M,53.8,M,,*41
35 12 06 20 4333.6927400128.73926160.8~ 00128.73926 160.8 1101011000 1100010001 1100100101 10000001000 10000111000 1100000100 1101001001 1110001101 1011110010 1101011111 1011010100 1100000000 10000001111 10000111000 1100011110 1100001101 1100000100 1011111111 21.938 43.870 1003.3 105930 17 -126 14 58 51 4 $GNGGA,120620.00,4333.69274,N,00128.73926,E,1,05,2.88,160.8,M,53.8,M,,*48
35 12 06 21 4333.6931600128.74018160.4~ 00128.74018 160.4 1101011000 1100010000 1100100101 10000000000 10000110110 1100001100 1101001111 1110000100 1011101101 1101011111 1011010011 1011111110 10000001000 10000111001 1100100000 1100010001 1100001000 1100000001 21.938 43.870 1003.3 106930 16 -125 14 59 52 3 $GNGGA,120621.00,4333.69316,N,00128.74018,E,1,05,2.88,160.4,M,53.8,M,,*43
36 12 06 22 4333.6921200128.73884160.2~ 00128.73884 160.2 1101011000 1100010100 1100100101 10000000100 10000110110 1011111110 1101000001 1110000011 1011100110 1101011111 1011010001 1011111100 10000001111 10000111010 1100011110 1100010010 1100010000 1100001011 21.938 43.900 1003.3 107929 18 -126 13 59 51 4 $GNGGA,120622.00,4333.69212,N,00128.73884,E,1,05,2.88,160.2,M,53.8,M,,*49
36 12 06 23 4333.6919200128.73855159.9~ 00128.73855 159.9 1101011001 1100010011 1100100111 1111111111 10000110011 1100001001 1101001000 1110001101 1011110010 1101011111 1011001111 1011111011 10000010000 10000110110 1100100001 1100010001 1100000011 1100000001 21.938 43.892 1003.3 108929 16 -125 15 59 51 3 $GNGGA,120623.00,4333.69192,N,00128.73855,E,1,05,2.88,159.9,M,53.8,M,,*4E
36 12 06 24 4333.6915100128.73790159.6~ 00128.73790 159.6 1101011000 1100001110 1100100110 10000000110 10000110101 1100001001 1101001011 1110000101 1011101111 1101011111 1011010100 1100000001 10000001100 10000111000 1100011110 1100010110 1100000110 1100001000 21.938 43.839 1003.3 109926 17 -126 14 59 51 4 $GNGGA,120624.00,4333.69151,N,00128.73790,E,1,05,2.88,159.6,M,53.8,M,,*4F
36 12 06 25 4333.6913700128.73785159.4~ 00128.73785 159.4 1101011001 1100010100 1100101001 1111111110 10000110101 1100000011 1101000011 1110000011 1011101101 1101011111 1011010100 1011111110 10000010011 10000111001 1100011110 1100010101 1100000010 1011111011 21.938 43.824 1003.3 110925 17 -126 14 58 51 4 $GNGGA,120625.00,4333.69137,N,00128.73785,E,1,05,2.88,159.4,M,53.8,M,,*48
36 12 06 26 4333.6915100128.73822159.1~ 00128.73822 159.1 1101011000 1100010011 1100100111 10000000010 10000110110 1100000110 1101001001 1110001000 1011101100 1101011111 1011010010 1011111101 10000010101 10000111010 1100011110 1100010001 1100000010 1011111001 21.938 43.809 1003.3 111925 17 -126 13 58 52 4 $GNGGA,120626.00,4333.69151,N,00128.73822,E,1,05,2.88,159.1,M,53.8,M,,*4C
36 12 06 27 4333.6913600128.73798158.8~ 00128.73798 158.8 1101011000 1100010100 1100101001 10000001000 10000110011 1100001011 1101001001 1110001000 1011110011 1101100000 1011010110 1100000010 10000010000 10000111000 1100011100 1100010101 1100001011 1100000100 21.938 43.786 1003.3 112923 18 -126 13 59 51 4 $GNGGA,120627.00,4333.69136,N,00128.73798,E,1,05,2.88,158.8,M,53.8,M,,*4A
36 12 06 28 4333.6910900128.73763158.6~ 00128.73763 158.6 1101011001 1100001110 1100100010 1111111111 10000110011 1100000011 1101000100 1110001000 1011101111 1101011111 1011010111 1100000001 10000010100 10000111010 1100011111 1100010000 1100001000 1100000000 21.938 43.786 1003.3 113924 16 -125 14 59 50 5 $GNGGA,120628.00,4333.69109,N,00128.73763,E,1,05,2.88,158.6,M,53.8,M,,*43
37 12 06 29 4333.6910000128.73744158.3~ 00128.73744 158.3 1101011001 1100010101 1100101000 10000000010 10000110100 1100000100 1101001010 1110001001 1011110110 1101011111 1011010101 1011111111 10000010110 10000110111 1100011011 1100010000 1100000100 1011111001 21.938 43.786 1003.3 114922 17 -126 14 60 50 4 $GNGGA,120629.00,4333.69100,N,00128.73744,E,1,05,2.88,158.3,M,53.8,M,,*4B
37 12 06 30 4333.6912700128.73763158.0~ 00128.73763 158.0 1101011000 1100010011 1100101001 10000000000 10000110101 1100001001 1101001010 1110000110 1011110101 1101011111 1011001110 1011111100 10000010101 10000111010 1100011001 1100010010 1100000011 1100000000 21.938 43.778 1003.3 115920 16 -126 15 59 50 4 $GNGGA,120630.00,4333.69127,N,00128.73763,E,1,05,2.88,158.0,M,53.8,M,,*40
37 12 06 31 4333.6918000128.73872157.6~ 00128.73872 157.6 1101011001 1100010101 1100101001 10000000000 10000111000 1100000111 1101001110 1110000101 1011110010 1101011111 1011010010 1011111111 10000010001 10000111000 1100100001 1100010111 1100000010 1011111000 21.938 43.770 1003.3 116920 16 -126 14 59 52 3 $GNGGA,120631.00,4333.69180,N,00128.73872,E,1,05,2.88,157.6,M,53.8,M,,*4A
38 12 06 32 4333.6917300128.73860157.3~ 00128.73860 157.3 1101011001 1100010001 1100100111 10000000001 10000110111 1100000011 1101000101 1110001000 1011101101 1101011111 1011010100 1011111110 10000010011 10000111011 1100011111 1100010001 1100000110 1100001000 21.938 43.763 1003.3 117918 18 -126 13 58 51 4 $GNGGA,120632.00,4333.69173,N,00128.73860,E,1,04,6.85,157.3,M,53.8,M,,*4B
38 12 06 33 4333.6914900128.73829157.1~ 00128.73829 157.1 1101011000 1100010001 1100100110 10000001000 10000111001 1011111110 1101000011 1110000111 1011101110 1101011111 1011010010 1011111111 10000010110 10000111001 1100011110 1100001111 1100000000 1011111001 21.938 43.801 1003.3 118917 16 -126 14 59 50 5 $GNGGA,120633.00,4333.69149,N,00128.73829,E,1,04,6.85,157.1,M,53.8,M,,*4C
38 12 06 34 4333.6916900128.73866156.8~ 00128.73866 156.8 1101011001 1100001110 1100100011 10000000011 10000110100 1100001000 1101001010 1110000000 1011101111 1101011111 1011010010 1011111110 10000001101 10000111000 1100011111 1100010000 1100001011 1100001000 21.938 43.908 1003.3 119915 18 -126 13 59 51 4 $GNGGA,120634.00,4333.69169,N,00128.73866,E,1,04,6.86,156.8,M,53.8,M,,*49
38 12 06 35 4333.6920200128.73925156.5~ 00128.73925 156.5 1101011000 1100010111 1100101011 10000001000 10000110101 1100000011 1101000010 1110001101 1011111010 1101011111 1011010000 1011111100 10000010011 10000111000 1100011000 1100010001 1100000100 1011111110 21.938 43.999 1003.3 120914 16 -126 15 59 50 4 $GNGGA,120635.00,4333.69202,N,00128.73925,E,1,04,6.86,156.5,M,53.8,M,,*4D
38 12 06 36 4333.6919400128.73923156.3~ 00128.73923 156.3 1101011000 1100010010 1100100111 10000000001 10000110010 1100000100 1101001010 1110001110 1011110010 1101011111 1011001101 1011111011 10000010110 10000111010 1100011101 1100010001 1100000111 1100001000 21.875 44.098 1003.3 121914 17 -126 14 60 51 3 $GNGGA,120636.00,4333.69194,N,00128.73923,E,1,04,6.86,156.3,M,53.8,M,,*42
39 12 06 37 4333.6920300128.73943156.1~ 00128.73943 156.1 1101011001 1100010001 1100100010 10000000011 10000110101 1100001000 1101000101 1110001101 1011101111 1101011111 1011001111 1011111100 10000010011 10000111010 1100011110 1100010000 1100001111 1100001001 21.938 44.251 1003.3 122914 16 -126 15 59 51 3 $GNGGA,120637.00,4333.69203,N,00128.73943,E,1,04,6.87,156.1,M,53.8,M,,*4B
39 12 06 38 4333.6930300128.74127155.9~ 00128.74127 155.9 1101011000 1100010011 1100100111 10000000101 10000110101 1100001000 1101001011 1110010000 1011110011 1101011111 1011010001 1011111011 10000010000 10000111010 1100011100 1100010110 1100001010 1100000100 21.938 44.655 1003.3 123911 16 -125 14 59 52 3 $GNGGA,120638.00,4333.69303,N,00128.74127,E,1,04,6.87,155.9,M,53.8,M,,*43
40 12 06 39 4333.6933300128.74197155.7~ 00128.74197 155.7 1101011001 1100010011 1100100100 10000000011 10000110100 1100000110 1101001001 1110000100 1011101101 1101011111 1011010010 1011111110 10000010000 10000111010 1100100000 1100001110 1100001001 1100001000 21.938 45.090 1003.3 124911 17 -126 14 59 51 4 $GNGGA,120639.00,4333.69333,N,00128.74197,E,1,04,6.87,155.7,M,53.8,M,,*44
40 12 06 40 Nan Nan Nan 1101011000 1100010001 1100100110 10000000100 10000110110 1100000011 1101000100 1110000101 1011100111 1101011111 1011010000 1011111111 10000001101 10000110110 1100011111 1100010110 1100000010 1100000011 21.938 45.914 1003.3 125899 17 -126 11 59 51 3 $GNGGA,120640.00,,,,,0,00,99.9,,,,,,*40
41 12 06 41 Nan Nan Nan 1101011001 1100001110 1100100001 1111111111 10000110001 1100000110 1101000011 1110000101 1011101110 1101011111 1011010011 1011111110 10000010101 10000111011 1100011011 1100001111 1100000110 1100000100 21.938 46.052 1003.3 126899 16 -126 11 59 51 4 $GNGGA,120641.00,,,,,0,00,99.9,,,,,,*41
41 12 06 42 Nan Nan Nan 1101011001 1100010001 1100100110 1111111111 10000110000 1100000011 1100111110 1110001101 1011110101 1101011111 1011010110 1100000001 10000010010 10000111001 1100011010 1100010100 1100000011 1011111111 21.938 45.716 1003.3 127897 17 -126 11 60 51 3 $GNGGA,120642.00,,,,,0,00,99.9,,,,,,*42
41 12 06 43 Nan Nan Nan 1101011000 1100010100 1100101000 10000000001 10000110110 1100000110 1101000100 1101111110 1011110010 1101011111 1011011000 1100000001 10000011011 10000111010 1100100011 1100010110 1100001011 1100000101 21.938 45.411 1003.3 128897 17 -125 11 58 51 4 $GNGGA,120643.00,,,,,0,00,99.9,,,,,,*43
41 12 06 44 Nan Nan Nan 1101011001 1100001101 1100100001 1111111111 10000110101 1100000110 1101000111 1110001000 1011110101 1101011111 1011001110 1011111101 10000010010 10000111001 1100011111 1100011011 1100001100 1011111111 21.938 45.167 1003.3 129895 18 -126 10 60 50 4 $GNGGA,120644.00,,,,,0,00,99.9,,,,,,*44
41 12 06 45 Nan Nan Nan 1101011001 1100001111 1100100100 10000000100 10000110101 1100001000 1101000111 1110000111 1011101110 1101011111 1011010010 1011111110 10000010011 10000111000 1100011111 1100010101 1100001011 1011111001 21.938 44.800 1003.3 130893 16 -126 12 59 51 3 $GNGGA,120645.00,,,,,0,00,99.9,,,,,,*45
42 12 06 46 Nan Nan Nan 1101011001 1100001110 1100100011 10000000111 10000110110 1100001001 1101001010 1110001000 1011101011 1101100000 1011010110 1011111110 10000010101 10000111010 1100011101 1100010110 1100001010 1011111001 21.938 44.632 1003.3 131894 16 -126 10 58 52 4 $GNGGA,120646.00,,,,,0,00,99.9,,,,,,*46
43 12 06 47 4333.6940800128.74365156.3~ 00128.74365 156.3 1101011000 1100010010 1100101010 10000000101 10000110101 1100000110 1101000100 1110000101 1011110001 1101011111 1011010010 1011111101 10000001101 10000110110 1100100001 1100010100 1100000111 1011111011 21.938 44.610 1003.3 132903 16 -125 15 59 50 4 $GNGGA,120647.00,4333.69408,N,00128.74365,E,1,04,6.90,156.3,M,53.8,M,,*4C
44 12 06 48 4333.6944200128.74432156.3~ 00128.74432 156.3 1101011001 1100010010 1100100111 10000000011 10000110101 1100000111 1101000111 1110000100 1011110001 1101011111 1011010010 1011111111 10000010000 10000111000 1100011110 1100010101 1011111111 1011111000 21.938 44.472 1003.3 133903 17 -126 14 60 51 3 $GNGGA,120648.00,4333.69442,N,00128.74432,E,1,04,6.90,156.3,M,53.8,M,,*48
44 12 06 49 4333.6947800128.74500156.2~ 00128.74500 156.2 1101011000 1100010001 1100100101 10000000011 10000110110 1100001001 1101001001 1110001011 1011110111 1101100000 1011010000 1011111111 10000010101 10000111000 1100010111 1100001111 1011111110 1011111011 21.938 44.373 1003.3 134900 16 -126 15 59 51 3 $GNGGA,120649.00,4333.69478,N,00128.74500,E,1,04,6.90,156.2,M,53.8,M,,*41
44 12 06 50 Nan Nan Nan 1101011001 1100001110 1100100101 10000000010 10000110100 1100000100 1101001000 1110001010 1011110110 1101011111 1011010100 1011111111 10000001101 10000111001 1100100001 1100010100 1100001001 1100000110 21.938 44.343 1003.3 135889 16 -126 12 59 51 3 $GNGGA,120650.00,,,,,0,00,99.9,,,,,,*41
45 12 06 51 Nan Nan Nan 1101011000 1100010001 1100100110 10000000010 10000110111 1100000101 1101000011 1110001000 1011110100 1101011111 1011010001 1100000000 10000010100 10000111010 1100011011 1100001101 1100000010 1100000010 21.938 44.373 1003.3 136889 16 -125 11 60 51 3 $GNGGA,120651.00,,,,,0,00,99.9,,,,,,*40
45 12 06 52 Nan Nan Nan 1101011001 1100010100 1100101010 10000000010 10000110011 1100000100 1101000101 1110000010 1011110110 1101011111 1011010010 1011111101 10000010100 10000111001 1100011010 1100010001 1100000110 1011111011 21.938 44.343 1003.3 137888 17 -125 11 59 51 3 $GNGGA,120652.00,,,,,0,00,99.9,,,,,,*43
45 12 06 53 Nan Nan Nan 1101011001 1100010001 1100101001 1111111110 10000110011 1100000110 1101001000 1110000000 1011110000 1101011111 1011010011 1011111100 10000010010 10000111000 1100011011 1100010000 1100000111 1100000011 21.938 44.335 1003.3 138887 16 -125 11 59 51 4 $GNGGA,120653.00,,,,,0,00,99.9,,,,,,*42
45 12 06 54 Nan Nan Nan 1101011000 1100010000 1100100100 10000000111 10000110111 1100000100 1101000101 1110000101 1011110000 1101011111 1011010001 1011111110 10000001101 10000110111 1100011100 1100010000 1100001001 1011111110 21.938 44.289 1003.3 139885 18 -126 10 60 50 4 $GNGGA,120654.00,,,,,0,00,99.9,,,,,,*45
45 12 06 55 Nan Nan Nan 1101011000 1100001111 1100100011 10000000001 10000110110 1100000110 1101000011 1110000100 1011101111 1101011111 1011010100 1011111111 10000010000 10000111000 1100011100 1100010100 1100000111 1011111001 21.938 44.289 1003.3 140884 17 -126 11 58 51 4 $GNGGA,120655.00,,,,,0,00,99.9,,,,,,*44
45 12 06 56 Nan Nan Nan 1101011001 1100010000 1100100100 1111111111 10000110100 1100000011 1101001010 1110000000 1011110000 1101011111 1011010100 1011111101 10000010010 10000110101 1100100000 1100010100 1100000010 1011111101 21.938 44.335 1003.3 141882 17 -126 10 60 50 4 $GNGGA,120656.00,,,,,0,00,99.9,,,,,,*47
46 12 06 57 Nan Nan Nan 1101011001 1100010000 1100100001 1111111110 10000110110 1100000111 1101000101 1110000001 1011110100 1101011111 1011001110 1011111110 10000010001 10000111001 1100011100 1100010101 1100000101 1100000000 21.938 44.381 1003.3 142882 16 -126 11 58 51 4 $GNGGA,120657.00,,,,,0,00,99.9,,,,,,*46
47 12 06 58 Nan Nan Nan 1101011000 1100010000 1100100111 10000000001 10000110011 1100000100 1101001001 1110001011 1011110110 1101011111 1011010011 1011111110 10000010101 10000111010 1100010110 1100010000 1100000111 1011111100 21.938 44.327 1003.3 143882 16 -126 11 59 52 3 $GNGGA,120658.00,,,,,0,00,99.9,,,,,,*49
47 12 06 59 Nan Nan Nan 1101011001 1100010010 1100101000 10000000010 10000110111 1100000011 1101000111 1110000111 1011110100 1101100000 1011010101 1011111111 10000010010 10000111001 1100011101 1100010101 1100001001 1100000100 21.938 44.373 1003.3 144881 17 -126 11 60 51 3 $GNGGA,120659.00,,,,,0,00,99.9,,,,,,*48
47 12 07 00 Nan Nan Nan 1101011001 1100010101 1100101000 10000000010 10000110111 1100000111 1101001001 1110001000 1011101110 1101011111 1011010101 1100000001 10000010011 10000111001 1100011010 1100010000 1100000011 1011111110 21.938 44.343 1003.3 145880 16 -126 12 59 51 3 $GNGGA,120700.00,,,,,0,00,99.9,,,,,,*45
48 12 07 01 Nan Nan Nan 1101011001 1100010001 1100101000 1111111010 10000110000 1100000011 1101000011 1110001000 1011110010 1101011111 1011010010 1011111101 10000010001 10000111011 1100011011 1100001111 1100001001 1100000100 21.938 44.228 1003.3 146879 17 -125 11 60 50 4 $GNGGA,120701.00,,,,,0,00,99.9,,,,,,*44
48 12 07 02 Nan Nan Nan 1101011001 1100010010 1100100110 10000000000 10000110110 1100000100 1101001000 1110000101 1011110010 1101011111 1011001111 1011111010 10000010001 10000111010 1100100010 1100010001 1011111111 1011111001 21.938 44.144 1003.3 147878 16 -126 12 59 51 3 $GNGGA,120702.00,,,,,0,00,99.9,,,,,,*47
48 12 07 03 Nan Nan Nan 1101011000 1100010001 1100100111 1111111100 10000110100 1100000111 1101000100 1110000111 1011110111 1101011111 1011010110 1100000010 10000010011 10000111000 1100011101 1100010000 1100000011 1011111100 21.938 44.060 1003.3 148877 17 -126 10 58 52 4 $GNGGA,120703.00,,,,,0,00,99.9,,,,,,*46
48 12 07 04 Nan Nan Nan 1101011001 1100010001 1100100110 1111111100 10000110101 1100000100 1101000111 1110000111 1011111010 1101011111 1011010010 1011111110 10000001111 10000111001 1100011010 1100001111 1100001001 1100000010 21.938 44.053 1003.3 149875 18 -126 10 59 50 4 $GNGGA,120704.00,,,,,0,00,99.9,,,,,,*41
48 12 07 05 Nan Nan Nan 1101011000 1100010000 1100100011 10000000000 10000110101 1100000010 1101000011 1110001100 1011111001 1101011111 1011010000 1011111111 10000010010 10000111000 1100100011 1100010110 1100001010 1011111110 21.938 44.022 1003.3 150875 16 -126 11 59 51 4 $GNGGA,120705.00,,,,,0,00,99.9,,,,,,*40
49 12 07 06 Nan Nan Nan 1101011001 1100010000 1100100100 10000000101 10000110111 1100000101 1101000100 1110000101 1011110000 1101011111 1011010000 1011111100 10000001111 10000111001 1100011100 1100001111 1100000110 1011110110 21.938 43.992 1003.3 151875 17 -125 11 60 51 3 $GNGGA,120706.00,,,,,0,00,99.9,,,,,,*43
49 12 07 07 Nan Nan Nan 1101011001 1100010001 1100100011 10000001010 10000110110 1100000010 1101000101 1110000010 1011101011 1101011111 1011010100 1011111101 10000001110 10000111001 1100011011 1100001111 1100000101 1100000000 21.875 43.938 1003.3 152872 16 -126 12 59 51 3 $GNGGA,120707.00,,,,,0,00,99.9,,,,,,*42
50 12 07 08 Nan Nan Nan 1101011001 1100010001 1100100110 10000000110 10000110110 1100000001 1101000000 1110000011 1011101000 1101011111 1011010110 1100000100 10000010011 10000111001 1100011100 1100010001 1100000000 1100000001 21.938 43.870 1003.3 153872 16 -126 10 59 51 4 $GNGGA,120708.00,,,,,0,00,99.9,,,,,,*4D
50 12 07 09 Nan Nan Nan 1101011001 1100010001 1100100100 10000000111 10000110110 1100000111 1101001010 1110001011 1011110010 1101011111 1011010001 1011111111 10000010001 10000111001 1100011101 1100010100 1100000101 1011111000 21.938 43.831 1003.3 154871 16 -126 12 59 51 3 $GNGGA,120709.00,,,,,0,00,99.9,,,,,,*4C
50 12 07 10 Nan Nan Nan 1101011001 1100010000 1100100011 10000000011 10000110110 1100000101 1101000010 1110001100 1011110011 1101011111 1011010011 1011111111 10000010001 10000110111 1100011111 1100011000 1100001010 1011111111 21.875 43.793 1003.3 155870 16 -126 11 59 52 3 $GNGGA,120710.00,,,,,0,00,99.9,,,,,,*44
50 12 07 11 Nan Nan Nan 1101011001 1100010000 1100100101 10000000001 10000110101 1100000001 1101000100 1110010000 1011110101 1101011111 1011010011 1011111101 10000010000 10000111001 1100011001 1100010000 1100000001 1100000000 21.875 43.778 1003.3 156869 18 -126 10 59 51 4 $GNGGA,120711.00,,,,,0,00,99.9,,,,,,*45
50 12 07 12 Nan Nan Nan 1101011001 1100001111 1100100010 10000001001 10000110111 1100001000 1101001010 1110001000 1011101101 1101011111 1011010100 1011111110 10000010110 10000111010 1100011100 1100010000 1100000101 1011111110 21.875 43.770 1003.3 157869 16 -126 12 59 51 3 $GNGGA,120712.00,,,,,0,00,99.9,,,,,,*46
50 12 07 13 Nan Nan Nan 1101011001 1100010000 1100100111 10000000111 10000110110 1100000111 1101000111 1110000001 1011101010 1101011111 1011010010 1011111111 10000010101 10000111010 1100011100 1100010001 1100000010 1011111010 21.875 43.778 1003.3 158867 17 -126 11 60 51 3 $GNGGA,120713.00,,,,,0,00,99.9,,,,,,*47
50 12 07 14 Nan Nan Nan 1101011000 1100010101 1100101010 10000000010 10000110100 1100000011 1101000111 1101111101 1011101100 1101011111 1011010001 1011111100 10000010010 10000111010 1100011111 1100010001 1100001010 1100000000 21.875 43.793 1003.3 159866 16 -126 12 59 51 3 $GNGGA,120714.00,,,,,0,00,99.9,,,,,,*40
51 12 07 15 Nan Nan Nan 1101011000 1100001101 1100100010 10000000001 10000110101 1100001110 1101001101 1110001011 1011111001 1101011111 1011010001 1011111111 10000010101 10000111010 1100011111 1100010100 1100001100 1100000011 21.875 43.809 1003.3 160865 17 -126 10 59 51 4 $GNGGA,120715.00,,,,,0,00,99.9,,,,,,*41
51 12 07 16 Nan Nan Nan 1101011001 1100001110 1100100001 10000000110 10000110110 1100000011 1101000101 1110001010 1011110110 1101011111 1011001101 1011111110 10000010011 10000111001 1100011111 1100010110 1011111111 1011111000 21.875 43.816 1003.3 161864 17 -126 10 59 51 4 $GNGGA,120716.00,,,,,0,00,99.9,,,,,,*42
