id HH MM SS longitude latitude altitude adc_1_ch0 adc_1_ch1 adc_1_ch2 adc_1_ch3 adc_1_ch4 adc_1_ch5 adc_1_ch6 adc_1_ch7 adc_1_ch8 adc_2_ch0 adc_2_ch1 adc_2_ch2 adc_2_ch3 adc_2_ch4 adc_2_ch5 adc_2_ch6 adc_2_ch7 adc_2_ch8 temp hum pres t_prog t_gps t_split t_adc t_temp t_hum t_pres trame_gga
0 12 27 48 4333.6878800128.75207141.5~ 00128.75207 141.5 1101011001 1100001100 1100100001 10000000011 10000110101 1100000010 1100111110 1101111001 1011101110 1101100000 1011010011 1011111011 10000010101 10000111000 1100011011 1100010010 1100000011 1011111100 21.688 43.831 795.83 1443 16 0 15 59 51 3 $GNGGA,122748.00,4333.68788,N,00128.75207,E,1,04,13.5,141.5,M,53.8,M,,*46
0 12 27 49 4333.6885300128.75201141.7~ 00128.75201 141.7 1101011001 1100001111 1100100011 1111111111 10000110011 1011111101 1101000001 1101111110 1011100110 1101011111 1011010010 1011111111 10000011000 10000111101 1100010111 1100001011 1100000011 1100001000 21.688 43.725 1003.1 2442 17 0 13 59 52 4 $GNGGA,122749.00,4333.68853,N,00128.75201,E,1,04,13.5,141.7,M,53.8,M,,*4A
1 12 27 50 4333.6879800128.75109141.7~ 00128.75109 141.7 1101011001 1100010100 1100101010 10000000011 10000110011 1100000011 1101001001 1101110111 1011101100 1101100000 1011010101 1011111111 10000011000 10000111010 1100011101 1100001100 1100000110 1100000001 21.750 43.671 1003.1 3441 17 0 14 60 50 4 $GNGGA,122750.00,4333.68798,N,00128.75109,E,1,04,13.5,141.7,M,53.8,M,,*41
1 12 27 51 4333.6873300128.75045141.3~ 00128.75045 141.3 1101011001 1100010010 1100100110 1111111110 10000110011 1100000000 1101000010 1101111111 1011110000 1101011111 1011010100 1100000001 10000011000 10000110111 1100011010 1100010000 1100000100 1011111101 21.750 43.603 1003.1 4442 16 0 14 59 50 5 $GNGGA,122751.00,4333.68733,N,00128.75045,E,1,04,13.5,141.3,M,53.8,M,,*4C
2 12 27 52 4333.6879600128.75001141.2~ 00128.75001 141.2 1101011001 1100010001 1100100101 10000001000 10000111000 1011111011 1100111111 1101111101 1011110010 1101011111 1011010010 1011111100 10000011011 10000111001 1100011011 1100010000 1100000001 1011111100 21.750 43.541 1003.1 5440 18 0 13 59 51 4 $GNGGA,122752.00,4333.68796,N,00128.75001,E,1,04,13.5,141.2,M,53.8,M,,*41
2 12 27 53 4333.6875500128.74970140.9~ 00128.74970 140.9 1101011001 1100010010 1100100111 10000000111 10000110101 1100000001 1101000010 1101111011 1011110001 1101100000 1011010010 1011111101 10000010111 10000111000 1100010111 1100010001 1100000010 1100000010 21.750 43.503 1003.1 6439 16 0 15 59 51 3 $GNGGA,122753.00,4333.68755,N,00128.74970,E,1,04,13.5,140.9,M,53.8,M,,*4B
3 12 27 54 4333.6867400128.74991141.1~ 00128.74991 141.1 1101011001 1100010000 1100100011 10000000010 10000110010 1011111111 1101000101 1101111001 1011101100 1101100000 1011010001 1100000000 10000010011 10000111010 1100010010 1100001000 1100000011 1011111101 21.750 43.541 1003.1 7439 17 0 14 60 51 3 $GNGGA,122754.00,4333.68674,N,00128.74991,E,1,04,13.5,141.1,M,53.8,M,,*48
3 12 27 55 4333.6855800128.75061141.3~ 00128.75061 141.3 1101011001 1100010101 1100101001 10000000111 10000110100 1100000100 1101000110 1101110100 1011101110 1101100000 1011010100 1011111111 10000011000 10000111001 1100010101 1100001010 1100001000 1011111111 21.750 43.519 1003.1 8437 16 0 15 59 51 3 $GNGGA,122755.00,4333.68558,N,00128.75061,E,1,04,13.5,141.3,M,53.8,M,,*41
3 12 27 56 4333.6863100128.75040141.1~ 00128.75040 141.1 1101011001 1100010001 1100101001 10000000111 10000110110 1100000001 1101000100 1110000011 1011110110 1101100000 1011010010 1011111100 10000011001 10000111011 1100011010 1100001110 1100000000 1011111111 21.750 43.480 1003.1 9437 16 0 14 59 51 4 $GNGGA,122756.00,4333.68631,N,00128.75040,E,1,04,13.6,141.1,M,53.8,M,,*4C
3 12 27 57 4333.6869500128.74858141.3~ 00128.74858 141.3 1101011001 1100010010 1100101010 10000001000 10000110110 1100000001 1100111110 1101111101 1011110011 1101100000 1011010101 1011111111 10000010110 10000111011 1100011001 1100001011 1011111110 1011111111 21.750 43.465 1003.1 10435 17 0 14 60 51 3 $GNGGA,122757.00,4333.68695,N,00128.74858,E,1,04,13.6,141.3,M,53.8,M,,*41
3 12 27 58 4333.6877200128.74715141.0~ 00128.74715 141.0 1101011001 1100001111 1100101000 10000001110 10000111001 1011111110 1100111010 1110000000 1011101110 1101011111 1011010001 1011111110 10000011001 10000111001 1100010110 1100010000 1100001011 1100001000 21.750 43.458 1003.1 11433 16 0 15 59 51 3 $GNGGA,122758.00,4333.68772,N,00128.74715,E,1,04,13.6,141.0,M,53.8,M,,*43
4 12 27 59 4333.6876800128.74647141.0~ 00128.74647 141.0 1101011001 1100010010 1100100110 10000000010 10000110011 1100000110 1101000010 1101111110 1011101100 1101100000 1011001111 1011111110 10000010111 10000111000 1100010110 1100001011 1100001010 1100000001 21.750 43.450 1003.1 12434 18 0 13 59 51 4 $GNGGA,122759.00,4333.68768,N,00128.74647,E,1,04,13.6,141.0,M,53.8,M,,*4F
4 12 28 00 4333.6868900128.74669141.1~ 00128.74669 141.1 1101011001 1100010001 1100100011 10000000111 10000110101 1100000010 1101000011 1101110101 1011101011 1101100000 1011010000 1011111100 10000010111 10000111001 1100100000 1100001111 1100000101 1100000010 21.750 43.442 1003.1 13430 16 0 15 59 51 3 $GNGGA,122800.00,4333.68689,N,00128.74669,E,1,04,13.6,141.1,M,53.8,M,,*4F
5 12 28 01 4333.6860800128.74763141.1~ 00128.74763 141.1 1101011001 1100010001 1100100101 10000001011 10000111010 1100000101 1101000010 1110000101 1011110111 1101011111 1011010101 1100000000 10000011000 10000111000 1100011011 1100010100 1100001000 1100000001 21.688 43.435 1003.1 14431 16 0 14 59 51 4 $GNGGA,122801.00,4333.68608,N,00128.74763,E,1,04,13.6,141.1,M,53.8,M,,*4C
6 12 28 02 4333.6867800128.74741140.8~ 00128.74741 140.8 1101011001 1100010001 1100100110 10000000110 10000110011 1100000011 1101000110 1101111100 1011110100 1101011111 1011010101 1100000010 10000011110 10000111011 1100010110 1100001101 1100001011 1100000001 21.750 43.442 1003.1 15430 18 0 13 59 51 4 $GNGGA,122802.00,4333.68678,N,00128.74741,E,1,04,13.6,140.8,M,53.8,M,,*40
6 12 28 03 4333.6860600128.74733140.7~ 00128.74733 140.7 1101011001 1100010001 1100101000 10000000001 10000110011 1100000000 1101000000 1101111010 1011101101 1101011111 1011010100 1100000000 10000011001 10000111010 1100011010 1100001110 1100000001 1100000110 21.750 43.488 1003.1 16430 16 0 14 59 51 4 $GNGGA,122803.00,4333.68606,N,00128.74733,E,1,04,13.6,140.7,M,53.8,M,,*42
7 12 28 04 4333.6864800128.74655140.1~ 00128.74655 140.1 1101011001 1100010001 1100100111 10000000111 10000111000 1100000101 1101000011 1101111100 1011110110 1101011111 1011010001 1011111101 10000011010 10000111000 1100011101 1100001111 1100000111 1100000001 21.750 43.473 1003.1 17428 17 0 14 59 51 4 $GNGGA,122804.00,4333.68648,N,00128.74655,E,1,04,13.6,140.1,M,53.8,M,,*48
7 12 28 05 4333.6876100128.74599139.4~ 00128.74599 139.4 1101011001 1100001101 1100100001 10000010001 10000110111 1011111111 1101000011 1101111001 1011101110 1101011111 1011010001 1100000000 10000010010 10000111001 1100010110 1100001110 1011111110 1011111010 21.750 43.458 1003.1 18427 17 0 14 58 51 4 $GNGGA,122805.00,4333.68761,N,00128.74599,E,1,04,13.7,139.4,M,53.8,M,,*4A
7 12 28 06 4333.6866000128.74606139.8~ 00128.74606 139.8 1101011001 1100010000 1100100100 10000000100 10000110111 1100000000 1101000001 1101111101 1011101111 1101011111 1011010000 1011111110 10000010100 10000111010 1100011000 1100001111 1100000000 1011110111 21.750 43.435 1003.1 19428 17 0 14 60 51 3 $GNGGA,122806.00,4333.68660,N,00128.74606,E,1,04,13.7,139.8,M,53.8,M,,*40
7 12 28 07 4333.6868800128.74596139.6~ 00128.74596 139.6 1101011001 1100010000 1100100110 10000001000 10000110101 1011111111 1101000001 1110000111 1011110001 1101100000 1011010110 1100000000 10000011010 10000111010 1100010110 1100001101 1100000100 1011111000 21.750 43.419 1003.1 20424 17 0 14 60 50 4 $GNGGA,122807.00,4333.68688,N,00128.74596,E,1,04,13.7,139.6,M,53.8,M,,*43
8 12 28 08 4333.6849200128.74247147.3~ 00128.74247 147.3 1101011001 1100001110 1100100100 10000001011 10000110111 1100000000 1101000010 1110001011 1011110100 1101100000 1011010011 1011111111 10000010111 10000111000 1100010110 1100001001 1100000011 1011111111 21.750 43.412 1003.1 21425 16 0 14 59 52 3 $GNGGA,122808.00,4333.68492,N,00128.74247,E,1,03,3.24,147.3,M,53.8,M,,*45
8 12 28 09 4333.6833900128.73941150.7~ 00128.73941 150.7 1101011001 1100001111 1100100001 10000001001 10000110100 1100000010 1101000100 1101111111 1011100011 1101100000 1011010001 1011111111 10000011101 10000111011 1100011101 1100001111 1100001011 1100000111 21.750 43.397 1003.1 22423 17 0 14 60 50 4 $GNGGA,122809.00,4333.68339,N,00128.73941,E,1,03,3.24,150.7,M,53.8,M,,*4A
8 12 28 10 4333.6836900128.73880151.0~ 00128.73880 151.0 1101011001 1100001111 1100100011 10000000011 10000110010 1100000010 1100111101 1101111101 1011101011 1101100000 1011010101 1100000000 10000011101 10000111000 1100010101 1100001010 1100000001 1100000000 21.750 44.549 1003.1 23421 17 0 14 58 51 4 $GNGGA,122810.00,4333.68369,N,00128.73880,E,1,03,3.24,151.0,M,53.8,M,,*4D
9 12 28 11 4333.6831900128.73837150.6~ 00128.73837 150.6 1101011001 1100010000 1100100100 10000000011 10000110101 1100000000 1101000100 1110001010 1011111010 1101100000 1011001111 1011111100 10000011110 10000111011 1100011000 1100001110 1011111001 1011111000 21.750 45.029 1003.1 24422 18 0 13 59 51 4 $GNGGA,122811.00,4333.68319,N,00128.73837,E,1,04,13.7,150.6,M,53.8,M,,*47
9 12 28 12 4333.6837400128.73684151.3~ 00128.73684 151.3 1101011001 1100010011 1100100110 10000001101 10000111000 1011111111 1101000100 1110000100 1011110001 1101100000 1011010001 1011111110 10000011011 10000111010 1100011010 1100001100 1100001010 1100000110 21.750 45.693 1003.1 25420 16 0 15 59 51 3 $GNGGA,122812.00,4333.68374,N,00128.73684,E,1,03,3.24,151.3,M,53.8,M,,*4A
9 12 28 13 4333.6841200128.73676151.2~ 00128.73676 151.2 1101011001 1100001101 1100100101 10000001000 10000111010 1100000000 1101000000 1110000011 1011110111 1101100000 1011010110 1011111111 10000010110 10000111001 1100010100 1100001101 1100001100 1100000001 21.750 45.472 1003.1 26420 16 0 14 59 52 3 $GNGGA,122813.00,4333.68412,N,00128.73676,E,1,04,13.7,151.2,M,53.8,M,,*47
10 12 28 14 4333.6845500128.73695151.2~ 00128.73695 151.2 1101011001 1100010010 1100101000 10000001000 10000110110 1100000101 1101000101 1110000101 1011110011 1101100000 1011010111 1100000011 10000011101 10000111000 1100011100 1100010011 1100000101 1100000010 21.750 44.930 1003.1 27419 17 0 14 60 50 4 $GNGGA,122814.00,4333.68455,N,00128.73695,E,1,03,3.24,151.2,M,53.8,M,,*49
10 12 28 15 4333.6843700128.73629151.2~ 00128.73629 151.2 1101011001 1100001101 1100100100 10000000110 10000110110 1100000000 1100111110 1110000111 1011111001 1101011111 1011010111 1011111110 10000011001 10000111011 1100010011 1100001110 1100000101 1011111110 21.750 44.747 1003.1 28418 17 0 13 58 51 5 $GNGGA,122815.00,4333.68437,N,00128.73629,E,1,03,3.24,151.2,M,53.8,M,,*4B
11 12 28 16 4333.6847000128.73378151.6~ 00128.73378 151.6 1101011001 1100001111 1100100011 10000000100 10000110101 1011111110 1100111111 1110000110 1011110010 1101011111 1011010011 1011111111 10000011100 10000111100 1100011000 1100010001 1100000100 1011111011 21.750 44.762 1003.1 29417 17 0 14 60 50 4 $GNGGA,122816.00,4333.68470,N,00128.73378,E,1,03,3.24,151.6,M,53.8,M,,*4E
11 12 28 17 4333.6843600128.73274151.6~ 00128.73274 151.6 1101011001 1100010101 1100101101 10000001100 10000111100 1100000001 1101000110 1110000001 1011110011 1101100000 1011010010 1100000000 10000010110 10000111000 1100011010 1100001111 1100000101 1011111001 21.750 44.495 1003.1 30415 17 0 14 58 51 4 $GNGGA,122817.00,4333.68436,N,00128.73274,E,1,03,3.24,151.6,M,53.8,M,,*40
11 12 28 18 4333.6843300128.73199151.6~ 00128.73199 151.6 1101011001 1100010011 1100100101 10000001000 10000111000 1100000000 1101000001 1101111110 1011110010 1101011111 1011010011 1100000000 10000010100 10000111010 1100011000 1100001010 1100000100 1100000101 21.750 44.175 1003.1 31414 16 0 14 59 52 3 $GNGGA,122818.00,4333.68433,N,00128.73199,E,1,03,3.24,151.6,M,53.8,M,,*4A
12 12 28 19 4333.6843400128.73122151.6~ 00128.73122 151.6 1101011001 1100001111 1100100100 10000001001 10000110111 1100000010 1101000010 1110000001 1011110001 1101100000 1011010111 1100000010 10000010011 10000111010 1100011011 1100010111 1100000110 1100000000 21.813 43.976 1003.1 32414 16 0 15 58 51 4 $GNGGA,122819.00,4333.68434,N,00128.73122,E,1,03,3.24,151.6,M,53.8,M,,*4C
12 12 28 20 4333.6840600128.72956151.7~ 00128.72956 151.7 1101011001 1100010101 1100101100 10000001000 10000110101 1100000101 1101000100 1110000110 1011110101 1101011111 1011010011 1011111100 10000011011 10000111001 1100010110 1100001010 1100001000 1100000010 21.813 44.053 1003.1 33413 16 0 14 59 50 5 $GNGGA,122820.00,4333.68406,N,00128.72956,E,1,03,3.24,151.7,M,53.8,M,,*4C
13 12 28 21 4333.6841200128.72985151.6~ 00128.72985 151.6 1101011001 1100010000 1100100110 10000001001 10000110110 1100000000 1101000001 1110000010 1011110010 1101100000 1011010101 1100000001 10000011000 10000111010 1100010001 1100001010 1100001101 1100001000 21.813 43.908 1003.1 34412 18 0 13 59 51 4 $GNGGA,122821.00,4333.68412,N,00128.72985,E,1,03,3.24,151.6,M,53.8,M,,*47
13 12 28 22 4333.6842700128.72844151.6~ 00128.72844 151.6 1101011001 1100010101 1100101010 10000001010 10000111000 1011111111 1101000000 1110000011 1011110110 1101100000 1011010110 1100000001 10000011110 10000111010 1100011011 1100010000 1100001111 1100000100 21.813 43.763 1003.1 35412 16 0 15 59 50 4 $GNGGA,122822.00,4333.68427,N,00128.72844,E,1,03,3.24,151.6,M,53.8,M,,*4E
13 12 28 23 4333.6843400128.72755151.6~ 00128.72755 151.6 1101011001 1100010001 1100100111 10000000111 10000110111 1100000001 1101000001 1101111011 1011101101 1101011111 1011010001 1011111110 10000010101 10000110111 1100011011 1100001110 1100001111 1100000011 21.813 43.801 1003.1 36410 18 0 13 59 51 4 $GNGGA,122823.00,4333.68434,N,00128.72755,E,1,03,3.24,151.6,M,53.8,M,,*42
13 12 28 24 4333.6848800128.72781151.6~ 00128.72781 151.6 1101011001 1100010000 1100100011 10000001010 10000110100 1100000011 1101000110 1110000101 1011101110 1101011111 1011010001 1011111110 10000010010 10000111001 1100010110 1100001110 1011111111 1011111001 21.813 43.831 1003.1 37409 16 0 15 59 50 4 $GNGGA,122824.00,4333.68488,N,00128.72781,E,1,03,3.24,151.6,M,53.8,M,,*4B
13 12 28 25 4333.6845300128.72767149.7~ 00128.72767 149.7 1101011001 1100001111 1100100100 10000000110 10000110100 1100000010 1101000001 1101111101 1011101111 1101011111 1011010001 1011111100 10000010100 10000110110 1100011000 1100001110 1100000010 1011111010 21.813 43.938 1003.1 38409 16 0 14 59 51 4 $GNGGA,122825.00,4333.68453,N,00128.72767,E,1,03,3.24,149.7,M,53.8,M,,*4C
13 12 28 26 4333.6849300128.72708149.8~ 00128.72708 149.8 1101011001 1100010100 1100101000 10000001000 10000110101 1100001000 1101000110 1110000001 1011110010 1101100000 1011010001 1011111101 10000011001 10000111001 1100011001 1100010000 1011111101 1011110101 21.813 43.976 1003.1 39408 17 0 14 60 51 3 $GNGGA,122826.00,4333.68493,N,00128.72708,E,1,03,3.24,149.8,M,53.8,M,,*45
13 12 28 27 Nan Nan Nan 1101011001 1100001111 1100100010 1111111011 10000110000 1100000010 1101000101 1101111100 1011111001 1101011111 1011010011 1100000000 10000010111 10000111010 1100011001 1100010110 1011111110 1011111001 21.813 44.106 1003.1 40393 17 0 11 60 51 3 $GNGGA,122827.00,,,,,0,00,99.9,,,,,,*4D
13 12 28 28 Nan Nan Nan 1101011001 1100001111 1100100001 1111111110 10000110011 1100000101 1101000110 1110000100 1011110010 1101100000 1011010100 1100000000 10000011110 10000111011 1100011000 1100001111 1011111100 1011111101 21.813 44.190 1003.1 41392 16 0 11 59 51 4 $GNGGA,122828.00,,,,,0,00,99.9,,,,,,*42
13 12 28 29 Nan Nan Nan 1101011001 1100001111 1100100101 10000000100 10000110101 1011111110 1100111110 1110000000 1011101001 1101100000 1011010101 1100000010 10000011111 10000111001 1100010111 1100001100 1100000100 1100000100 21.813 44.282 1003.1 42390 17 0 11 60 51 3 $GNGGA,122829.00,,,,,0,00,99.9,,,,,,*43
13 12 28 30 Nan Nan Nan 1101011001 1100010101 1100101000 10000000111 10000110110 1011111110 1101000100 1110000011 1011101110 1101011111 1011010000 1011111100 10000010110 10000111001 1100011001 1100001110 1011111100 1011111110 21.813 44.411 1003.1 43389 16 0 11 58 51 4 $GNGGA,122830.00,,,,,0,00,99.9,,,,,,*4B
14 12 28 31 Nan Nan Nan 1101011001 1100010000 1100100110 10000000011 10000110101 1100000010 1100111101 1110000010 1011110010 1101100000 1011010011 1011111111 10000100000 10000111100 1100011010 1100001110 1100000010 1100000001 21.813 44.785 1003.1 44389 17 0 10 59 51 4 $GNGGA,122831.00,,,,,0,00,99.9,,,,,,*4A
14 12 28 32 Nan Nan Nan 1101011001 1100010100 1100101001 1111111111 10000110101 1100000001 1101000101 1110000001 1011101101 1101011111 1011010101 1011111111 10000011001 10000111001 1100010111 1100001010 1011111110 1011110111 21.750 44.457 1003.1 45388 17 0 11 59 51 3 $GNGGA,122832.00,,,,,0,00,99.9,,,,,,*49
15 12 28 33 4333.6793800128.72482151.1~ 00128.72482 151.1 1101011001 1100001100 1100100001 10000000110 10000110100 1011111110 1100111101 1110000011 1011101110 1101100000 1011010111 1011111111 10000010111 10000111100 1100010101 1100010010 1100000010 1011110111 21.813 44.175 1003.1 46400 18 0 13 60 51 4 $GNGGA,122833.00,4333.67938,N,00128.72482,E,1,03,3.25,151.1,M,53.8,M,,*42
15 12 28 34 4333.6812800128.72667151.9~ 00128.72667 151.9 1101011001 1100010011 1100100110 10000001001 10000110111 1100000010 1100111111 1101111111 1011101010 1101011111 1011010011 1011111111 10000011011 10000111010 1100100000 1100010011 1100000110 1100000011 21.813 44.602 1003.1 47398 16 0 15 59 51 3 $GNGGA,122834.00,4333.68128,N,00128.72667,E,1,03,3.25,151.9,M,53.8,M,,*42
15 12 28 35 4333.6795900128.72846151.7~ 00128.72846 151.7 1101011001 1100010000 1100100101 1111111110 10000110011 1100000010 1101000010 1101111101 1011011101 1101100000 1011010010 1011111110 10000011101 10000111001 1100011010 1100010011 1100000101 1011111101 21.813 44.449 1003.1 48398 16 0 14 59 51 4 $GNGGA,122835.00,4333.67959,N,00128.72846,E,1,03,3.25,151.7,M,53.8,M,,*41
15 12 28 36 Nan Nan Nan 1101011001 1100010010 1100100111 10000000011 10000110100 1100000011 1101000001 1101111111 1011101101 1101100000 1011010100 1011111110 10000011000 10000111000 1100010101 1100001111 1100001000 1100000001 21.813 44.190 1003.1 49383 17 0 11 60 51 3 $GNGGA,122836.00,,,,,0,00,99.9,,,,,,*4D
16 12 28 37 Nan Nan Nan 1101011001 1100010100 1100101001 10000000011 10000110101 1100000100 1101000111 1110000010 1011100110 1101011111 1011010011 1011111100 10000010110 10000111000 1100011011 1100001011 1100000111 1100000011 21.813 44.037 1003.1 50384 16 0 12 59 50 4 $GNGGA,122837.00,,,,,0,00,99.9,,,,,,*4C
16 12 28 38 Nan Nan Nan 1101011001 1100010010 1100100110 10000001001 10000110110 1100000101 1101000110 1110000000 1011110010 1101100000 1011010101 1011111110 10000011001 10000111000 1100010110 1100001111 1100000100 1100000000 21.813 44.098 1003.1 51383 17 0 10 59 51 4 $GNGGA,122838.00,,,,,0,00,99.9,,,,,,*43
16 12 28 39 Nan Nan Nan 1101011001 1100010000 1100100101 10000001101 10000110100 1100000101 1101000110 1101111111 1011110011 1101100000 1011010111 1100000010 10000011010 10000111001 1100011000 1100001101 1100000010 1011111100 21.813 44.129 1003.1 52382 17 0 11 60 50 4 $GNGGA,122839.00,,,,,0,00,99.9,,,,,,*42
16 12 28 40 Nan Nan Nan 1101011001 1100010010 1100100111 10000001010 10000111000 1100000001 1100111111 1101111011 1011100110 1101011111 1011010110 1100000000 10000011011 10000111001 1100011101 1100010101 1100000111 1011111100 21.813 43.992 1003.1 53379 16 0 11 59 51 4 $GNGGA,122840.00,,,,,0,00,99.9,,,,,,*4C
17 12 28 41 4333.6812500128.73277150.5~ 00128.73277 150.5 1101011001 1100010000 1100100101 10000000110 10000110001 1100000001 1101000010 1110000110 1011110011 1101100000 1011010001 1011111100 10000011001 10000111000 1100011110 1100001100 1100000100 1100000000 21.813 43.992 1003.1 54392 17 0 14 58 51 4 $GNGGA,122841.00,4333.68125,N,00128.73277,E,1,03,3.25,150.5,M,53.8,M,,*44
17 12 28 42 4333.6807800128.73571150.9~ 00128.73571 150.9 1101011001 1100010001 1100100101 10000001100 10000111000 1011111100 1100111110 1110000100 1011101111 1101100000 1011010011 1011111111 10000011111 10000111100 1100010111 1100001101 1100000011 1100000010 21.813 44.213 1003.1 55392 16 0 14 59 51 4 $GNGGA,122842.00,4333.68078,N,00128.73571,E,1,03,3.25,150.9,M,53.8,M,,*43
17 12 28 43 4333.6799400128.73476151.1~ 00128.73476 151.1 1101011001 1100010000 1100100111 10000000101 10000110100 1011111100 1100111111 1101111110 1011101110 1101100000 1011010001 1011111110 10000011011 10000111100 1100011011 1100010000 1100000111 1100000001 21.813 43.938 1003.1 56391 17 0 14 60 51 3 $GNGGA,122843.00,4333.67994,N,00128.73476,E,1,03,3.25,151.1,M,53.8,M,,*49
17 12 28 44 4333.6791400128.73393152.1~ 00128.73393 152.1 1101011001 1100001111 1100100100 10000001011 10000110011 1100000101 1101000001 1101111011 1011101001 1101100000 1011010101 1011111111 10000011110 10000111011 1100011110 1100010010 1100001000 1100000110 21.813 43.755 1003.1 57390 16 0 14 59 51 4 $GNGGA,122844.00,4333.67914,N,00128.73393,E,1,03,3.25,152.1,M,53.8,M,,*49
18 12 28 45 4333.6792200128.73464152.3~ 00128.73464 152.3 1101011001 1100010100 1100101100 10000000000 10000110101 1011111001 1100111010 1110000111 1011110110 1101100000 1011010100 1011111111 10000010100 10000111001 1100010101 1100001101 1011111110 1011111000 21.875 43.633 1003.1 58389 18 0 13 59 51 4 $GNGGA,122845.00,4333.67922,N,00128.73464,E,1,03,3.25,152.3,M,53.8,M,,*40
18 12 28 46 4333.6775600128.72669158.2~ 00128.72669 158.2 1101011001 1100010000 1100100100 10000000011 10000110100 1100000011 1101000110 1101111000 1011101101 1101100000 1011010010 1011111111 10000010100 10000111001 1100011011 1100010001 1100001001 1100000110 21.813 43.549 1003.1 59388 16 0 15 59 51 3 $GNGGA,122846.00,4333.67756,N,00128.72669,E,1,04,14.1,158.2,M,53.8,M,,*4C
18 12 28 47 4333.6769000128.72264158.2~ 00128.72264 158.2 1101011001 1100010000 1100100101 10000001100 10000110110 1100000100 1101000111 1110000110 1011110100 1101011111 1011010101 1011111111 10000011011 10000111100 1100010111 1100001111 1100000000 1100000000 21.813 43.580 1003.1 60386 16 -1 14 59 51 4 $GNGGA,122847.00,4333.67690,N,00128.72264,E,1,04,14.1,158.2,M,53.8,M,,*4F
19 12 28 48 4333.6763700128.71838158.1~ 00128.71838 158.1 1101011001 1100010000 1100100011 10000000111 10000110101 1011111111 1100111101 1110000001 1011110010 1101011111 1011010110 1011111111 10000010101 10000111000 1100010111 1100001110 1100000011 1011111100 21.813 43.747 1003.1 61387 16 0 15 59 51 3 $GNGGA,122848.00,4333.67637,N,00128.71838,E,1,04,14.1,158.1,M,53.8,M,,*4E
19 12 28 49 4333.6756300128.71542157.4~ 00128.71542 157.4 1101011001 1100001111 1100100010 10000000111 10000110111 1100000010 1101000001 1110000110 1011101110 1101011111 1011010011 1011111111 10000010111 10000110111 1100010111 1100001010 1100001010 1100000001 21.875 43.694 1003.1 62386 16 0 14 59 52 3 $GNGGA,122849.00,4333.67563,N,00128.71542,E,1,04,14.1,157.4,M,53.8,M,,*47
20 12 28 50 4333.6758500128.71344156.8~ 00128.71344 156.8 1101011001 1100001110 1100100100 10000000010 10000110000 1100000010 1101000010 1110000100 1011101010 1101011111 1011010011 1011111110 10000100001 10000111010 1100010110 1100001101 1100001010 1100000010 21.813 43.557 1003.1 63384 17 0 14 60 50 4 $GNGGA,122850.00,4333.67585,N,00128.71344,E,1,04,14.1,156.8,M,53.8,M,,*4A
20 12 28 51 4333.6746700128.71198156.2~ 00128.71198 156.2 1101011001 1100010000 1100100101 10000001001 10000110110 1100000101 1101000110 1110000101 1011101110 1101011111 1011010011 1011111101 10000011001 10000111001 1100011010 1100001111 1100001010 1100000101 21.813 43.480 1003.1 64382 16 0 15 59 50 4 $GNGGA,122851.00,4333.67467,N,00128.71198,E,1,04,14.2,156.2,M,53.8,M,,*4C
20 12 28 52 4333.6751400128.71280155.9~ 00128.71280 155.9 1101011001 1100001110 1100100011 10000000100 10000110001 1011111110 1101000001 1101111000 1011101010 1101100000 1011010110 1100000001 10000010111 10000111011 1100011010 1100001110 1100010000 1100000111 21.875 43.427 1003.1 65381 17 0 14 60 50 4 $GNGGA,122852.00,4333.67514,N,00128.71280,E,1,04,14.2,155.9,M,53.8,M,,*48
20 12 28 53 4333.6746500128.71191155.6~ 00128.71191 155.6 1101011001 1100010011 1100101000 10000000001 10000110100 1100000011 1101000111 1110000111 1011110011 1101100000 1011001110 1011111011 10000010101 10000111001 1100010101 1100001011 1100000111 1100000010 21.813 43.473 1003.1 66380 16 0 15 59 50 4 $GNGGA,122853.00,4333.67465,N,00128.71191,E,1,04,14.2,155.6,M,53.8,M,,*42
20 12 28 54 4333.6746200128.71145155.6~ 00128.71145 155.6 1101011001 1100010000 1100100011 10000000101 10000110011 1100000010 1100111111 1101111110 1011110000 1101100000 1011010001 1011111100 10000011001 10000111001 1100010101 1100001001 1100000100 1100000000 21.813 43.526 1003.1 67380 16 0 14 59 51 4 $GNGGA,122854.00,4333.67462,N,00128.71145,E,1,04,14.2,155.6,M,53.8,M,,*4B
21 12 28 55 4333.6736800128.70931155.3~ 00128.70931 155.3 1101011001 1100010011 1100100111 10000001010 10000110111 1100000100 1101000010 1110000110 1011110001 1101011111 1011010011 1100000000 10000010111 10000111010 1100010110 1100001101 1100000001 1100000001 21.813 43.778 1003.1 68380 17 0 14 60 51 3 $GNGGA,122855.00,4333.67368,N,00128.70931,E,1,04,14.2,155.3,M,53.8,M,,*48
21 12 28 56 4333.6742800128.70719154.8~ 00128.70719 154.8 1101011001 1100010000 1100100110 10000001001 10000110101 1100000001 1101000100 1101111101 1011101011 1101100000 1011001110 1011111110 10000010100 10000111001 1100011000 1100010000 1100000101 1011111111 21.875 43.862 1003.1 69378 16 0 15 59 51 3 $GNGGA,122856.00,4333.67428,N,00128.70719,E,1,04,14.2,154.8,M,53.8,M,,*46
21 12 28 57 4333.6745300128.70625154.7~ 00128.70625 154.7 1101011001 1100010001 1100101000 10000000010 10000110100 1100000100 1101000011 1110000001 1011110011 1101100000 1011010101 1100000000 10000010010 10000110111 1100010100 1100001010 1100000110 1011111011 21.813 43.709 1003.1 70377 17 0 14 60 51 3 $GNGGA,122857.00,4333.67453,N,00128.70625,E,1,04,14.2,154.7,M,53.8,M,,*4A
21 12 28 58 4333.6741300128.70460154.2~ 00128.70460 154.2 1101011001 1100010000 1100100011 10000000110 10000110100 1100000011 1101000001 1101111111 1011110011 1101100000 1011010100 1100000000 10000100000 10000111011 1100011011 1100001101 1011111111 1011111101 21.875 43.618 1003.1 71374 16 0 15 59 50 4 $GNGGA,122858.00,4333.67413,N,00128.70460,E,1,04,14.2,154.2,M,53.8,M,,*47
22 12 28 59 4333.6739500128.70413153.7~ 00128.70413 153.7 1101011001 1100001101 1100100011 10000001101 10000111100 1011111110 1101000011 1110001000 1011111010 1101011111 1011010100 1011111110 10000011001 10000111010 1100011010 1100010000 1100001011 1100000101 21.813 43.725 1003.1 72375 17 0 13 58 52 4 $GNGGA,122859.00,4333.67395,N,00128.70413,E,1,04,14.2,153.7,M,53.8,M,,*49
22 12 29 00 Nan Nan Nan 1101011001 1100010000 1100100101 10000000110 10000110001 1100000010 1101000000 1110000010 1011110011 1101011111 1011010001 1011111101 10000011101 10000111010 1100011000 1100001101 1100000111 1100000000 21.875 43.702 1003.1 73363 17 0 10 59 51 4 $GNGGA,122900.00,,,,,0,00,32.5,,,,,,*44
22 12 29 01 Nan Nan Nan 1101011001 1100001110 1100100101 10000001001 10000110111 1100000000 1101000101 1101111101 1011110100 1101100000 1011011010 1100000001 10000010111 10000110111 1100011000 1100001011 1100000110 1011111100 21.875 43.732 1003.1 74362 16 0 12 59 51 3 $GNGGA,122901.00,,,,,0,00,32.4,,,,,,*44
23 12 29 02 Nan Nan Nan 1101011001 1100001111 1100100101 10000000001 10000110010 1100000000 1100111101 1101111110 1011110110 1101100000 1011010100 1100000001 10000011010 10000111001 1100010111 1100001101 1100000101 1011111100 21.875 44.365 1003.1 75362 16 0 10 58 52 4 $GNGGA,122902.00,,,,,0,00,32.4,,,,,,*47
23 12 29 03 Nan Nan Nan 1101011001 1100010010 1100100100 10000000101 10000110011 1011111111 1101000001 1110000000 1011110111 1101100000 1011010101 1011111111 10000011001 10000111000 1100011001 1100001110 1100000111 1011111001 21.813 44.526 1003.1 76360 17 0 10 59 51 4 $GNGGA,122903.00,,,,,0,00,32.4,,,,,,*46
23 12 29 04 Nan Nan Nan 1101011001 1100001110 1100100001 1111111101 10000110101 1011111101 1101000010 1110000001 1011110010 1101011111 1011010010 1011111111 10000011100 10000111010 1100011101 1100010000 1100000110 1100000001 21.875 44.320 1003.0 77360 16 0 11 59 51 4 $GNGGA,122904.00,,,,,0,00,32.3,,,,,,*46
23 12 29 05 Nan Nan Nan 1101011001 1100010000 1100100101 10000001010 10000111010 1011111110 1100111110 1110001011 1011110010 1101011111 1011010110 1100000000 10000011011 10000111001 1100011110 1100001111 1100000100 1100000000 21.875 44.159 1003.0 78358 17 0 10 60 51 4 $GNGGA,122905.00,,,,,0,00,32.3,,,,,,*47
23 12 29 06 Nan Nan Nan 1101011001 1100010011 1100100110 10000000011 10000110100 1100001001 1101001010 1110001010 1011110011 1101100000 1011010010 1100000000 10000010111 10000111000 1100011001 1100010011 1100000111 1011111110 21.875 44.098 1003.1 79356 16 0 11 58 51 4 $GNGGA,122906.00,,,,,0,00,32.2,,,,,,*45
24 12 29 07 Nan Nan Nan 1101011001 1100010000 1100100110 10000001000 10000110100 1011111111 1100111111 1110000111 1011110001 1101011111 1011010011 1011111111 10000011001 10000110111 1100010110 1100001011 1011111100 1011111010 21.875 43.892 1003.0 80356 17 0 10 59 51 4 $GNGGA,122907.00,,,,,0,00,32.2,,,,,,*44
24 12 29 08 Nan Nan Nan 1101011001 1100001110 1100100100 10000000100 10000110110 1100000010 1101000001 1110001000 1011110100 1101011111 1011010001 1011111110 10000010111 10000111011 1100011001 1100001101 1100001010 1100000111 21.813 43.976 1003.0 81355 17 0 11 59 51 3 $GNGGA,122908.00,,,,,0,00,32.2,,,,,,*4B
24 12 29 09 Nan Nan Nan 1101011001 1100010100 1100101010 10000001010 10000110111 1100000101 1101000101 1110000100 1011101100 1101011111 1011010100 1011111110 10000010001 10000110111 1100100010 1100010100 1100000001 1011111101 21.875 44.068 1003.0 82353 16 0 11 59 52 3 $GNGGA,122909.00,,,,,0,00,32.1,,,,,,*49
25 12 29 10 Nan Nan Nan 1101011001 1100010100 1100101000 10000000110 10000110101 1100000100 1101000010 1110000001 1011101111 1101100000 1011010001 1011111011 10000011100 10000111100 1100011000 1100001010 1100000000 1011111011 21.813 44.014 1003.0 83353 17 0 10 59 51 4 $GNGGA,122910.00,,,,,0,00,32.1,,,,,,*41
26 12 29 11 4333.6803700128.70986148.1~ 00128.70986 148.1 1101011001 1100010010 1100100101 10000001111 10000111000 1011111110 1100111111 1110000011 1011111000 1101100000 1011010100 1100000000 10000010100 10000110111 1100010100 1100001001 1100000000 1011111110 21.813 44.373 1003.0 84364 17 0 13 58 52 4 $GNGGA,122911.00,4333.68037,N,00128.70986,E,1,04,14.4,148.1,M,53.8,M,,*4B
26 12 29 12 4333.6808300128.71037147.0~ 00128.71037 147.0 1101011001 1100010001 1100100110 10000000110 10000111000 1100000110 1101000100 1110000110 1011110011 1101011111 1011010010 1011111111 10000011010 10000111001 1100010100 1100001000 1100000011 1100000100 21.875 44.777 1003.1 85363 17 0 14 60 51 3 $GNGGA,122912.00,4333.68083,N,00128.71037,E,1,04,14.4,147.0,M,53.8,M,,*4B
26 12 29 13 4333.6803900128.71152146.1~ 00128.71152 146.1 1101011001 1100010110 1100101000 1111111101 10000110011 1011111100 1100111011 1110000111 1011110001 1101011111 1011011001 1011111111 10000011000 10000110111 1100011010 1100001111 1100000111 1011111100 21.875 44.846 1003.1 86361 16 0 14 59 51 4 $GNGGA,122913.00,4333.68039,N,00128.71152,E,1,04,14.4,146.1,M,53.8,M,,*49
27 12 29 14 4333.6817300128.71172145.5~ 00128.71172 145.5 1101011001 1100010010 1100100011 10000000011 10000110010 1100000110 1101000110 1101111111 1011101111 1101100000 1011010100 1011111111 10000011000 10000110111 1100010100 1100001110 1100000111 1100001001 21.813 44.915 1003.1 87360 17 0 14 60 51 3 $GNGGA,122914.00,4333.68173,N,00128.71172,E,1,04,14.4,145.5,M,53.8,M,,*44
27 12 29 15 4333.6811800128.71026144.9~ 00128.71026 144.9 1101011001 1100010000 1100100101 10000000101 10000110011 1100000010 1101000101 1110000001 1011110000 1101100000 1011010001 1011111101 10000011010 10000111011 1100011000 1100010010 1100001010 1100000010 21.875 44.930 1003.1 88359 16 0 15 59 51 3 $GNGGA,122915.00,4333.68118,N,00128.71026,E,1,04,14.4,144.9,M,53.8,M,,*45
27 12 29 16 4333.6815200128.71158144.4~ 00128.71158 144.4 1101011001 1100001111 1100100101 10000001000 10000110110 1011111110 1100111110 1110000110 1011110101 1101100000 1011010100 1011111111 10000010110 10000111000 1100011001 1100001100 1100000011 1100000011 21.875 45.037 1003.1 89357 16 0 14 59 52 3 $GNGGA,122916.00,4333.68152,N,00128.71158,E,1,04,14.4,144.4,M,53.8,M,,*4D
28 12 29 17 4333.6808200128.71132144.0~ 00128.71132 144.0 1101011001 1100010011 1100100110 10000000111 10000110110 1011111101 1100111110 1110000001 1011101110 1101011111 1011010101 1011111111 10000011000 10000111010 1100011010 1100010001 1100000110 1100000001 21.875 45.060 1003.1 90358 16 0 15 59 51 3 $GNGGA,122917.00,4333.68082,N,00128.71132,E,1,04,14.5,144.0,M,53.8,M,,*49
28 12 29 18 4333.6811100128.71143143.5~ 00128.71143 143.5 1101011001 1100010001 1100100100 10000001010 10000110111 1100000011 1101000000 1110000100 1011101110 1101100000 1011001111 1011111100 10000011000 10000111011 1100011000 1100001100 1100000001 1100000001 21.875 44.976 1003.1 91357 16 0 14 59 52 3 $GNGGA,122918.00,4333.68111,N,00128.71143,E,1,04,14.5,143.5,M,53.8,M,,*49
29 12 29 19 4333.6827600128.71201143.1~ 00128.71201 143.1 1101011001 1100001110 1100100011 10000000111 10000110110 1100000001 1101000001 1101111111 1011101100 1101100000 1011010101 1011111111 10000011001 10000111000 1100010101 1100001100 1100000100 1100000011 21.875 44.854 1003.1 92355 18 0 13 59 51 4 $GNGGA,122919.00,4333.68276,N,00128.71201,E,1,04,14.5,143.1,M,53.8,M,,*4B
29 12 29 20 4333.6842200128.71455142.8~ 00128.71455 142.8 1101011001 1100010000 1100100101 10000000101 10000110101 1100000001 1101000000 1110000101 1011111011 1101011111 1011001101 1011111010 10000100010 10000111010 1100010010 1100001010 1100001001 1100000101 21.875 44.869 1003.1 93355 16 0 15 59 51 3 $GNGGA,122920.00,4333.68422,N,00128.71455,E,1,04,14.5,142.8,M,53.8,M,,*49
30 12 29 21 4333.6843000128.71637142.7~ 00128.71637 142.7 1101011001 1100010010 1100100101 10000001000 10000110100 1011111110 1100111101 1110000110 1011110111 1101011111 1011010011 1011111110 10000100000 10000111010 1100011011 1100001110 1100000110 1100000010 21.875 44.831 1003.1 94353 17 0 14 60 50 4 $GNGGA,122921.00,4333.68430,N,00128.71637,E,1,04,14.5,142.7,M,53.8,M,,*42
30 12 29 22 4333.6825900128.71717142.5~ 00128.71717 142.5 1101011001 1100001110 1100100110 10000000001 10000110101 1100000001 1101000001 1110000011 1011110000 1101011111 1011010011 1011111110 10000010110 10000111010 1100011000 1100001111 1100000100 1100000011 21.875 44.823 1003.1 95353 16 0 15 59 51 3 $GNGGA,122922.00,4333.68259,N,00128.71717,E,1,04,14.5,142.5,M,53.8,M,,*49
30 12 29 23 4333.6832900128.72047142.7~ 00128.72047 142.7 1101011001 1100010010 1100100111 10000000010 10000110011 1011111110 1101000110 1101111111 1011101011 1101100000 1011010011 1100000000 10000010110 10000111001 1100010101 1100001110 1100001011 1011111111 21.875 44.991 1003.1 96353 16 0 14 59 52 3 $GNGGA,122923.00,4333.68329,N,00128.72047,E,1,04,14.5,142.7,M,53.8,M,,*4D
30 12 29 24 4333.6834100128.72209142.8~ 00128.72209 142.8 1101011001 1100010000 1100100101 10000001011 10000110111 1100000011 1100111111 1110000110 1011110101 1101100000 1011010100 1100000000 10000010111 10000111001 1100010111 1100001101 1100001100 1011111111 21.813 45.159 1003.0 97351 17 0 14 60 51 3 $GNGGA,122924.00,4333.68341,N,00128.72209,E,1,04,14.5,142.8,M,53.8,M,,*43
30 12 29 25 4333.6858700128.72300142.6~ 00128.72300 142.6 1101011001 1100001111 1100100111 10000001011 10000110111 1100000011 1101001011 1110000001 1011101110 1101100000 1011010010 1011111110 10000011101 10000111001 1100011111 1100010100 1100000100 1100000000 21.875 45.037 1003.0 98350 16 0 14 59 51 4 $GNGGA,122925.00,4333.68587,N,00128.72300,E,1,04,14.6,142.6,M,53.8,M,,*4B
30 12 29 26 Nan Nan Nan 1101011001 1100010000 1100101000 10000000100 10000110011 1100000011 1101000011 1110000010 1011110001 1101011111 1011010110 1100000000 10000010011 10000111001 1100010101 1100001101 1011111100 1011111001 21.875 44.861 1003.0 99336 17 0 10 58 52 4 $GNGGA,122926.00,,,,,0,00,99.9,,,,,,*4D
31 12 29 27 4333.6883700128.72445142.8~ 00128.72445 142.8 1101011001 1100010000 1100100011 10000000010 10000110011 1100000011 1101000110 1110000010 1011101111 1101100000 1011010101 1011111111 10000011011 10000111011 1100011001 1100001001 1011111110 1011111010 21.875 44.747 1003.0 100346 17 0 14 58 51 4 $GNGGA,122927.00,4333.68837,N,00128.72445,E,1,04,14.6,142.8,M,53.8,M,,*47
31 12 29 28 4333.6898100128.72487142.6~ 00128.72487 142.6 1101011001 1100010011 1100100110 10000001010 10000110110 1100000101 1101000111 1110000011 1011110000 1101011111 1011010010 1011111111 10000011001 10000111001 1100011001 1100010000 1100000011 1100000010 21.875 44.755 1003.0 101347 16 0 14 59 52 3 $GNGGA,122928.00,4333.68981,N,00128.72487,E,1,04,14.6,142.6,M,53.8,M,,*44
32 12 29 29 4333.6906100128.72594142.3~ 00128.72594 142.3 1101011001 1100010011 1100100111 10000001000 10000110100 1100000100 1101001010 1110000110 1011111010 1101011111 1011010100 1011111111 10000010110 10000111000 1100010111 1100001101 1100000110 1100000000 21.875 44.800 1003.0 102346 16 -1 15 59 50 4 $GNGGA,122929.00,4333.69061,N,00128.72594,E,1,04,14.6,142.3,M,53.8,M,,*45
32 12 29 30 4333.6916200128.72514141.3~ 00128.72514 141.3 1101011001 1100001101 1100100011 10000000111 10000110010 1100000011 1101000011 1110001011 1011110110 1101011111 1011010100 1011111110 10000011001 10000111100 1100010110 1100001010 1100001010 1100000000 21.875 44.579 1003.0 103346 16 0 14 59 52 3 $GNGGA,122930.00,4333.69162,N,00128.72514,E,1,04,14.6,141.3,M,53.8,M,,*44
33 12 29 31 4333.6929100128.72608141.2~ 00128.72608 141.2 1101011001 1100010110 1100101011 10000000101 10000110100 1100000011 1101000100 1110000011 1011101110 1101100000 1011010011 1011111111 10000011100 10000111011 1100011000 1100001100 1100001010 1011111111 21.813 44.274 1003.0 104345 17 0 14 60 51 3 $GNGGA,122931.00,4333.69291,N,00128.72608,E,1,04,14.6,141.2,M,53.8,M,,*45
33 12 29 32 4333.6923800128.72628140.9~ 00128.72628 140.9 1101011001 1100010010 1100100111 10000000011 10000110101 1100000010 1101000010 1110000100 1011101110 1101011111 1011010010 1011111111 10000011010 10000111010 1100011010 1100001111 1100000111 1100000101 21.875 43.999 1003.0 105344 17 0 14 58 51 4 $GNGGA,122932.00,4333.69238,N,00128.72628,E,1,04,14.6,140.9,M,53.8,M,,*4D
33 12 29 33 Nan Nan Nan 1101011001 1100010001 1100101000 10000000001 10000110100 1011111111 1101000001 1110000010 1011100111 1101011111 1011010010 1011111110 10000011011 10000111000 1100011000 1100001011 1100000010 1100000011 21.875 43.816 1003.0 106329 17 0 10 58 51 5 $GNGGA,122933.00,,,,,0,00,99.9,,,,,,*49
33 12 29 34 Nan Nan Nan 1101011001 1100001101 1100100100 10000001000 10000110011 1100001001 1101000110 1110000000 1011110010 1101011111 1011010011 1011111100 10000010110 10000111001 1100010111 1100001010 1100001011 1100000100 21.875 43.725 1003.0 107327 18 0 10 59 51 4 $GNGGA,122934.00,,,,,0,00,99.9,,,,,,*4E
33 12 29 35 Nan Nan Nan 1101011001 1100001100 1100100100 10000000110 10000110100 1100000011 1101000110 1110000011 1011110100 1101100000 1011001111 1011111111 10000011010 10000111000 1100011000 1100001011 1100000100 1011111110 21.875 43.747 1003.0 108326 17 0 11 59 50 4 $GNGGA,122935.00,,,,,0,00,99.9,,,,,,*4F
34 12 29 36 Nan Nan Nan 1101011001 1100001101 1100100001 10000000010 10000110001 1100000100 1101000010 1101111000 1011110000 1101100000 1011010000 1011111101 10000011000 10000111010 1100010111 1100001011 1100000100 1100000000 21.875 44.053 1003.0 109326 16 0 10 58 52 4 $GNGGA,122936.00,,,,,0,00,99.9,,,,,,*4C
35 12 29 37 4333.6929200128.72904141.5~ 00128.72904 141.5 1101011001 1100010011 1100101000 10000001010 10000110101 1100000010 1101000000 1101111011 1011101101 1101100000 1011010010 1011111111 10000011001 10000111011 1100011100 1100001101 1100000111 1011111111 21.875 44.373 1003.1 110339 17 0 13 58 51 5 $GNGGA,122937.00,4333.69292,N,00128.72904,E,1,04,14.7,141.5,M,53.8,M,,*45
35 12 29 38 4333.6918700128.73058140.7~ 00128.73058 140.7 1101011001 1100010010 1100101000 10000000010 10000110100 1100000011 1100111110 1101111100 1011110000 1101100000 1011010001 1011111110 10000011111 10000111011 1100011000 1100001110 1100000000 1011111100 21.875 44.480 1003.1 111336 17 0 14 59 51 4 $GNGGA,122938.00,4333.69187,N,00128.73058,E,1,03,6.93,140.7,M,53.8,M,,*46
35 12 29 39 4333.6917300128.73188140.8~ 00128.73188 140.8 1101011001 1100001111 1100100100 10000001011 10000111000 1011111111 1101000000 1110000101 1011110100 1101100000 1011001111 1011111111 10000001111 10000111001 1100010111 1100001011 1100000010 1100000101 21.875 44.343 1003.1 112335 17 0 14 58 51 4 $GNGGA,122939.00,4333.69173,N,00128.73188,E,1,03,6.93,140.8,M,53.8,M,,*4F
35 12 29 40 4333.6923400128.73306140.9~ 00128.73306 140.9 1101011001 1100010001 1100100101 10000000001 10000110011 1100000001 1101000011 1110000100 1011110101 1101100000 1011010011 1011111110 10000010111 10000111001 1100011010 1100010000 1100000101 1100000000 21.875 44.297 1003.1 113335 16 0 14 59 52 3 $GNGGA,122940.00,4333.69234,N,00128.73306,E,1,03,6.93,140.9,M,53.8,M,,*44
35 12 29 41 4333.6934800128.73402141.1~ 00128.73402 141.1 1101011001 1100010010 1100101011 10000001010 10000110010 1100000001 1101000011 1101111100 1011100101 1101100000 1011010101 1100000001 10000011010 10000111010 1100010111 1100001100 1100000111 1100000100 21.875 44.320 1003.0 114333 17 0 14 60 51 3 $GNGGA,122941.00,4333.69348,N,00128.73402,E,1,03,6.93,141.1,M,53.8,M,,*45
36 12 29 42 4333.6917500128.73498141.2~ 00128.73498 141.2 1101011001 1100010100 1100100110 10000000111 10000110111 1100000000 1101000011 1110000110 1011110101 1101100000 1011010010 1011111110 10000011100 10000111010 1100011100 1100010100 1100000010 1100000000 21.875 44.335 1003.0 115333 17 0 13 58 51 5 $GNGGA,122942.00,4333.69175,N,00128.73498,E,1,03,6.93,141.2,M,53.8,M,,*4A
36 12 29 43 4333.6909200128.73597141.3~ 00128.73597 141.3 1101011001 1100010001 1100100101 10000000010 10000110100 1011111100 1101000000 1101111111 1011110001 1101100000 1011010110 1011111111 10000011010 10000110111 1100010110 1100001101 1100001011 1100000010 21.875 44.098 1003.0 116332 17 0 14 60 50 4 $GNGGA,122943.00,4333.69092,N,00128.73597,E,1,03,6.93,141.3,M,53.8,M,,*4C
36 12 29 44 4333.6915500128.73673141.4~ 00128.73673 141.4 1101011001 1100010010 1100100110 10000000110 10000110110 1011111101 1100111111 1101111111 1011110000 1101100000 1011010110 1100000010 10000010111 10000111000 1100011111 1100010101 1011111000 1011111000 21.813 43.923 1003.0 117330 16 0 15 59 50 4 $GNGGA,122944.00,4333.69155,N,00128.73673,E,1,03,6.93,141.4,M,53.8,M,,*4F
36 12 29 45 4333.6914700128.73822141.4~ 00128.73822 141.4 1101011001 1100010000 1100100101 10000000101 10000110101 1011111110 1101000010 1101111111 1011101110 1101100000 1011010110 1100000000 10000100101 10000111101 1100011001 1100001110 1011111110 1100000011 21.875 43.999 1003.0 118328 16 0 14 59 52 3 $GNGGA,122945.00,4333.69147,N,00128.73822,E,1,03,6.93,141.4,M,53.8,M,,*47
37 12 29 46 4333.6919400128.73946141.5~ 00128.73946 141.5 1101011001 1100001110 1100100010 10000000110 10000110110 1011111111 1101000000 1110000001 1011101110 1101100000 1011010000 1011111101 10000011011 10000111000 1100011101 1100010010 1100000110 1011111100 21.875 43.877 1003.0 119328 16 0 15 59 50 4 $GNGGA,122946.00,4333.69194,N,00128.73946,E,1,03,6.93,141.5,M,53.8,M,,*48
37 12 29 47 4333.6929400128.74206141.1~ 00128.74206 141.1 1101011001 1100010001 1100100011 10000000100 10000110010 1100000011 1101000101 1110001000 1011101110 1101100000 1011010100 1011111111 10000010100 10000110110 1100010101 1100001001 1100000110 1011111111 21.875 43.747 1003.0 120328 17 0 14 59 52 3 $GNGGA,122947.00,4333.69294,N,00128.74206,E,1,03,6.93,141.1,M,53.8,M,,*46
38 12 29 48 4333.6937000128.74419141.0~ 00128.74419 141.0 1101011001 1100010100 1100101010 10000000111 10000110111 1100000110 1101000111 1110000111 1011110001 1101100000 1011010101 1011111111 10000010110 10000110111 1100010101 1100001111 1100001001 1100000001 21.813 43.961 1003.0 121327 17 0 14 60 50 4 $GNGGA,122948.00,4333.69370,N,00128.74419,E,1,03,6.92,141.0,M,53.8,M,,*4A
38 12 29 49 4333.6940900128.74558140.5~ 00128.74558 140.5 1101011001 1100010010 1100100101 10000001100 10000110111 1011111111 1100111110 1110000101 1011101110 1101100000 1011001111 1011111110 10000011110 10000111011 1100011010 1100001101 1100000101 1100000100 21.875 44.144 1003.0 122326 16 0 15 59 51 3 $GNGGA,122949.00,4333.69409,N,00128.74558,E,1,03,6.92,140.5,M,53.8,M,,*42
39 12 29 50 4333.6939800128.74745140.2~ 00128.74745 140.2 1101011001 1100010001 1100100101 10000001001 10000110101 1100000001 1101000100 1110001010 1011111001 1101100000 1011010011 1011111101 10000011100 10000111001 1100010110 1100001110 1100000110 1011111101 21.875 44.114 1003.0 123325 17 0 14 60 51 3 $GNGGA,122950.00,4333.69398,N,00128.74745,E,1,03,6.92,140.2,M,53.8,M,,*4C
39 12 29 51 4333.6954000128.74979140.0~ 00128.74979 140.0 1101011001 1100010001 1100100111 1111111110 10000101111 1011111111 1101000000 1110000100 1011110000 1101100000 1011010011 1011111110 10000100000 10000111011 1100011011 1100001011 1011111111 1011110110 21.875 44.312 1003.0 124323 16 0 15 59 51 3 $GNGGA,122951.00,4333.69540,N,00128.74979,E,1,03,6.92,140.0,M,53.8,M,,*4D
40 12 29 52 4333.6964800128.75120140.0~ 00128.75120 140.0 1101011001 1100001100 1100100101 10000000101 10000110111 1100000011 1101000011 1110000000 1011110010 1101100000 1011010011 1011111110 10000011000 10000110111 1100010010 1100001000 1100000010 1011111001 21.875 44.594 1003.0 125323 17 0 13 58 52 4 $GNGGA,122952.00,4333.69648,N,00128.75120,E,1,03,6.92,140.0,M,53.8,M,,*40
40 12 29 53 4333.6970800128.75263140.3~ 00128.75263 140.3 1101011001 1100010100 1100101000 1111111110 10000110101 1100000111 1101000110 1110001001 1011110001 1101011111 1011010011 1011111110 10000011000 10000111000 1100011001 1100001011 1011111101 1011110101 21.875 44.625 1003.1 126321 17 0 14 59 51 4 $GNGGA,122953.00,4333.69708,N,00128.75263,E,1,03,6.92,140.3,M,53.8,M,,*43
40 12 29 54 4333.6973600128.75263140.7~ 00128.75263 140.7 1101011001 1100010001 1100100100 10000001000 10000110110 1011111111 1101000001 1110001000 1011110111 1101100000 1011010101 1100000000 10000011100 10000110111 1100011101 1100001100 1011111110 1011111010 21.875 44.686 1003.1 127321 16 0 14 59 51 4 $GNGGA,122954.00,4333.69736,N,00128.75263,E,1,03,6.92,140.7,M,53.8,M,,*4D
41 12 29 55 4333.6984100128.75378140.5~ 00128.75378 140.5 1101011001 1100010100 1100101000 10000000011 10000110010 1100000101 1101000101 1110000100 1011110001 1101100000 1011010011 1100000000 10000011000 10000111001 1100100001 1100010101 1011111111 1011111010 21.875 44.426 1003.1 128321 17 0 14 60 51 3 $GNGGA,122955.00,4333.69841,N,00128.75378,E,1,03,6.92,140.5,M,53.8,M,,*4A
41 12 29 56 4333.6996200128.75557140.5~ 00128.75557 140.5 1101011001 1100010100 1100101010 10000000011 10000110110 1011111110 1100111111 1110001100 1011111001 1101100000 1011010010 1011111110 10000011100 10000111010 1100010100 1100001011 1100000010 1100000001 21.813 44.236 1003.0 129317 17 0 14 58 51 4 $GNGGA,122956.00,4333.69962,N,00128.75557,E,1,03,6.92,140.5,M,53.8,M,,*42
42 12 29 57 4333.7002300128.75652140.5~ 00128.75652 140.5 1101011001 1100010001 1100100110 10000001000 10000110101 1011111110 1100111111 1110001001 1011111000 1101100000 1011010010 1011111111 10000010010 10000110111 1100011000 1100001110 1100000010 1011111100 21.875 44.137 1003.0 130318 18 0 13 58 52 4 $GNGGA,122957.00,4333.70023,N,00128.75652,E,1,03,6.92,140.5,M,53.8,M,,*41
42 12 29 58 4333.7017300128.75896140.3~ 00128.75896 140.3 1101011001 1100010101 1100101100 10000000101 10000110101 1100001000 1101000110 1110000101 1011110011 1101100000 1011010101 1011111101 10000011100 10000111001 1100010100 1100001010 1100000001 1011111111 21.875 44.022 1003.1 131317 16 0 15 59 51 3 $GNGGA,122958.00,4333.70173,N,00128.75896,E,1,03,6.91,140.3,M,53.8,M,,*49
43 12 29 59 4333.7028300128.76047139.5~ 00128.76047 139.5 1101011001 1100010001 1100100100 10000000101 10000110101 1011111110 1100111101 1110000101 1011110101 1101011111 1011010011 1011111110 10000011010 10000111001 1100011010 1100001101 1100000110 1100000010 21.875 43.923 1003.1 132317 16 0 14 59 51 4 $GNGGA,122959.00,4333.70283,N,00128.76047,E,1,03,6.91,139.5,M,53.8,M,,*4B
43 12 30 00 4333.7033200128.76221139.1~ 00128.76221 139.1 1101011001 1100001101 1100100011 10000001110 10000111000 1100000010 1101000001 1101111101 1011100110 1101011111 1011010100 1011111110 10000011100 10000111001 1100010010 1100001000 1011111011 1011111001 21.875 43.824 1003.1 133316 17 -1 14 60 50 4 $GNGGA,123000.00,4333.70332,N,00128.76221,E,1,03,6.91,139.1,M,53.8,M,,*42
43 12 30 01 4333.7045500128.76298139.5~ 00128.76298 139.5 1101011001 1100001111 1100100101 10000001000 10000110111 1100000011 1101000100 1110001010 1011110011 1101011111 1011010101 1100000001 10000011100 10000111011 1100011011 1100010101 1011111100 1011110101 21.875 43.725 1003.0 134313 16 0 15 59 50 4 $GNGGA,123001.00,4333.70455,N,00128.76298,E,1,03,6.91,139.5,M,53.8,M,,*43
44 12 30 02 4333.7051600128.76406139.8~ 00128.76406 139.8 1101011001 1100010001 1100100110 10000000010 10000110100 1100000100 1101000101 1110000110 1011110101 1101011111 1011010100 1011111110 10000010101 10000111001 1100010111 1100001111 1011111101 1011111011 21.875 43.648 1003.0 135314 18 0 13 59 51 4 $GNGGA,123002.00,4333.70516,N,00128.76406,E,1,03,6.91,139.8,M,53.8,M,,*4A
44 12 30 03 4333.7059700128.76641140.5~ 00128.76641 140.5 1101011001 1100010000 1100100101 10000001101 10000110111 1011111100 1100111100 1110000101 1011101111 1101100000 1011011000 1100000001 10000011010 10000111010 1100011110 1100001111 1100000011 1100000101 21.875 43.603 1003.0 136312 16 0 15 59 51 3 $GNGGA,123003.00,4333.70597,N,00128.76641,E,1,03,6.91,140.5,M,53.8,M,,*40
45 12 30 04 4333.7071600128.76954140.8~ 00128.76954 140.8 1101011001 1100010010 1100100110 10000001011 10000110101 1100000011 1101000011 1110000001 1011101101 1101100000 1011010111 1100000000 10000010101 10000110111 1100011011 1100001010 1100000111 1011111101 21.875 43.587 1003.1 137312 17 0 13 58 52 4 $GNGGA,123004.00,4333.70716,N,00128.76954,E,1,03,6.91,140.8,M,53.8,M,,*4A
46 12 30 05 4333.7069700128.76958141.1~ 00128.76958 141.1 1101011001 1100010011 1100100110 10000001110 10000110110 1011111111 1101000010 1110001000 1011111000 1101100000 1011010100 1011111110 10000100000 10000111011 1100011001 1100001011 1100000111 1100000001 21.875 43.587 1003.0 138311 17 0 14 60 50 4 $GNGGA,123005.00,4333.70697,N,00128.76958,E,1,03,6.91,141.1,M,53.8,M,,*47
46 12 30 06 4333.7075800128.77112141.1~ 00128.77112 141.1 1101011001 1100010001 1100100111 10000000110 10000110100 1011111001 1100111101 1101111111 1011101011 1101100000 1011010001 1011111111 10000011011 10000111000 1100010110 1100001101 1100000110 1100000011 21.875 43.595 1003.0 139310 16 0 14 59 51 4 $GNGGA,123006.00,4333.70758,N,00128.77112,E,1,03,6.91,141.1,M,53.8,M,,*41
46 12 30 07 4333.7072200128.77057140.5~ 00128.77057 140.5 1101011001 1100010001 1100100110 10000000110 10000110100 1011111111 1101000011 1110001010 1011110100 1101100000 1011010000 1011111100 10000011110 10000111011 1100010110 1100000110 1100000000 1011110011 21.875 43.618 1003.0 140307 18 0 13 60 51 4 $GNGGA,123007.00,4333.70722,N,00128.77057,E,1,03,6.91,140.5,M,53.8,M,,*48
47 12 30 08 4333.7066300128.77167140.4~ 00128.77167 140.4 1101011001 1100010000 1100100111 10000001000 10000111000 1100000000 1100111110 1110000111 1011110101 1101100000 1011010100 1100000000 10000011110 10000111100 1100010111 1100001111 1100000010 1100000000 21.875 43.610 1003.0 141308 16 0 15 59 51 3 $GNGGA,123008.00,4333.70663,N,00128.77167,E,1,03,6.91,140.4,M,53.8,M,,*40
47 12 30 09 4333.7061300128.77214140.6~ 00128.77214 140.6 1101011001 1100001111 1100100111 10000001110 10000111001 1100000000 1100111110 1110000111 1011110101 1101011111 1011010100 1011111111 10000011111 10000111001 1100011011 1100010010 1100000101 1011110110 21.875 43.595 1003.0 142307 16 0 14 59 52 3 $GNGGA,123009.00,4333.70613,N,00128.77214,E,1,03,6.90,140.6,M,53.8,M,,*42
48 12 30 10 4333.7059800128.77232140.8~ 00128.77232 140.8 1101011001 1100001101 1100100011 10000000110 10000110100 1100000000 1101000010 1110000010 1011110011 1101100000 1011010011 1011111111 10000011101 10000111000 1100010111 1100001011 1100000110 1100000100 21.875 43.625 1003.0 143305 16 0 15 59 50 4 $GNGGA,123010.00,4333.70598,N,00128.77232,E,1,03,6.90,140.8,M,53.8,M,,*40
48 12 30 11 4333.7052300128.77037140.9~ 00128.77037 140.9 1101011001 1100001111 1100100101 10000001011 10000111001 1011111111 1101000010 1110000010 1011110100 1101100000 1011010011 1011111111 10000011101 10000111010 1100011000 1100001111 1100001100 1100000100 21.875 43.671 1003.0 144305 16 0 14 59 50 5 $GNGGA,123011.00,4333.70523,N,00128.77037,E,1,03,6.90,140.9,M,53.8,M,,*47
49 12 30 12 4333.7061000128.77191140.9~ 00128.77191 140.9 1101011001 1100010000 1100100101 10000001001 10000110110 1100000110 1100111110 1110000101 1011110001 1101100000 1011010100 1011111110 10000011010 10000111001 1100010011 1100001101 1100001001 1011111111 21.875 43.709 1003.0 145305 17 0 14 60 50 4 $GNGGA,123012.00,4333.70610,N,00128.77191,E,1,03,6.90,140.9,M,53.8,M,,*4A
49 12 30 13 4333.7078600128.77751140.4~ 00128.77751 140.4 1101011001 1100010000 1100100111 10000001100 10000110100 1100000011 1101000101 1101111110 1011110010 1101100000 1011010010 1011111011 10000011110 10000111001 1100011001 1100010010 1100010001 1100000110 21.875 44.091 1003.1 146304 16 0 15 59 51 3 $GNGGA,123013.00,4333.70786,N,00128.77751,E,1,03,6.90,140.4,M,53.7,M,,*4D
