id HH MM SS longitude latitude altitude adc_1_ch0 adc_1_ch1 adc_1_ch2 adc_1_ch3 adc_1_ch4 adc_1_ch5 adc_1_ch6 adc_1_ch7 adc_1_ch8 adc_2_ch0 adc_2_ch1 adc_2_ch2 adc_2_ch3 adc_2_ch4 adc_2_ch5 adc_2_ch6 adc_2_ch7 adc_2_ch8 temp hum pres t_prog t_gps t_split t_adc t_temp t_hum t_pres trame_gga
0 14 32 08 4333.6851000128.73768128.7~ 00128.73768 128.7 1101011011 101 10000010011 10110110010 10100100010 101110111010 101101000000 111111111111 111111111111 1101100001 11 1101010 11 1001000111 110000011000 110101011110 11110011001 100101010101 21.813 42.389 795.83 1394 18 0 13 59 51 4 $GNGGA,143208.00,4333.68510,N,00128.73768,E,1,04,5.65,128.7,M,53.8,M,,*45
0 14 32 09 4333.6850900128.73772128.7~ 00128.73772 128.7 1101011011 101 10000100111 10110100000 10100100001 101110101100 101100101010 111111111111 111111111111 1101100001 11 1101001 11 1001001110 110000000111 110101001001 11110011010 100100111110 21.813 42.237 1002.5 2395 16 0 14 59 51 4 $GNGGA,143209.00,4333.68509,N,00128.73772,E,1,04,5.65,128.7,M,53.8,M,,*47
1 14 32 10 4333.6851100128.73750128.9~ 00128.73750 128.9 1101011011 100 10000110000 10110010100 10100100000 101110010100 101100011000 111111111111 111111111111 1101100001 11 1101001 11 1001010111 101111111011 110100110111 11110100001 100100110000 21.813 43.252 1002.5 3395 17 0 14 60 51 3 $GNGGA,143210.00,4333.68511,N,00128.73750,E,1,04,5.65,128.9,M,53.8,M,,*48
1 14 32 11 4333.6850700128.73754128.8~ 00128.73754 128.8 1101011011 101 10001000100 10110001001 10100011011 101110000110 101100001111 111111111111 111111111111 1101100001 11 1101001 11 1001100010 101111101011 110100101100 11110100111 100100011110 21.813 43.488 1002.5 4392 16 0 15 59 50 4 $GNGGA,143211.00,4333.68507,N,00128.73754,E,1,04,5.64,128.8,M,53.8,M,,*4A
2 14 32 12 4333.6850600128.73783128.6~ 00128.73783 128.6 1101011011 100 10001001100 10110000000 10100010111 101101110111 101100000011 111111111111 111111111111 1101100001 11 1101001 11 1001101001 101111011011 110100010100 11110110011 100100011010 21.813 43.343 1002.4 5394 17 0 14 60 51 3 $GNGGA,143212.00,4333.68506,N,00128.73783,E,1,05,2.12,128.6,M,53.8,M,,*4B
2 14 32 13 4333.6850300128.73811128.3~ 00128.73811 128.3 1101011011 100 10001011101 10101111010 10100011000 101101100000 101011110010 111111111111 111111111111 1101100001 11 1101000 11 1001110001 101111010100 110100001010 11110111001 100100001001 21.813 42.908 1002.4 6392 16 0 15 59 50 4 $GNGGA,143213.00,4333.68503,N,00128.73811,E,1,05,2.11,128.3,M,53.8,M,,*4D
2 14 32 14 4333.6850200128.73779128.7~ 00128.73779 128.7 1101011011 100 10001100101 10101100110 10100001101 101101001100 101011011110 111111111111 111111111111 1101100001 11 1101000 11 1001111001 101110111010 110011110110 11110111101 100011111011 21.813 42.611 1002.4 7391 16 0 14 59 51 4 $GNGGA,143214.00,4333.68502,N,00128.73779,E,1,05,2.11,128.7,M,53.8,M,,*4E
2 14 32 15 4333.6849700128.73789128.5~ 00128.73789 128.5 1101011011 100 10001110100 10101100111 10100010010 101101000000 101011011000 111111111111 111111111111 1101100001 11 1101000 11 1010000001 101110110010 110011100010 11111000110 100011111100 21.875 42.283 1002.4 8390 18 0 14 60 51 3 $GNGGA,143215.00,4333.68497,N,00128.73789,E,1,05,2.11,128.5,M,53.8,M,,*4F
2 14 32 16 4333.6849500128.73778128.6~ 00128.73778 128.6 1101011010 100 10001111101 10101011001 10100001001 101100110101 101011001011 111111111111 111111111111 1101100000 11 1101000 11 1010001010 101110011011 110011010101 11111001100 100011101101 21.813 42.161 1002.4 9390 16 0 14 59 51 4 $GNGGA,143216.00,4333.68495,N,00128.73778,E,1,05,2.11,128.6,M,53.8,M,,*43
3 14 32 17 4333.6849200128.73751128.7~ 00128.73751 128.7 1101011011 100 10010001010 10101001111 10100000110 101100100011 101010111000 111111111111 111111111111 1101100001 10 1100111 11 1010001111 101110011001 110011001100 11111001101 100011100100 21.875 42.397 1002.4 10388 17 0 14 60 50 4 $GNGGA,143217.00,4333.68492,N,00128.73751,E,1,05,2.11,128.7,M,53.8,M,,*4F
3 14 32 18 4333.6849700128.73765128.8~ 00128.73765 128.8 1101011011 101 10010010010 10101000010 10100000110 101100010010 101010101101 111111111111 111111111111 1101100001 11 1100111 11 1010011000 101110000111 110010110101 11111011001 100011011010 21.875 42.634 1002.4 11386 17 0 14 58 51 4 $GNGGA,143218.00,4333.68497,N,00128.73765,E,1,05,2.11,128.8,M,53.8,M,,*4D
3 14 32 19 4333.6849600128.73736129.1~ 00128.73736 129.1 1101011011 101 10010011011 10100111100 10100000100 101100001010 101010100011 111111111111 111111111111 1101100001 11 1100111 11 1010011111 101110000100 110010110001 11111100010 100011010100 21.875 42.580 1002.4 12385 16 0 14 58 52 4 $GNGGA,143219.00,4333.68496,N,00128.73736,E,1,05,2.10,129.1,M,53.8,M,,*42
4 14 32 20 4333.6848800128.73683129.3~ 00128.73683 129.3 1101011011 1000 10010101000 10100110110 10011111111 101011111110 101010011001 111111111111 111111111111 1101100001 11 1100111 11 1010100100 101101110111 110010100010 11111011010 100011000100 21.875 42.626 1002.4 13385 16 0 15 58 51 4 $GNGGA,143220.00,4333.68488,N,00128.73683,E,1,05,2.10,129.3,M,53.8,M,,*4A
4 14 32 21 4333.6849000128.73681129.4~ 00128.73681 129.4 1101011011 1011 10010101110 10100110100 10100000000 101011110000 101010010010 111111111111 111111111111 1101100001 11 1100110 11 1010101001 101101011100 110010001011 11111100100 100011000101 21.875 42.519 1002.4 14385 17 0 14 59 52 3 $GNGGA,143221.00,4333.68490,N,00128.73681,E,1,05,2.10,129.4,M,53.8,M,,*47
4 14 32 22 4333.6848800128.73661129.6~ 00128.73661 129.6 1101011011 10100 10010110111 10100101010 10011111100 101011100010 101010000100 111111111111 111111111111 1101100001 11 1100110 100 1010101110 101101011001 110010000000 11111100110 100010111010 21.875 42.344 1002.4 15382 18 0 13 59 51 4 $GNGGA,143222.00,4333.68488,N,00128.73661,E,1,05,2.10,129.6,M,53.8,M,,*41
5 14 32 23 4333.6849800128.73668130.0~ 00128.73668 130.0 1101011011 10100 10010111110 10100100001 10011111010 101011001111 101001101111 111111111111 111111111111 1101100001 11 1100110 11 1010110010 101101010011 110001110111 11111101011 100010110000 21.875 42.069 1002.4 16384 16 0 15 59 51 3 $GNGGA,143223.00,4333.68498,N,00128.73668,E,1,05,2.10,130.0,M,53.8,M,,*46
6 14 32 24 4333.6850100128.73636130.3~ 00128.73636 130.3 1101011011 1100001 10011001001 10100011111 10011110110 101011001100 101001110000 111111111111 111111111111 1101100001 11 1100101 11 1010111110 101100111110 110001101000 11111101010 100010100110 21.875 41.886 1002.4 17383 17 0 14 60 50 4 $GNGGA,143224.00,4333.68501,N,00128.73636,E,1,05,2.09,130.3,M,53.8,M,,*40
6 14 32 25 4333.6849400128.73604130.3~ 00128.73604 130.3 1101011011 101100 10011001100 10100010010 10011110101 101010110110 101001011110 111111111111 111111111111 1101100001 11 1100101 11 1010111111 101100111100 110001011111 11111111000 100010100111 21.875 41.771 1002.4 18381 17 0 14 58 51 4 $GNGGA,143225.00,4333.68494,N,00128.73604,E,1,05,2.09,130.3,M,53.8,M,,*4D
6 14 32 26 4333.6848800128.73522130.7~ 00128.73522 130.7 1101011011 111010 10011011010 10100001001 10011101100 101010110110 101001011111 111111111111 111111111111 1101100001 11 1100101 100 1011001000 101100101010 110001001111 11111111010 100010011111 21.875 41.794 1002.4 19379 17 0 13 59 52 4 $GNGGA,143226.00,4333.68488,N,00128.73522,E,1,05,2.09,130.7,M,53.8,M,,*40
7 14 32 27 4333.6848900128.73528130.6~ 00128.73528 130.6 1101011011 111100 10011011101 10100001011 10011110010 101010100100 101001001110 111111111111 111111111111 1101100001 11 1100101 11 1011001100 101100100000 110001000001 11111110010 100010001110 21.875 41.779 1002.4 20379 17 0 14 59 51 4 $GNGGA,143227.00,4333.68489,N,00128.73528,E,1,05,2.09,130.6,M,53.8,M,,*4B
7 14 32 28 4333.6849000128.73512130.7~ 00128.73512 130.7 1101011011 1000101 10011100100 10100000100 10011101110 101010011100 101001000110 111111111111 111111111111 1101100001 11 1100101 11 1011010001 101100010111 110000110110 11111110101 100010001101 21.875 41.680 1002.4 21377 16 0 15 59 50 4 $GNGGA,143228.00,4333.68490,N,00128.73512,E,1,05,2.09,130.7,M,53.8,M,,*44
8 14 32 29 4333.6848700128.73496130.7~ 00128.73496 130.7 1101011011 1001010 10011101011 10011111001 10011101100 101010011001 101001000100 111111111111 111111111111 1101100001 11 1100100 11 1011010100 101100001111 110000101010 11111111100 100010000010 21.875 41.604 1002.4 22377 17 0 14 60 50 4 $GNGGA,143229.00,4333.68487,N,00128.73496,E,1,05,2.08,130.7,M,53.8,M,,*4F
8 14 32 30 4333.6848000128.73480130.6~ 00128.73480 130.6 1101011011 1010011 10011110010 10011111011 10011101011 101010001000 101000111000 111111111111 111111111111 1101100001 11 1100100 11 1011011001 101100001001 110000100011 11111110110 100001111110 21.875 41.672 1002.4 23376 16 0 15 59 51 3 $GNGGA,143230.00,4333.68480,N,00128.73480,E,1,05,2.08,130.6,M,53.8,M,,*46
8 14 32 31 4333.6848100128.73476130.8~ 00128.73476 130.8 1101011011 1011100 10011111000 10011110100 10011100110 101001111111 101000101111 111111111111 111111111111 1101100001 11 1100100 11 1011011110 101011111101 110000011000 100000000010 100001111010 21.875 41.573 1002.4 24375 16 0 14 59 52 3 $GNGGA,143231.00,4333.68481,N,00128.73476,E,1,05,2.08,130.8,M,53.8,M,,*41
9 14 32 32 4333.6848000128.73477130.8~ 00128.73477 130.8 1101011011 1100011 10100000001 10011110010 10011101010 101001110111 101000100100 111111111111 111111111111 1101100000 11 1100100 11 1011100010 101011110100 110000001011 100000000111 100001111010 21.813 41.520 1002.4 25375 16 0 15 59 51 3 $GNGGA,143232.00,4333.68480,N,00128.73477,E,1,05,2.08,130.8,M,53.8,M,,*42
9 14 32 33 4333.6849100128.73499131.0~ 00128.73499 131.0 1101011011 1100111 10011111111 10011110000 10011100100 101001100110 101000010110 111111111111 111111111111 1101100001 11 1100100 11 1011100101 101011101011 110000000010 100000000111 100001110101 21.875 41.504 1002.4 26374 16 0 14 59 50 5 $GNGGA,143233.00,4333.68491,N,00128.73499,E,1,05,2.08,131.0,M,53.8,M,,*4A
9 14 32 34 4333.6850300128.73504131.3~ 00128.73504 131.3 1101011011 1110100 10100001111 10011100110 10011100001 101001011110 101000001111 111111111111 111111111111 1101100001 11 1100100 11 1011101011 101011100000 101111110111 100000000110 100001101001 21.875 41.451 1002.4 27371 18 0 13 59 51 4 $GNGGA,143234.00,4333.68503,N,00128.73504,E,1,05,2.08,131.3,M,53.8,M,,*41
10 14 32 35 4333.6850800128.73524131.3~ 00128.73524 131.3 1101011011 1110100 10100001101 10011100010 10011011110 101001001101 101000000011 111111111111 111111111111 1101100001 11 1100011 11 1011101100 101011010101 101111101100 100000001101 100001100111 21.813 41.611 1002.4 28372 16 0 15 59 51 3 $GNGGA,143235.00,4333.68508,N,00128.73524,E,1,05,2.07,131.3,M,53.8,M,,*46
10 14 32 36 4333.6851400128.73509131.6~ 00128.73509 131.6 1101011011 1111110 10100011000 10011100001 10011100000 101001001101 100111111110 111111111111 111111111111 1101100001 11 1100011 11 1011110011 101011001111 101111100010 100000001001 100001011110 21.875 41.955 1002.4 29371 17 0 14 60 51 3 $GNGGA,143236.00,4333.68514,N,00128.73509,E,1,05,2.07,131.6,M,53.8,M,,*42
10 14 32 37 4333.6852000128.73510131.7~ 00128.73510 131.7 1101011011 10000100 10100011001 10011011100 10011011100 101001000101 100111111011 111111111111 111111111111 1101100001 11 1100011 11 1011110111 101011000110 101111011000 100000001000 100001011100 21.813 41.848 1002.4 30367 16 0 15 59 50 4 $GNGGA,143237.00,4333.68520,N,00128.73510,E,1,05,2.07,131.7,M,53.8,M,,*4D
11 14 32 38 4333.6852200128.73488131.9~ 00128.73488 131.9 1101011010 10000111 10100011101 10011010111 10011011000 101000110110 100111101101 111111111111 111111111111 1101100001 11 1100011 11 1011110111 101010111101 101111001011 100000001001 100001011010 21.813 41.680 1002.4 31369 17 0 13 58 52 4 $GNGGA,143238.00,4333.68522,N,00128.73488,E,1,05,2.07,131.9,M,53.8,M,,*4E
11 14 32 39 4333.6852400128.73517131.7~ 00128.73517 131.7 1101011011 10001110 10100100011 10011010000 10011011000 101000101110 100111100110 111111111111 111111111111 1101100010 11 1100011 11 1011111101 101010111101 101111001011 100000001011 100001010010 21.813 41.573 1002.5 32368 17 0 14 60 51 3 $GNGGA,143239.00,4333.68524,N,00128.73517,E,1,05,2.07,131.7,M,53.8,M,,*40
11 14 32 40 4333.6853400128.73533131.8~ 00128.73533 131.8 1101011011 10010010 10100100101 10011001000 10011010010 101000101011 100111100011 111111111111 111111111111 1101100001 11 1100011 11 1100000000 101010101010 101110111010 100000001110 100001001011 21.813 41.581 1002.5 33367 16 0 15 59 51 3 $GNGGA,143240.00,4333.68534,N,00128.73533,E,1,05,2.06,131.8,M,53.8,M,,*47
12 14 32 41 4333.6853300128.73506132.0~ 00128.73506 132.0 1101011011 10011011 10100101101 10011001011 10011010110 101000010111 100111010111 111111111111 111111111111 1101100001 11 1100011 11 1100000011 101010100111 101110101110 100000001101 100001000111 21.813 41.588 1002.5 34366 18 0 13 59 51 4 $GNGGA,143241.00,4333.68533,N,00128.73506,E,1,05,2.06,132.0,M,53.8,M,,*4C
13 14 32 42 4333.6853900128.73525132.0~ 00128.73525 132.0 1101011011 10011111 10100110001 10011001101 10011010101 101000010110 100111001101 111111111111 111111111111 1101100001 11 1100011 11 1100000110 101010011010 101110101000 100000010101 100001000011 21.813 41.504 1002.5 35366 17 0 14 58 51 4 $GNGGA,143242.00,4333.68539,N,00128.73525,E,1,05,2.06,132.0,M,53.8,M,,*44
13 14 32 43 4333.6854600128.73513132.3~ 00128.73513 132.3 1101011011 10100100 10100110110 10011000101 10011010001 101000001111 100111001001 111111111111 111111111111 1101100001 11 1100011 11 1100001100 101010010100 101110011101 100000001100 100000111001 21.813 41.573 1002.5 36366 16 0 14 59 51 4 $GNGGA,143243.00,4333.68546,N,00128.73513,E,1,05,2.06,132.3,M,53.8,M,,*4B
13 14 32 44 4333.6854600128.73492132.5~ 00128.73492 132.5 1101011011 10100110 10100110111 10010111010 10011010000 101000000101 100111000010 111111111111 111111111111 1101100001 11 1100011 11 1100001011 101010010011 101110011000 100000011001 100000111000 21.813 41.733 1002.5 37364 16 0 15 59 51 3 $GNGGA,143244.00,4333.68546,N,00128.73492,E,1,05,2.06,132.5,M,53.8,M,,*42
13 14 32 45 4333.6855300128.73510132.6~ 00128.73510 132.6 1101011011 10110000 10100111110 10010110101 10011001111 101000000011 100110111110 111111111111 111111111111 1101100001 11 1100100 11 1100010010 101010000100 101110001011 100000010110 100000111011 21.813 41.840 1002.5 38363 16 0 14 59 50 5 $GNGGA,143245.00,4333.68553,N,00128.73510,E,1,05,2.06,132.6,M,53.8,M,,*4F
14 14 32 46 4333.6854800128.73505132.6~ 00128.73505 132.6 1101011011 10110011 10100111110 10010110110 10011001100 100111110101 100110101111 111111111111 111111111111 1101100001 11 1100101 11 1100010011 101001111011 101110000101 100000100100 100001000000 21.875 41.848 1002.5 39362 18 0 14 60 51 3 $GNGGA,143246.00,4333.68548,N,00128.73505,E,1,05,2.05,132.6,M,53.8,M,,*41
14 14 32 47 4333.6856500128.73526133.1~ 00128.73526 133.1 1101011011 10110111 10101000011 10010110100 10011001100 100111101011 100110101010 111111111111 111111111111 1101100001 11 1100111 11 1100010100 101001111001 101110000001 100000100110 100000111001 21.813 41.779 1002.5 40360 17 0 14 58 51 4 $GNGGA,143247.00,4333.68565,N,00128.73526,E,1,05,2.05,133.1,M,53.8,M,,*48
14 14 32 48 4333.6857200128.73533133.3~ 00128.73533 133.3 1101011011 10111011 10101000111 10010101111 10011001010 100111100001 100110100001 111111111111 111111111111 1101100001 11 1101010 11 1100011010 101001110000 101101111000 100000011010 100000101000 21.813 41.749 1002.5 41358 17 0 14 60 50 4 $GNGGA,143248.00,4333.68572,N,00128.73533,E,1,05,2.05,133.3,M,53.8,M,,*47
15 14 32 49 4333.6857500128.73563133.3~ 00128.73563 133.3 1101011010 11000011 10101001111 10010101001 10011001001 100111011111 100110011110 111111111111 111111111111 1101100001 11 1101011 11 1100011101 101001101010 101101110010 100000011001 100000101100 21.813 41.634 1002.5 42358 16 0 15 59 50 4 $GNGGA,143249.00,4333.68575,N,00128.73563,E,1,05,2.05,133.3,M,53.8,M,,*44
15 14 32 50 4333.6857000128.73529133.5~ 00128.73529 133.5 1101011011 11000111 10101010011 10010100110 10011001010 100111011011 100110010111 111111111111 111111111111 1101100001 11 1101111 11 1100100001 101001100000 101101100011 100000011001 100000100001 21.813 41.565 1002.5 43358 17 0 13 58 52 4 $GNGGA,143250.00,4333.68570,N,00128.73529,E,1,05,2.05,133.5,M,53.8,M,,*41
15 14 32 51 4333.6855600128.73470133.5~ 00128.73470 133.5 1101011011 11001001 10101010010 10010100100 10011000101 100111010011 100110010101 111111111111 111111111111 1101100001 11 1110101 11 1100100010 101001010111 101101011110 100000100011 100000100010 21.813 41.512 1002.5 44356 17 0 14 60 51 3 $GNGGA,143251.00,4333.68556,N,00128.73470,E,1,05,2.05,133.5,M,53.8,M,,*49
16 14 32 52 4333.6855600128.73503133.3~ 00128.73503 133.3 1101011011 11010011 10101011100 10010100001 10011000100 100111001011 100110001111 111111111111 111111111111 1101100001 11 1111011 11 1100100101 101001011001 101101011010 100000101000 100000011111 21.813 41.504 1002.5 45356 16 0 15 59 50 4 $GNGGA,143252.00,4333.68556,N,00128.73503,E,1,05,2.04,133.3,M,53.8,M,,*48
17 14 32 53 4333.6856300128.73553133.3~ 00128.73553 133.3 1101011011 11010010 10101011101 10010101000 10011000110 100111000001 100110000010 111111111111 111111111111 1101100001 11 10000000 11 1100100111 101001001111 101101001100 100000011000 100000010100 21.813 41.520 1002.5 46356 17 0 14 60 51 3 $GNGGA,143253.00,4333.68563,N,00128.73553,E,1,05,2.04,133.3,M,53.8,M,,*4A
17 14 32 54 4333.6855500128.73523133.4~ 00128.73523 133.4 1101011011 11011001 10101011110 10010011100 10011000010 100110110101 100101111010 111111111111 111111111111 1101100001 11 10001000 11 1100101011 101001000111 101101000100 100000011010 100000010111 21.813 41.504 1002.5 47355 16 0 15 59 51 3 $GNGGA,143254.00,4333.68555,N,00128.73523,E,1,05,2.04,133.4,M,53.8,M,,*48
17 14 32 55 4333.6854900128.73519133.2~ 00128.73519 133.2 1101011011 11011100 10101100000 10010011111 10011000001 100110110011 100101111101 111111111111 111111111111 1101100001 11 10001110 11 1100101100 101001000001 101100111100 100000011001 100000010010 21.813 41.535 1002.5 48352 16 0 14 59 51 4 $GNGGA,143255.00,4333.68549,N,00128.73519,E,1,05,2.04,133.2,M,53.8,M,,*4B
18 14 32 56 4333.6854000128.73505132.7~ 00128.73505 132.7 1101011011 11100001 10101100111 10010011011 10010111111 100110101100 100101101110 111111111111 111111111111 1101100001 10 10010010 11 1100101110 101000111101 101100110100 100000011010 100000010000 21.813 41.482 1002.5 49353 17 0 14 60 51 3 $GNGGA,143256.00,4333.68540,N,00128.73505,E,1,05,2.04,132.7,M,53.8,M,,*48
18 14 32 57 4333.6852900128.73494132.5~ 00128.73494 132.5 1101011011 11101001 10101101101 10010011000 10010111100 100110101010 100101110000 111111111111 111111111111 1101100001 11 10011110 11 1100110000 101000110001 101100101110 100000011111 100000000110 21.813 41.443 1002.5 50352 16 0 14 59 50 5 $GNGGA,143257.00,4333.68529,N,00128.73494,E,1,05,2.03,132.5,M,53.8,M,,*4A
18 14 32 58 4333.6853600128.73491132.6~ 00128.73491 132.6 1101011011 11101000 10101101010 10010011011 10010111111 100110011010 100101100100 111111111111 111111111111 1101100001 11 10100101 11 1100110100 101000101011 101100100100 100000011100 100000000110 21.813 41.443 1002.5 51349 17 0 14 60 50 4 $GNGGA,143258.00,4333.68536,N,00128.73491,E,1,05,2.03,132.6,M,53.8,M,,*4D
18 14 32 59 4333.6853800128.73496132.7~ 00128.73496 132.7 1101011011 11101101 10101101101 10010010010 10010111101 100110011100 100101100011 111111111111 111111111111 1101100000 11 10101001 11 1100110101 101000100011 101100100101 100000011110 11111111111 21.813 41.474 1002.5 52347 17 0 15 59 51 3 $GNGGA,143259.00,4333.68538,N,00128.73496,E,1,05,2.03,132.7,M,53.8,M,,*44
19 14 33 00 4333.6854000128.73488132.8~ 00128.73488 132.8 1101011011 11110000 10101110000 10010010001 10010111101 100110001101 100101010011 111111111111 111111111111 1101100001 10 10110110 11 1100111001 101000100100 101100011100 100000100011 100000000010 21.813 41.482 1002.5 53349 17 0 14 60 50 4 $GNGGA,143300.00,4333.68540,N,00128.73488,E,1,05,2.03,132.8,M,53.8,M,,*46
19 14 33 01 4333.6852800128.73471132.7~ 00128.73471 132.7 1101011011 11110010 10101110010 10010010011 10010111100 100110001011 100101011000 111111111111 111111111111 1101100001 11 10111011 11 1100111011 101000011110 101100010011 100000100010 11111111101 21.813 41.504 1002.5 54348 16 0 15 59 51 3 $GNGGA,143301.00,4333.68528,N,00128.73471,E,1,05,2.03,132.7,M,53.8,M,,*40
19 14 33 02 4333.6854000128.73496132.9~ 00128.73496 132.9 1101011011 11111001 10101111000 10010001111 10010111010 100110000111 100101010000 111111111111 111111111111 1101100001 11 11000011 10 1100111011 101000010100 101100001001 100000101000 100000000000 21.813 41.512 1002.5 55346 17 0 14 59 52 3 $GNGGA,143302.00,4333.68540,N,00128.73496,E,1,05,2.03,132.9,M,53.8,M,,*4A
20 14 33 03 4333.6854100128.73497132.9~ 00128.73497 132.9 1101011010 11111010 10101111011 10010001101 10010110111 100101111100 100101001010 111111111111 111111111111 1101100001 11 11001011 11 1100111111 101000010100 101100000111 100000101011 100000000111 21.813 41.520 1002.5 56346 18 0 13 59 51 4 $GNGGA,143303.00,4333.68541,N,00128.73497,E,1,05,2.02,132.9,M,53.8,M,,*4A
20 14 33 04 4333.6853600128.73461132.8~ 00128.73461 132.8 1101011011 100000001 10101111110 10010001001 10010110101 100101110110 100101000010 111111111111 111111111111 1101100001 10 11010011 11 1101000001 101000001000 101011111111 100000011100 11111110011 21.813 41.558 1002.5 57347 16 0 14 59 51 4 $GNGGA,143304.00,4333.68536,N,00128.73461,E,1,05,2.02,132.8,M,53.8,M,,*45
20 14 33 05 4333.6855500128.73524132.9~ 00128.73524 132.9 1101011011 11111111 10101111100 10010001001 10010110111 100101110001 100100111010 111111111111 111111111111 1101100001 11 11011100 11 1101000010 100111111111 101011110101 100000101000 11111111001 21.813 41.733 1002.5 58344 17 0 14 60 50 4 $GNGGA,143305.00,4333.68555,N,00128.73524,E,1,05,2.02,132.9,M,53.8,M,,*40
20 14 33 06 4333.6855100128.73548132.8~ 00128.73548 132.8 1101011011 100000100 10110000100 10010000101 10010110101 100101110011 100100111111 111111111111 111111111111 1101100001 11 11100001 11 1101000110 100111111111 101011101100 100000100100 11111110110 21.813 41.810 1002.5 59341 17 0 14 58 51 4 $GNGGA,143306.00,4333.68551,N,00128.73548,E,1,05,2.02,132.8,M,53.8,M,,*4C
20 14 33 07 4333.6855300128.73566132.8~ 00128.73566 132.8 1101011011 100001010 10110000101 10001111111 10010110010 100101101011 100100111010 111111111111 111111111111 1101100001 11 11101000 11 1101001000 100111111010 101011101011 100000101101 11111101100 21.813 41.710 1002.4 60341 16 0 14 59 51 4 $GNGGA,143307.00,4333.68553,N,00128.73566,E,1,05,2.02,132.8,M,53.8,M,,*43
21 14 33 08 4333.6855300128.73587132.6~ 00128.73587 132.6 1101011011 100001100 10110000110 10001111110 10010110010 100101100101 100100110010 111111111111 111111111111 1101100001 11 11110000 11 1101001000 100111101110 101011011110 100000101110 11111110000 21.813 41.634 1002.4 61342 18 0 14 60 51 3 $GNGGA,143308.00,4333.68553,N,00128.73587,E,1,05,2.02,132.6,M,53.8,M,,*4D
21 14 33 09 4333.6852900128.73555132.4~ 00128.73555 132.4 1101011011 100001011 10110000010 10010000010 10010110000 100101011110 100100101101 111111111111 111111111111 1101100001 11 11110101 11 1101001101 100111101110 101011011101 100000101001 11111101011 21.813 41.573 1002.4 62341 17 0 14 59 51 4 $GNGGA,143309.00,4333.68529,N,00128.73555,E,1,05,2.01,132.4,M,53.8,M,,*4F
22 14 33 10 4333.6853000128.73573132.4~ 00128.73573 132.4 1101011011 100010010 10110001001 10010000001 10010110000 100101010100 100100100000 111111111111 111111111111 1101100001 10 100000001 11 1101001011 100111101000 101011011001 100000100110 11111100100 21.813 41.543 1002.4 63340 17 0 14 60 51 3 $GNGGA,143310.00,4333.68530,N,00128.73573,E,1,05,2.01,132.4,M,53.8,M,,*4B
22 14 33 11 4333.6852100128.73539132.1~ 00128.73539 132.1 1101011011 100010010 10110001010 10001111001 10010110001 100101010010 100100100111 111111111111 111111111111 1101100001 11 100000101 11 1101010000 100111100100 101011010001 100000101000 11111100011 21.813 41.565 1002.4 64338 16 0 15 59 50 4 $GNGGA,143311.00,4333.68521,N,00128.73539,E,1,05,2.01,132.1,M,53.8,M,,*41
23 14 33 12 4333.6849700128.73506131.8~ 00128.73506 131.8 1101011011 100010111 10110010000 10001111001 10010101100 100101010000 100100100000 111111111111 111111111111 1101100001 11 100001100 11 1101010010 100111100000 101011001100 100000101011 11111100100 21.813 41.604 1002.4 65339 18 0 14 60 51 3 $GNGGA,143312.00,4333.68497,N,00128.73506,E,1,05,2.01,131.8,M,53.8,M,,*48
24 14 33 13 4333.6848500128.73492131.1~ 00128.73492 131.1 1101011011 100100000 10110010110 10001110010 10010101001 100101001000 100100011001 111111111111 111111111111 1101100001 11 100010010 11 1101010000 100111011000 101011000001 100000101100 11111100011 21.813 41.680 1002.4 66338 17 0 14 59 51 4 $GNGGA,143313.00,4333.68485,N,00128.73492,E,1,06,1.27,131.1,M,53.8,M,,*4B
24 14 33 14 4333.6848200128.73499130.5~ 00128.73499 130.5 1101011011 100100011 10110010111 10001110101 10010101011 100100111101 100100010100 111111111111 111111111111 1101100001 11 100010101 11 1101010101 100111010111 101011000010 100000101011 11111100010 21.813 41.703 1002.4 67338 16 0 14 59 52 3 $GNGGA,143314.00,4333.68482,N,00128.73499,E,1,06,1.27,130.5,M,53.8,M,,*45
25 14 33 15 4333.6847400128.73506130.0~ 00128.73506 130.0 1101011011 100011111 10110010101 10001111101 10010101101 100100111110 100100001111 111111111111 111111111111 1101100001 11 100100000 11 1101010101 100111001010 101010110111 100000101000 11111100011 21.813 41.497 1002.4 68336 18 0 14 60 51 3 $GNGGA,143315.00,4333.68474,N,00128.73506,E,1,06,1.27,130.0,M,53.8,M,,*4F
25 14 33 16 4333.6847700128.73564129.9~ 00128.73564 129.9 1101011011 100100011 10110011000 10001110101 10010101000 100100110110 100100001011 111111111111 111111111111 1101100001 11 100100101 11 1101011000 100111001011 101010110110 100000100101 11111010111 21.813 41.306 1002.4 69336 17 0 13 58 51 5 $GNGGA,143316.00,4333.68477,N,00128.73564,E,1,06,1.27,129.9,M,53.8,M,,*4A
25 14 33 17 4333.6848200128.73601129.9~ 00128.73601 129.9 1101011011 100100101 10110011011 10001110100 10010101010 100100101100 100100000110 111111111111 111111111111 1101100001 11 100101100 11 1101011010 100111000011 101010101010 100000101001 11111011100 21.813 41.283 1002.4 70332 17 0 14 60 50 4 $GNGGA,143317.00,4333.68482,N,00128.73601,E,1,06,1.27,129.9,M,53.8,M,,*41
26 14 33 18 4333.6847400128.73607130.0~ 00128.73607 130.0 1101011011 100101000 10110011010 10001100101 10010100010 100100101010 100011111100 111111111111 111111111111 1101100001 11 100110001 11 1101011101 100110111100 101010100110 100000101100 11111010110 21.813 41.337 1002.5 71333 17 0 15 59 51 3 $GNGGA,143318.00,4333.68474,N,00128.73607,E,1,06,1.27,130.0,M,53.8,M,,*40
26 14 33 19 4333.6846600128.73606129.7~ 00128.73606 129.7 1101011011 100101110 10110011110 10001101101 10010101010 100100101000 100011111011 111111111111 111111111111 1101100001 11 100110110 11 1101100000 100110111011 101010100010 100000100110 11111001111 21.813 41.375 1002.5 72333 16 0 14 59 52 3 $GNGGA,143319.00,4333.68466,N,00128.73606,E,1,06,1.27,129.7,M,53.8,M,,*4C
26 14 33 20 4333.6847000128.73617129.6~ 00128.73617 129.6 1101011011 100110001 10110100011 10001100101 10010100100 100100100000 100011110100 111111111111 111111111111 1101100001 11 100111110 11 1101011110 100110110011 101010011100 100000101011 11111001011 21.813 41.398 1002.5 73331 17 0 14 60 51 3 $GNGGA,143320.00,4333.68470,N,00128.73617,E,1,05,2.00,129.6,M,53.8,M,,*45
26 14 33 21 4333.6846600128.73608129.1~ 00128.73608 129.1 1101011011 100110000 10110100010 10001100111 10010101000 100100100010 100011110111 111111111111 111111111111 1101100001 11 101000111 11 1101100000 100110110011 101010011000 100000100111 11111001001 21.813 41.466 1002.4 74330 16 0 14 59 50 5 $GNGGA,143321.00,4333.68466,N,00128.73608,E,1,06,1.27,129.1,M,53.8,M,,*4F
26 14 33 22 4333.6847100128.73585129.5~ 00128.73585 129.5 1101011011 100110100 10110100100 10001100000 10010100100 100100010111 100011101101 111111111111 111111111111 1101100001 11 101001010 11 1101100101 100110101100 101010010100 100000101111 11111010100 21.813 41.451 1002.4 75329 18 0 14 60 51 3 $GNGGA,143322.00,4333.68471,N,00128.73585,E,1,06,1.27,129.5,M,53.8,M,,*48
26 14 33 23 4333.6845300128.73535129.1~ 00128.73535 129.1 1101011011 100111001 10110101001 10001100100 10010100110 100100010101 100011101011 111111111111 111111111111 1101100001 11 101001111 11 1101100010 100110101001 101010001110 100000110101 11111011001 21.750 41.428 1002.4 76328 16 0 15 59 50 4 $GNGGA,143323.00,4333.68453,N,00128.73535,E,1,06,1.27,129.1,M,53.8,M,,*46
26 14 33 24 4333.6846800128.73530129.6~ 00128.73530 129.6 1101011011 100111010 10110100110 10001100100 10010100011 100100010010 100011101001 111111111111 111111111111 1101100001 11 101010010 11 1101100110 100110100001 101010000100 100000101000 11111000100 21.813 41.413 1002.4 77327 18 0 14 60 51 3 $GNGGA,143324.00,4333.68468,N,00128.73530,E,1,06,1.27,129.6,M,53.8,M,,*4B
27 14 33 25 4333.6847800128.73541130.3~ 00128.73541 130.3 1101011011 100111000 10110101000 10001100100 10010100101 100100001111 100011100111 111111111111 111111111111 1101100001 11 101011011 11 1101100111 100110011100 101010000010 100000100111 11111000000 21.750 41.390 1002.4 78326 17 0 14 58 51 4 $GNGGA,143325.00,4333.68478,N,00128.73541,E,1,06,1.27,130.3,M,53.8,M,,*40
27 14 33 26 4333.6847900128.73499130.6~ 00128.73499 130.6 1101011011 100111110 10110101110 10001100010 10010100010 100100000001 100011011100 111111111111 111111111111 1101100001 10 101011101 11 1101101001 100110011001 101010000010 100000100111 11111001000 21.750 41.375 1002.4 79327 16 0 14 59 51 4 $GNGGA,143326.00,4333.68479,N,00128.73499,E,1,06,1.27,130.6,M,53.8,M,,*43
28 14 33 27 4333.6847800128.73517130.7~ 00128.73517 130.7 1101011011 101000100 10110110000 10001011110 10010100010 100011111111 100011011001 111111111111 111111111111 1101100001 11 101100001 11 1101101010 100110010101 101001110110 100000100110 11110111010 21.750 41.375 1002.4 80325 18 0 13 59 51 4 $GNGGA,143327.00,4333.68478,N,00128.73517,E,1,06,1.27,130.7,M,53.8,M,,*45
28 14 33 28 4333.6848900128.73533130.9~ 00128.73533 130.9 1101011011 101000001 10110101100 10001100110 10010100000 100011111011 100011011011 111111111111 111111111111 1101100001 11 101101000 11 1101101100 100110001101 101001110010 100000101010 11111000001 21.750 41.375 1002.4 81323 16 0 15 59 51 3 $GNGGA,143328.00,4333.68489,N,00128.73533,E,1,06,1.27,130.9,M,53.8,M,,*4C
29 14 33 29 4333.6848500128.73533131.2~ 00128.73533 131.2 1101011011 101000010 10110101110 10001100101 10010011111 100011111001 100011010011 111111111111 111111111111 1101100001 11 101101101 11 1101101110 100110001110 101001101100 100000101011 11110111011 21.750 41.382 1002.4 82322 17 0 14 60 50 4 $GNGGA,143329.00,4333.68485,N,00128.73533,E,1,06,1.27,131.2,M,53.8,M,,*4B
29 14 33 30 4333.6848900128.73518131.6~ 00128.73518 131.6 1101011011 101000110 10110101110 10001100010 10010011011 100011110111 100011010010 111111111111 111111111111 1101100001 10 101110001 11 1101110000 100110000111 101001100110 100000100010 11110110001 21.750 41.398 1002.4 83320 16 0 15 58 51 4 $GNGGA,143330.00,4333.68489,N,00128.73518,E,1,06,1.27,131.6,M,53.8,M,,*42
29 14 33 31 4333.6851800128.73558132.1~ 00128.73558 132.1 1101011010 101001100 10110110000 10001010100 10010011100 100011101010 100011000111 111111111111 111111111111 1101100001 11 101110100 11 1101101111 100101111111 101001100000 100000100011 11110110000 21.750 41.413 1002.4 84321 17 0 14 59 52 3 $GNGGA,143331.00,4333.68518,N,00128.73558,E,1,06,1.27,132.1,M,53.8,M,,*4A
30 14 33 32 4333.6853100128.73591132.7~ 00128.73591 132.7 1101011011 101001110 10110110110 10001010110 10010011100 100011110001 100011001001 111111111111 111111111111 1101100001 10 101111010 11 1101110011 100110000010 101001011100 100000101001 11110110000 21.750 41.436 1002.4 85320 17 0 14 60 50 4 $GNGGA,143332.00,4333.68531,N,00128.73591,E,1,06,1.27,132.7,M,53.8,M,,*41
30 14 33 33 4333.6852400128.73617132.8~ 00128.73617 132.8 1101011011 101001111 10110110010 10001010111 10010011010 100011101001 100011000101 111111111111 111111111111 1101100001 11 101111101 11 1101110011 100101110101 101001010000 100000101100 11110110100 21.750 41.436 1002.4 86319 17 0 14 59 51 4 $GNGGA,143333.00,4333.68524,N,00128.73617,E,1,06,1.27,132.8,M,53.8,M,,*46
31 14 33 34 4333.6853400128.73595133.2~ 00128.73595 133.2 1101011011 101010000 10110110101 10001011000 10010011001 100011011111 100010111010 111111111111 111111111111 1101100001 11 110000101 11 1101110101 100101110101 101001010011 100000101011 11110101100 21.750 41.489 1002.4 87318 18 0 14 60 51 3 $GNGGA,143334.00,4333.68534,N,00128.73595,E,1,06,1.27,133.2,M,53.8,M,,*42
31 14 33 35 4333.6858200128.73704133.7~ 00128.73704 133.7 1101011011 101010000 10110110111 10001010111 10010011011 100011100011 100010111100 111111111111 111111111111 1101100001 11 110001100 11 1101110101 100101110000 101001001110 100000101001 11110101011 21.750 41.543 1002.4 88314 16 0 15 59 50 4 $GNGGA,143335.00,4333.68582,N,00128.73704,E,1,06,1.27,133.7,M,53.8,M,,*41
32 14 33 36 4333.6858300128.73677133.9~ 00128.73677 133.9 1101011011 101010011 10110111000 10001011001 10010011100 100011011100 100010110111 111111111111 111111111111 1101100001 11 110001100 11 1101110111 100101110100 101001001010 100000101111 11110110010 21.750 41.550 1002.4 89317 17 0 14 60 51 3 $GNGGA,143336.00,4333.68583,N,00128.73677,E,1,06,1.27,133.9,M,53.8,M,,*48
32 14 33 37 4333.6858100128.73659134.0~ 00128.73659 134.0 1101011011 101011000 10110111101 10001010101 10010011001 100011010101 100010110100 111111111111 111111111111 1101100001 11 110010010 11 1101111000 100101101011 101001000011 100000101001 11110101010 21.750 41.581 1002.4 90315 16 0 15 59 51 3 $GNGGA,143337.00,4333.68581,N,00128.73659,E,1,06,1.27,134.0,M,53.8,M,,*49
32 14 33 38 4333.6858500128.73669134.0~ 00128.73669 134.0 1101011011 101011001 10110111100 10001010101 10010010111 100011001101 100010101011 111111111111 111111111111 1101100000 11 110010011 11 1101111001 100101100100 101000111110 100000101001 11110101010 21.750 41.619 1002.4 91315 17 0 14 59 52 3 $GNGGA,143338.00,4333.68585,N,00128.73669,E,1,06,1.27,134.0,M,53.8,M,,*41
32 14 33 39 4333.6860100128.73664134.3~ 00128.73664 134.3 1101011011 101011100 10110111101 10001010100 10010011001 100011001110 100010101111 111111111111 111111111111 1101100001 11 110011000 11 1101111010 100101100010 101000111111 100000100111 11110100100 21.750 41.642 1002.4 92312 18 0 14 60 51 3 $GNGGA,143339.00,4333.68601,N,00128.73664,E,1,06,1.27,134.3,M,53.8,M,,*41
33 14 33 40 4333.6861900128.73693134.4~ 00128.73693 134.4 1101011010 101100000 10111000010 10001001110 10010010101 100011001011 100010110000 111111111111 111111111111 1101100001 11 110011100 11 1101111011 100101011100 101000110010 100000101010 11110101101 21.750 41.642 1002.4 93312 16 0 15 59 50 4 $GNGGA,143340.00,4333.68619,N,00128.73693,E,1,06,1.27,134.4,M,53.8,M,,*49
34 14 33 41 4333.6859300128.73691134.3~ 00128.73691 134.3 1101011011 101100010 10111000101 10001010010 10010011001 100011001000 100010100011 111111111111 111111111111 1101100001 11 110100001 11 1101111100 100101010101 101000101101 100000101001 11110100010 21.750 41.642 1002.4 94311 17 0 14 60 50 4 $GNGGA,143341.00,4333.68593,N,00128.73691,E,1,06,1.27,134.3,M,53.8,M,,*4C
34 14 33 42 4333.6859500128.73723134.1~ 00128.73723 134.1 1101011010 101011111 10111000000 10001010000 10010010111 100011000000 100010011010 111111111111 111111111111 1101100001 11 110101000 11 1101111101 100101010111 101000110001 100000101011 11110100010 21.750 41.604 1002.4 95310 17 0 14 58 51 4 $GNGGA,143342.00,4333.68595,N,00128.73723,E,1,06,1.27,134.1,M,53.8,M,,*43
34 14 33 43 4333.6857700128.73709133.9~ 00128.73709 133.9 1101011011 101100101 10111000100 10001001101 10010010010 100010111111 100010100000 111111111111 111111111111 1101100001 11 110101001 11 1101111111 100101001110 101000100010 100000100100 11110011001 21.750 41.596 1002.4 96310 16 0 14 59 51 4 $GNGGA,143343.00,4333.68577,N,00128.73709,E,1,06,1.27,133.9,M,53.8,M,,*49
35 14 33 44 4333.6858600128.73704134.2~ 00128.73704 134.2 1101011011 101100101 10111000100 10001001100 10010010101 100010111011 100010011100 111111111111 111111111111 1101100001 11 110101100 11 1110000001 100101001000 101000011100 100000100111 11110010111 21.750 41.619 1002.4 97309 17 0 14 60 51 3 $GNGGA,143344.00,4333.68586,N,00128.73704,E,1,06,1.27,134.2,M,53.8,M,,*41
35 14 33 45 4333.6858500128.73740134.1~ 00128.73740 134.1 1101011011 101101001 10111000101 10001001011 10010010100 100010110111 100010011001 111111111111 111111111111 1101100001 11 110110011 11 1110000011 100101000000 101000011010 100000100011 11110011100 21.750 41.649 1002.4 98308 17 0 13 58 51 5 $GNGGA,143345.00,4333.68585,N,00128.73740,E,1,06,1.27,134.1,M,53.8,M,,*40
35 14 33 46 4333.6857600128.73776134.0~ 00128.73776 134.0 1101011011 101101010 10111000110 10001001000 10010010101 100010110111 100010010111 111111111111 111111111111 1101100001 11 110110011 11 1110000010 100101001010 101000011111 100000100100 11110011010 21.750 41.665 1002.4 99305 18 0 13 59 51 4 $GNGGA,143346.00,4333.68576,N,00128.73776,E,1,06,1.27,134.0,M,53.8,M,,*4B
36 14 33 47 4333.6858100128.73758134.2~ 00128.73758 134.2 1101011011 101110001 10111001110 10001001010 10010010100 100010110010 100010010001 111111111111 111111111111 1101100001 11 110111001 11 1110000101 100101000011 101000010101 100000101001 11110010011 21.750 41.710 1002.4 100306 16 0 15 59 50 4 $GNGGA,143347.00,4333.68581,N,00128.73758,E,1,06,1.27,134.2,M,53.8,M,,*4C
36 14 33 48 4333.6857000128.73725134.2~ 00128.73725 134.2 1101011011 101101100 10111001001 10001010000 10010010101 100010110000 100010010010 111111111111 111111111111 1101100001 11 110111100 11 1110000110 100101000000 101000010101 100000101011 11110011101 21.750 41.970 1002.4 101305 18 0 14 60 51 3 $GNGGA,143348.00,4333.68570,N,00128.73725,E,1,06,1.27,134.2,M,53.8,M,,*47
37 14 33 49 4333.6856600128.73700134.4~ 00128.73700 134.4 1101011011 101110001 10111001011 10001001110 10010010000 100010101101 100010001111 111111111111 111111111111 1101100001 10 110111111 11 1110000110 100100111100 101000001110 100000101000 11110011001 21.750 42.038 1002.4 102303 16 0 15 59 50 4 $GNGGA,143349.00,4333.68566,N,00128.73700,E,1,06,1.27,134.4,M,53.8,M,,*40
37 14 33 50 4333.6858400128.73730134.6~ 00128.73730 134.6 1101011011 101110001 10111001100 10001000100 10010010001 100010100010 100010000001 111111111111 111111111111 1101100001 11 111000010 11 1110001000 100100111001 101000001110 100000101000 11110011001 21.750 42.031 1002.4 103303 17 0 13 58 52 4 $GNGGA,143350.00,4333.68584,N,00128.73730,E,1,06,1.27,134.6,M,53.8,M,,*45
37 14 33 51 4333.6857300128.73688134.6~ 00128.73688 134.6 1101011011 101110011 10111001100 10001000001 10010001100 100010100010 100010000001 111111111111 111111111111 1101100001 11 111001000 11 1110001001 100100111011 101000001010 100000101001 11110010000 21.750 42.260 1002.4 104302 18 0 14 60 51 3 $GNGGA,143351.00,4333.68573,N,00128.73688,E,1,06,1.27,134.6,M,53.8,M,,*4E
37 14 33 52 4333.6856300128.73670134.7~ 00128.73670 134.7 1101011011 101110011 10111001110 10001000101 10010010100 100010011001 100001110111 111111111111 111111111111 1101100001 11 111001101 11 1110001010 100100101110 101000000011 100000100111 11110010110 21.750 42.031 1002.4 105302 16 0 15 59 51 3 $GNGGA,143352.00,4333.68563,N,00128.73670,E,1,06,1.27,134.7,M,53.8,M,,*4A
38 14 33 53 4333.6856500128.73676134.7~ 00128.73676 134.7 1101011011 101111000 10111010000 10001000011 10010001101 100010011011 100001111110 111111111111 111111111111 1101100001 11 111010000 11 1110001100 100100101011 100111111011 100000100001 11110001001 21.750 41.947 1002.4 106301 18 0 14 60 51 3 $GNGGA,143353.00,4333.68565,N,00128.73676,E,1,06,1.27,134.7,M,53.8,M,,*4B
38 14 33 54 4333.6856600128.73657134.8~ 00128.73657 134.8 1101011011 101111010 10111010100 10001000000 10010001111 100010010011 100001111010 111111111111 111111111111 1101100001 11 111010010 11 1110001110 100100100101 100111111001 100000100011 11110000101 21.750 42.084 1002.4 107300 16 0 15 59 50 4 $GNGGA,143354.00,4333.68566,N,00128.73657,E,1,06,1.27,134.8,M,53.8,M,,*43
38 14 33 55 4333.6855300128.73641134.9~ 00128.73641 134.9 1101011011 101111000 10111010101 10000111101 10010001110 100010010010 100001111001 111111111111 111111111111 1101100001 11 111010111 11 1110010000 100100100110 100111110101 100000100010 11110001011 21.750 42.130 1002.4 108299 17 0 14 59 52 3 $GNGGA,143355.00,4333.68553,N,00128.73641,E,1,06,1.27,134.9,M,53.8,M,,*42
38 14 33 56 4333.6855300128.73660134.8~ 00128.73660 134.8 1101011011 101111001 10111010011 10000111100 10010001110 100010001100 100001110010 111111111111 111111111111 1101100001 11 111011001 11 1110010000 100100011011 100111101101 100000101011 11110000110 21.750 41.985 1002.4 109297 18 0 13 59 51 4 $GNGGA,143356.00,4333.68553,N,00128.73660,E,1,06,1.27,134.8,M,53.8,M,,*43
38 14 33 57 4333.6854200128.73665134.5~ 00128.73665 134.5 1101011010 101111100 10111010010 10000111011 10010001101 100010001110 100001110010 111111111111 111111111111 1101100001 11 111011101 10 1110001111 100100011111 100111101100 100000101000 11110000100 21.750 41.848 1002.4 110295 16 0 15 59 50 4 $GNGGA,143357.00,4333.68542,N,00128.73665,E,1,06,1.27,134.5,M,53.8,M,,*4A
39 14 33 58 4333.6854000128.73668134.4~ 00128.73668 134.4 1101011011 101111011 10111010100 10000111111 10010001100 100010001101 100001110100 111111111111 111111111111 1101100001 11 111011111 11 1110010001 100100011010 100111101001 100000101011 11110001011 21.750 41.741 1002.4 111296 17 0 14 60 51 3 $GNGGA,143358.00,4333.68540,N,00128.73668,E,1,06,1.27,134.4,M,53.8,M,,*4B
39 14 33 59 4333.6855500128.73725134.2~ 00128.73725 134.2 1101011011 110000001 10111010111 10000111100 10010001110 100010000110 100001101000 111111111111 111111111111 1101100001 11 111100001 11 1110010000 100100010110 100111100101 100000100000 11101111110 21.750 41.619 1002.4 112294 17 0 14 58 51 4 $GNGGA,143359.00,4333.68555,N,00128.73725,E,1,06,1.27,134.2,M,53.8,M,,*40
39 14 34 00 4333.6854000128.73754134.2~ 00128.73754 134.2 1101011011 110000100 10111011011 10000111000 10010001000 100010000100 100001100111 111111111111 111111111111 1101100001 11 111100101 11 1110010010 100100010000 100111100001 100000101001 11110000001 21.750 41.451 1002.5 113294 16 0 14 59 52 3 $GNGGA,143400.00,4333.68540,N,00128.73754,E,1,06,1.27,134.2,M,53.8,M,,*49
40 14 34 01 4333.6854200128.73736134.1~ 00128.73736 134.1 1101011011 110000011 10111011001 10000111100 10010001010 100010000010 100001100101 111111111111 111111111111 1101100001 11 111100110 11 1110010101 100100010000 100111011010 100000100111 11110000010 21.750 41.359 1002.4 114293 16 0 15 59 50 4 $GNGGA,143401.00,4333.68542,N,00128.73736,E,1,06,1.27,134.1,M,53.8,M,,*4D
40 14 34 02 4333.6849500128.73664133.7~ 00128.73664 133.7 1101011011 110000101 10111011001 10000111101 10010001110 100010000000 100001100111 111111111111 111111111111 1101100001 11 111101100 11 1110010101 100100001110 100111011010 100000101001 11110000101 21.750 41.329 1002.4 115292 16 0 14 59 52 3 $GNGGA,143402.00,4333.68495,N,00128.73664,E,1,06,1.27,133.7,M,53.8,M,,*42
41 14 34 03 4333.6846500128.73592133.6~ 00128.73592 133.6 1101011011 110001001 10111011101 10000111011 10010001011 100001111100 100001100101 111111111111 111111111111 1101100001 11 111101100 11 1110010100 100100000110 100111010110 100000100100 11110000101 21.750 41.337 1002.4 116291 17 0 14 60 50 4 $GNGGA,143403.00,4333.68465,N,00128.73592,E,1,06,1.27,133.6,M,53.8,M,,*47
41 14 34 04 4333.6843700128.73574133.4~ 00128.73574 133.4 1101011011 110001010 10111011100 10000110110 10010001010 100001111100 100001011101 111111111111 111111111111 1101100001 11 111101111 11 1110010111 100100000001 100111001101 100000100110 11101111100 21.750 41.359 1002.4 117289 16 0 15 59 50 4 $GNGGA,143404.00,4333.68437,N,00128.73574,E,1,06,1.27,133.4,M,53.8,M,,*4D
42 14 34 05 4333.6843000128.73604133.6~ 00128.73604 133.6 1101011010 110001110 10111011111 10000110100 10010001000 100001111000 100001100000 111111111111 111111111111 1101100001 11 111110011 11 1110010111 100100000000 100111000100 100000100010 11101111011 21.813 41.344 1002.4 118289 18 0 14 60 51 3 $GNGGA,143405.00,4333.68430,N,00128.73604,E,1,06,1.27,133.6,M,53.8,M,,*4D
42 14 34 06 4333.6838300128.73602133.4~ 00128.73602 133.4 1101011011 110001011 10111100000 10000111001 10010001011 100001111000 100001011100 111111111111 111111111111 1101100001 10 111110101 11 1110011001 100011111111 100111000111 100000100111 11110000000 21.750 41.390 1002.4 119288 16 0 15 59 51 3 $GNGGA,143406.00,4333.68383,N,00128.73602,E,1,06,1.27,133.4,M,53.8,M,,*45
42 14 34 07 4333.6836700128.73606133.0~ 00128.73606 133.0 1101011010 110001010 10111011100 10000111001 10010001101 100001110110 100001011100 111111111111 111111111111 1101100001 11 111111001 11 1110011000 100011111010 100111000000 100000100100 11101111101 21.750 41.611 1002.4 120287 17 0 14 59 52 3 $GNGGA,143407.00,4333.68367,N,00128.73606,E,1,06,1.27,133.0,M,53.8,M,,*4E
42 14 34 08 4333.6836000128.73596132.7~ 00128.73596 132.7 1101011011 110001111 10111100000 10000101110 10010000111 100001111001 100001011010 111111111111 111111111111 1101100001 11 111111001 11 1110011010 100011110110 100110111110 100000011100 11101110101 21.750 41.749 1002.4 121284 18 0 13 60 51 4 $GNGGA,143408.00,4333.68360,N,00128.73596,E,1,06,1.27,132.7,M,53.8,M,,*4A
43 14 34 09 4333.6834800128.73590132.4~ 00128.73590 132.4 1101011011 110010100 10111100011 10000101100 10010000101 100001101111 100001010111 111111111111 111111111111 1101100001 11 111111100 11 1110011100 100011110010 100110110111 100000011111 11101110000 21.750 41.909 1002.4 122285 16 0 14 59 50 5 $GNGGA,143409.00,4333.68348,N,00128.73590,E,1,06,1.27,132.4,M,53.8,M,,*44
44 14 34 10 4333.6834600128.73529132.1~ 00128.73529 132.1 1101011011 110001110 10111011111 10000101101 10010000100 100001101110 100001011000 111111111111 111111111111 1101100001 11 111111111 11 1110011101 100011101111 100110110010 100000101001 11101111011 21.750 41.878 1002.4 123285 17 0 14 60 50 4 $GNGGA,143410.00,4333.68346,N,00128.73529,E,1,06,1.27,132.1,M,53.8,M,,*45
44 14 34 11 4333.6832100128.73416131.6~ 00128.73416 131.6 1101011011 110010011 10111100110 10000101111 10010001000 100001110001 100001011001 111111111111 111111111111 1101100001 11 1000000010 11 1110011100 100011110001 100110111001 100000101110 11110000000 21.750 41.825 1002.4 124284 17 0 15 59 51 3 $GNGGA,143411.00,4333.68321,N,00128.73416,E,1,06,1.27,131.6,M,53.8,M,,*4C
44 14 34 12 4333.6831800128.73376131.2~ 00128.73376 131.2 1101011011 110010100 10111100100 10000110111 10010001000 100001101111 100001010110 111111111111 111111111111 1101100001 11 1000000101 11 1110011101 100011101110 100110101111 100000100101 11101110100 21.750 41.749 1002.4 125283 17 0 14 60 50 4 $GNGGA,143412.00,4333.68318,N,00128.73376,E,1,06,1.27,131.2,M,53.8,M,,*40
44 14 34 13 4333.6828200128.73367131.0~ 00128.73367 131.0 1101011011 110010101 10111100010 10000110001 10010000110 100001101000 100001001111 111111111111 111111111111 1101100001 11 1000000110 11 1110011101 100011100100 100110101010 100000100101 11101110100 21.750 41.695 1002.4 126282 16 0 15 59 51 3 $GNGGA,143413.00,4333.68282,N,00128.73367,E,1,06,1.27,131.0,M,53.8,M,,*41
44 14 34 14 4333.6827600128.73330130.6~ 00128.73330 130.6 1101011011 110011000 10111100110 10000101101 10010000011 100001100101 100001001110 111111111111 111111111111 1101100000 11 1000001001 11 1110100001 100011100011 100110101000 100000011110 11101101010 21.750 41.634 1002.4 127281 16 0 14 59 52 3 $GNGGA,143414.00,4333.68276,N,00128.73330,E,1,06,1.27,130.6,M,53.8,M,,*48
44 14 34 15 4333.6827100128.73322130.0~ 00128.73322 130.0 1101011011 110011001 10111100011 10000110000 10010000110 100001100010 100001001000 111111111111 111111111111 1101100001 11 1000001110 11 1110011111 100011100010 100110100101 100000100001 11101110001 21.750 41.680 1002.4 128278 18 0 13 60 51 4 $GNGGA,143415.00,4333.68271,N,00128.73322,E,1,06,1.27,130.0,M,53.8,M,,*4B
45 14 34 16 4333.6828100128.73288129.7~ 00128.73288 129.7 1101011011 110011010 10111100101 10000110010 10010000101 100001100100 100001001110 111111111111 111111111111 1101100001 11 1000001110 11 1110100001 100011100010 100110011111 100000011100 11101100010 21.750 41.924 1002.4 129280 17 0 14 58 51 4 $GNGGA,143416.00,4333.68281,N,00128.73288,E,1,06,1.27,129.7,M,53.8,M,,*49
46 14 34 17 4333.6820500128.73194128.9~ 00128.73194 128.9 1101011011 110011101 10111100111 10000110100 10010000110 100001011001 100001000001 111111111111 111111111111 1101100001 11 1000010011 11 1110100011 100011011101 100110011111 100000011011 11101100010 21.750 41.932 1002.4 130279 18 0 13 59 51 4 $GNGGA,143417.00,4333.68205,N,00128.73194,E,1,07,1.17,128.9,M,53.8,M,,*47
46 14 34 18 4333.6813900128.73078128.4~ 00128.73078 128.4 1101011011 110100001 10111101100 10000110100 10010000101 100001011001 100001000100 111111111111 111111111111 1101100001 11 1000010010 11 1110100011 100011011101 100110100000 100000100100 11101101101 21.750 41.924 1002.4 131278 16 0 15 59 50 4 $GNGGA,143418.00,4333.68139,N,00128.73078,E,1,07,1.17,128.4,M,53.8,M,,*4A
46 14 34 19 4333.6813300128.73063128.1~ 00128.73063 128.1 1101011011 110011101 10111101001 10000110000 10010000110 100001011000 100001000110 111111111111 111111111111 1101100001 10 1000010111 11 1110100101 100011011010 100110010111 100000100000 11101100110 21.750 41.878 1002.4 132277 16 0 14 59 52 3 $GNGGA,143419.00,4333.68133,N,00128.73063,E,1,06,1.84,128.1,M,53.8,M,,*45
47 14 34 20 4333.6803800128.72884128.5~ 00128.72884 128.5 1101011010 110100000 10111101100 10000101100 10010000100 100001010000 100000111011 111111111111 111111111111 1101100001 11 1000010110 11 1110100100 100011010101 100110010110 100000011101 11101100101 21.750 41.718 1002.4 133276 17 0 14 60 51 3 $GNGGA,143420.00,4333.68038,N,00128.72884,E,1,07,1.17,128.5,M,53.8,M,,*4A
47 14 34 21 4333.6800800128.72880128.6~ 00128.72880 128.6 1101011011 110100100 10111101101 10000101100 10010000011 100001010011 100000111101 111111111111 111111111111 1101100001 11 1000011001 11 1110100111 100011001111 100110001110 100000011010 11101011111 21.750 41.604 1002.4 134274 17 0 13 58 51 5 $GNGGA,143421.00,4333.68008,N,00128.72880,E,1,06,1.84,128.6,M,53.8,M,,*44
48 14 34 22 4333.6798700128.72905129.0~ 00128.72905 129.0 1101011011 110100011 10111101011 10000101100 10001111110 100001001111 100000111111 111111111111 111111111111 1101100001 10 1000011100 11 1110100101 100011001011 100110001111 100000100110 11101101111 21.750 41.550 1002.4 135274 17 0 14 60 51 3 $GNGGA,143422.00,4333.67987,N,00128.72905,E,1,06,1.84,129.0,M,53.8,M,,*4D
48 14 34 23 4333.6800300128.72889129.2~ 00128.72889 129.2 1101011011 110100000 10111101010 10000100111 10010000000 100001001110 100000110101 111111111111 111111111111 1101100001 11 1000100000 11 1110101010 100011000101 100110000001 100000011110 11101100110 21.750 41.497 1002.4 136272 16 0 15 59 50 4 $GNGGA,143423.00,4333.68003,N,00128.72889,E,1,06,1.84,129.2,M,53.8,M,,*41
48 14 34 24 4333.6801500128.72901129.2~ 00128.72901 129.2 1101011011 110100100 10111110000 10000100100 10010000001 100001001101 100000110110 111111111111 111111111111 1101100001 11 1000100011 11 1110101010 100011001000 100110001000 100000011110 11101011110 21.750 41.512 1002.4 137271 16 0 14 58 52 4 $GNGGA,143424.00,4333.68015,N,00128.72901,E,1,06,1.84,129.2,M,53.8,M,,*40
49 14 34 25 4333.6807700128.72914129.5~ 00128.72914 129.5 1101011011 110100111 10111101111 10000101001 10010000011 100001000111 100000110100 111111111111 111111111111 1101100001 11 1000011111 11 1110101001 100011000100 100110000010 100000011011 11101011110 21.750 41.626 1002.4 138271 16 0 15 59 50 4 $GNGGA,143425.00,4333.68077,N,00128.72914,E,1,06,1.84,129.5,M,53.8,M,,*46
49 14 34 26 4333.6808100128.72954129.7~ 00128.72954 129.7 1101011011 110100100 10111101010 10000100010 10010000001 100001000011 100000101101 111111111111 111111111111 1101100001 10 1000100011 11 1110101001 100011000000 100101111110 100000011101 11101100001 21.750 41.695 1002.4 139268 16 0 14 59 51 4 $GNGGA,143426.00,4333.68081,N,00128.72954,E,1,05,1.92,129.7,M,53.8,M,,*4E
50 14 34 27 4333.6808900128.72988130.0~ 00128.72988 130.0 1101011011 110100111 10111101110 10000100110 10010000010 100000111011 100000100111 111111111111 111111111111 1101100001 10 1000101010 11 1110101101 100011000010 100101111100 100000011001 11101100001 21.750 41.680 1002.4 140266 17 0 14 60 50 4 $GNGGA,143427.00,4333.68089,N,00128.72988,E,1,05,1.92,130.0,M,53.8,M,,*49
51 14 34 28 4333.6812300128.73035130.4~ 00128.73035 130.4 1101011011 110101001 10111110001 10000101010 10010000010 100001000011 100000101101 111111111111 111111111111 1101100001 11 1000101011 11 1110101010 100010111110 100101111111 100000011100 11101011000 21.813 41.634 1002.4 141266 17 0 14 58 51 4 $GNGGA,143428.00,4333.68123,N,00128.73035,E,1,05,1.92,130.4,M,53.8,M,,*4D
52 14 34 29 4333.6812900128.72993130.6~ 00128.72993 130.6 1101011010 110101100 10111110100 10000101011 10010000001 100000111100 100000101000 111111111111 111111111111 1101100001 11 1000101110 11 1110101010 100010110111 100101110111 100000011110 11101011110 21.750 41.604 1002.4 142267 17 0 14 60 51 3 $GNGGA,143429.00,4333.68129,N,00128.72993,E,1,06,1.84,130.6,M,53.8,M,,*44
52 14 34 30 4333.6812100128.72987131.1~ 00128.72987 131.1 1101011011 110101010 10111110101 10000100000 10001111011 100000110111 100000100001 111111111111 111111111111 1101100001 11 1000101111 11 1110101011 100010110101 100101110011 100000100011 11101011110 21.750 41.573 1002.4 143265 17 0 15 59 51 3 $GNGGA,143430.00,4333.68121,N,00128.72987,E,1,06,1.84,131.1,M,53.8,M,,*47
52 14 34 31 4333.6807600128.72892131.2~ 00128.72892 131.2 1101011011 110101101 10111110011 10000011110 10001111111 100000110110 100000100111 111111111111 111111111111 1101100001 11 1000110000 11 1110101110 100010110011 100101101111 100000100010 11101011110 21.750 41.543 1002.4 144265 16 0 14 59 51 4 $GNGGA,143431.00,4333.68076,N,00128.72892,E,1,06,1.84,131.2,M,53.8,M,,*43
53 14 34 32 4333.6807100128.72861131.7~ 00128.72861 131.7 1101011011 110101011 10111110011 10000100100 10001111100 100000110111 100000100100 111111111111 111111111111 1101100001 11 1000110100 11 1110101111 100010101111 100101100101 100000011001 11101010100 21.750 41.527 1002.4 145264 18 0 14 60 51 3 $GNGGA,143432.00,4333.68071,N,00128.72861,E,1,05,1.92,131.7,M,53.8,M,,*4A
53 14 34 33 4333.6807900128.72824131.7~ 00128.72824 131.7 1101011011 110101110 10111110001 10000011101 10001111010 100000101110 100000011110 111111111111 111111111111 1101100001 11 1000110111 11 1110110000 100010100110 100101100101 100000100010 11101011011 21.750 41.558 1002.4 146263 16 0 15 59 50 4 $GNGGA,143433.00,4333.68079,N,00128.72824,E,1,05,1.92,131.7,M,53.8,M,,*42
54 14 34 34 4333.6808500128.72872132.1~ 00128.72872 132.1 1101011011 110101110 10111110011 10000100110 10001111111 100000110111 100000011110 111111111111 111111111111 1101100001 11 1000110111 11 1110101111 100010101100 100101101000 100000011101 11101011000 21.750 41.626 1002.4 147262 17 0 14 60 51 3 $GNGGA,143434.00,4333.68085,N,00128.72872,E,1,05,1.92,132.1,M,53.8,M,,*40
54 14 34 35 4333.6808300128.72811132.5~ 00128.72811 132.5 1101011010 110110011 10111110101 10000100111 10010000000 100000101000 100000011000 111111111111 111111111111 1101100001 11 1000110101 11 1110110010 100010101100 100101100001 100000011111 11101010101 21.750 41.619 1002.4 148260 16 0 15 59 50 4 $GNGGA,143435.00,4333.68083,N,00128.72811,E,1,05,1.92,132.5,M,53.8,M,,*46
54 14 34 36 4333.6810700128.72890132.9~ 00128.72890 132.9 1101011011 110110001 10111110111 10000100011 10001111100 100000101101 100000011100 111111111111 111111111111 1101100000 11 1000111000 11 1110110001 100010100100 100101100011 100000011010 11101001110 21.750 41.604 1002.4 149260 16 0 14 59 52 3 $GNGGA,143436.00,4333.68107,N,00128.72890,E,1,05,1.92,132.9,M,53.8,M,,*4D
54 14 34 37 4333.6817100128.72912133.3~ 00128.72912 133.3 1101011011 110110100 10111110111 10000100111 10001111110 100000100101 100000010100 111111111111 111111111111 1101100001 11 1000111100 11 1110110011 100010011110 100101011010 100000011011 11101010010 21.750 41.581 1002.4 150257 17 0 14 60 51 3 $GNGGA,143437.00,4333.68171,N,00128.72912,E,1,05,1.92,133.3,M,53.8,M,,*4D
54 14 34 38 4333.6814100128.72937133.6~ 00128.72937 133.6 1101011011 110110011 10111110110 10000100001 10001111110 100000100010 100000010100 111111111111 111111111111 1101100001 11 1000111110 11 1110110000 100010011010 100101010101 100000011010 11101010010 21.750 41.565 1002.4 151256 16 0 14 59 50 5 $GNGGA,143438.00,4333.68141,N,00128.72937,E,1,04,2.23,133.6,M,53.8,M,,*4B
55 14 34 39 4333.6814600128.72965134.2~ 00128.72965 134.2 1101011011 110110011 10111110110 10000100011 10001111101 100000100110 100000010011 111111111111 111111111111 1101100001 11 1000111110 11 1110110001 100010011100 100101010000 100000011000 11101000111 21.750 41.565 1002.4 152257 17 0 14 60 50 4 $GNGGA,143439.00,4333.68146,N,00128.72965,E,1,05,1.92,134.2,M,53.8,M,,*41
55 14 34 40 4333.6818200128.73036134.8~ 00128.73036 134.8 1101011011 110110100 10111111001 10000100001 10001111101 100000100100 100000010100 111111111111 111111111111 1101100001 11 1001000011 11 1110110101 100010011100 100101010110 100000010111 11101001100 21.750 41.558 1002.4 153255 16 0 15 59 50 4 $GNGGA,143440.00,4333.68182,N,00128.73036,E,1,05,1.92,134.8,M,53.8,M,,*43
56 14 34 41 4333.6819100128.73024135.2~ 00128.73024 135.2 1101011011 110110111 10111111010 10000100100 10001111101 100000100011 100000010100 111111111111 111111111111 1101100001 10 1001000010 11 1110110010 100010010011 100101001100 100000010100 11101000101 21.750 41.535 1002.4 154255 18 0 14 60 51 3 $GNGGA,143441.00,4333.68191,N,00128.73024,E,1,05,1.92,135.2,M,53.8,M,,*48
56 14 34 42 4333.6819400128.73089135.8~ 00128.73089 135.8 1101011011 110111010 10111111011 10000100100 10001111011 100000011001 100000001100 111111111111 111111111111 1101100001 11 1001000110 11 1110110011 100010010110 100101001110 100000011100 11101000111 21.750 41.520 1002.4 155253 16 0 15 59 50 4 $GNGGA,143442.00,4333.68194,N,00128.73089,E,1,05,1.92,135.8,M,53.8,M,,*43
56 14 34 43 4333.6822800128.73167136.6~ 00128.73167 136.6 1101011011 110111010 10111111001 10000100011 10001111001 100000010100 100000000110 111111111111 111111111111 1101100001 11 1001000111 11 1110110111 100010010011 100101001100 100000010110 11101001001 21.750 41.504 1002.4 156253 16 0 14 59 51 4 $GNGGA,143443.00,4333.68228,N,00128.73167,E,1,05,1.92,136.6,M,53.8,M,,*4A
56 14 34 44 4333.6821300128.73076137.1~ 00128.73076 137.1 1101011011 110111110 11000000001 10000100100 10001111100 100000010100 100000000100 111111111111 111111111111 1101100001 11 1001000111 11 1110111000 100010010100 100101000100 100000011011 11101000111 21.750 41.642 1002.4 157250 18 0 13 59 51 4 $GNGGA,143444.00,4333.68213,N,00128.73076,E,1,05,1.92,137.1,M,53.8,M,,*42
57 14 34 45 4333.6823900128.73122138.0~ 00128.73122 138.0 1101011010 110111101 10111111101 10000011000 10001110110 100000001100 11111111010 111111111111 111111111111 1101100001 11 1001001001 11 1110110110 100010001001 100101000010 100000011111 11101000110 21.750 41.779 1002.4 158251 16 0 15 59 50 4 $GNGGA,143445.00,4333.68239,N,00128.73122,E,1,06,1.84,138.0,M,53.8,M,,*41
58 14 34 46 4333.6823000128.73058138.8~ 00128.73058 138.8 1101011011 110111010 10111111010 10000010111 10001111010 100000001100 11111111110 111111111111 111111111111 1101100001 11 1001001101 11 1110111010 100010001111 100101000100 100000010111 11101001001 21.750 41.810 1002.4 159251 17 0 14 60 50 4 $GNGGA,143446.00,4333.68230,N,00128.73058,E,1,06,1.84,138.8,M,53.8,M,,*4F
