id HH MM SS longitude latitude altitude adc_1_ch0 adc_1_ch1 adc_1_ch2 adc_1_ch3 adc_1_ch4 adc_1_ch5 adc_1_ch6 adc_1_ch7 adc_1_ch8 adc_2_ch0 adc_2_ch1 adc_2_ch2 adc_2_ch3 adc_2_ch4 adc_2_ch5 adc_2_ch6 adc_2_ch7 adc_2_ch8 temp hum pres t_prog t_gps t_split t_adc t_temp t_hum t_pres trame_gga
1 08 24 24 4333.6871200128.74002145.01P2†@Cp.∞3 795.83 00128.74002 145.0 1101010101 1100010101 1100101010 10000001111 10000110111 1011101011 1100110010 1110010100 1011101000 1101011011 1011011010 1100000001 10000100001 10000111011 1100000100 1011111011 1011111100 1011111000 20.063 55.718 795.83 1473 17 357 7 59 51 3 $GNGGA,082424.00,4333.68712,N,00128.74002,E,1,08,1.10,145.0,M,53.8,M,,*4B

2 08 24 25 4333.6872300128.74030145.01`2`@‡CÄ.∞2‡1004.7 00128.74030 145.0 1101010101 1100010110 1100100110 10000001110 10000111000 1011101011 1100101110 1110010110 1011101000 1101011011 1011011000 1011111111 10000100010 10000111010 1100000011 1011111000 1011111111 1011111010 20.125 55.726 1004.7 2473 16 357 7 58 51 3 $GNGGA,082425.00,4333.68723,N,00128.74030,E,1,08,1.10,145.0,M,53.8,M,,*49

3 08 24 26 4333.6874600128.74025144.9102P@–Cp.301004.7 00128.74025 144.9 1101010101 1100010011 1100100101 10000001101 10000110111 1011101111 1100110011 1110100011 1011101010 1101011011 1011010110 1011111110 10000101110 10000111101 1100000110 1011111010 1011111010 1011110101 20.125 55.764 1004.7 3473 17 356 7 59 51 3 $GNGGA,082426.00,4333.68746,N,00128.74025,E,1,09,0.91,144.9,M,53.8,M,,*4C

4 08 24 27 4333.6874300128.74056145.3102p@‡Cp.ê3 00128.74056 145.3 1101010101 1100010011 1100100111 10000001110 10000110111 1011101001 1100110000 1110011010 1011101101 1101011011 1011011101 1100000101 10000101000 10000111100 1100000100 1011111010 1100000011 1011111000 20.125 55.802 1004.7 4473 17 355 7 58 51 3 $GNGGA,082427.00,4333.68743,N,00128.74056,E,1,09,0.91,145.3,M,53.8,M,,*47

5 08 24 28 4333.6875200128.74029145.31@2`@pC`/03 1004.7 00128.74029 145.3 1101010101 1100010100 1100100110 10000000111 10000110110 1011110011 1100110010 1110010111 1011100101 1101011010 1011010111 1011111111 10000101000 10000111100 1100000001 1011111011 1100000001 1011110100 20.063 55.825 1004.7 5473 17 354 7 58 52 3 $GNGGA,082428.00,4333.68752,N,00128.74029,E,1,09,0.91,145.3,M,53.8,M,,*40

6 08 24 29 4333.6875700128.74014145.61 00128.74014 145.6 1101010101 1100010000 1100100100 10000010001 10000111010 1011101110 1100101110 1110010011 1011100010 1101011011 1011010100 1011111100 10000100010 10000111001 1100000000 1011110101 1100000110 1011111101 20.063 55.832 1004.6 6473 16 352 8 59 51 3 $GNGGA,082429.00,4333.68757,N,00128.74014,E,1,09,0.91,145.6,M,53.8,M,,*4F

7 08 24 30 4333.6875400128.74010146.1102`@†Cp.†3∞1004.6 00128.74010 146.1 1101010101 1100010011 1100100110 10000001010 10000110111 1011101010 1100111011 1110011100 1011101010 1101011011 1011011000 1011111111 10000100101 10000111011 1100000100 1011111010 1100001000 1011111011 20.063 55.840 1004.6 7473 16 351 8 58 51 4 $GNGGA,082430.00,4333.68754,N,00128.74010,E,1,09,0.91,146.1,M,53.8,M,,*44

8 08 24 31 4333.6876300128.74019146.3120@ C@.‡3ê1004.6 00128.74019 146.3 1101010101 1100010001 1100100011 10000000010 10000110100 1011101110 1100111001 1110010111 1011100001 1101011011 1011010110 1011111110 10000100101 10000111011 1100000000 1011110111 1100000110 1011111100 20.063 55.855 1004.6 8473 17 350 8 59 51 3 $GNGGA,082431.00,4333.68763,N,00128.74019,E,1,09,0.91,146.3,M,53.8,M,,*4A

9 08 24 32 4333.6876800128.74029146.41 2`@@C`.‡3 1004.6 00128.74029 146.4 1101010101 1100010010 1100100110 10000000100 10000110110 1011101110 1100110010 1110011001 1011100000 1101011011 1011010101 1100000001 10000100101 10000111100 1011111111 1011110100 1100000010 1011110110 20.063 55.878 1004.6 9473 16 348 8 58 51 3 $GNGGA,082432.00,4333.68768,N,00128.74029,E,1,09,0.91,146.4,M,53.8,M,,*46

10 08 24 33 4333.6877700128.74036146.712@pC`/P3p1004.6 00128.74036 146.7 1101010101 1100010001 1100100001 10000000111 10000110110 1011110101 1100110111 1110010111 1011100011 1101011011 1011010111 1100000000 10000100110 10000111011 1100000101 1011111001 1100001000 1011111000 20.063 55.893 1004.6 10473 18 348 7 59 51 3 $GNGGA,082433.00,4333.68777,N,00128.74036,E,1,09,0.91,146.7,M,53.8,M,,*44

11 08 24 34 4333.6877800128.74059147.31 2`@–Cp.‡3p1004.6 00128.74059 147.3 1101010101 1100010010 1100100110 10000001101 10000110111 1011101110 1100110111 1110010110 1011101101 1101011011 1011010110 1011111111 10000100001 10000111011 1011111111 1011111010 1100001010 1011111111 20.063 55.863 1004.6 11473 17 347 8 58 51 3 $GNGGA,082434.00,4333.68778,N,00128.74059,E,1,09,0.91,147.3,M,53.8,M,,*40

12 08 24 35 4333.6877600128.74044147.51P2p@`CP.p2‡1004.6 00128.74044 147.5 1101010101 1100010101 1100100111 10000000110 10000110101 1011100111 1100101110 1110010011 1011100111 1101011011 1011010010 1011111010 10000100100 10000111100 1100000011 1011111100 1100001010 1100000101 20.063 55.825 1004.6 12473 16 347 7 58 52 3 $GNGGA,082435.00,4333.68776,N,00128.74044,E,1,09,0.91,147.5,M,53.8,M,,*45

13 08 24 36 4333.6878300128.74058147.51 20@†CP.Ä31004.6 00128.74058 147.5 1101010101 1100010010 1100100011 10000001010 10000110101 1011101000 1100110001 1110010100 1011100111 1101011011 1011010100 1011111111 10000100101 10000111010 1100000110 1011111000 1100000111 1011111001 20.063 55.848 1004.6 13473 16 346 9 58 51 3 $GNGGA,082436.00,4333.68783,N,00128.74058,E,1,09,0.91,147.5,M,53.8,M,,*41

14 08 24 37 4333.6878200128.74063147.91P2Ä@∞Cê.3Ä1004.7 00128.74063 147.9 1101010101 1100010101 1100101000 10000001011 10000111001 1011101111 1100111000 1110010001 1011100111 1101011011 1011011001 1100000000 10000100100 10000111100 1100001011 1100000000 1100000100 1011110110 20.063 55.848 1004.7 14473 17 346 7 58 52 3 $GNGGA,082437.00,4333.68782,N,00128.74063,E,1,09,0.91,147.9,M,53.8,M,,*45

15 08 24 38 4333.6878400128.74097148.512PA0C†.∞2–1004.6 00128.74097 148.5 1101010101 1100010001 1100100101 10000010011 10000111010 1011101011 1100101101 1110010001 1011100110 1101011011 1011011011 1100000000 10000100100 10000111100 1011111111 1011110110 1100000010 1011111001 20.063 55.840 1004.6 15473 17 345 8 59 51 3 $GNGGA,082438.00,4333.68784,N,00128.74097,E,1,10,0.86,148.5,M,53.8,M,,*4A

16 08 24 39 4333.6877900128.74087148.71@2pA C`/p3`1004.6 00128.74087 148.7 1101010101 1100010100 1100100111 10000010010 10000110110 1011110111 1100110110 1110011100 1011100111 1101011011 1011011001 1011111111 10000100101 10000111011 1100000101 1011111110 1100000001 1011110110 20.063 55.840 1004.6 16473 16 343 7 58 51 3 $GNGGA,082439.00,4333.68779,N,00128.74087,E,1,10,0.86,148.7,M,53.8,M,,*4A

17 08 24 40 4333.6878500128.74118149.21P2p@¿CP.ê31004.6 00128.74118 149.2 1101010101 1100010101 1100100111 10000001100 10000110101 1011101001 1100110001 1110010100 1011100010 1101011011 1011011000 1011111101 10000101010 10000111101 1100000010 1011111001 1011111010 1011110101 20.063 55.855 1004.6 17473 17 342 8 59 51 3 $GNGGA,082440.00,4333.68785,N,00128.74118,E,1,10,0.86,149.2,M,53.8,M,,*44

18 08 24 41 4333.6878500128.74118149.41 2ê@∞C`.Ä21004.6 00128.74118 149.4 1101010101 1100010010 1100101001 10000001011 10000110110 1011101000 1100101111 1110010011 1011011110 1101011011 1011011001 1100000000 10000100011 10000111101 1100000110 1011111011 1100000010 1100000001 20.063 55.855 1004.6 18473 17 342 8 58 51 3 $GNGGA,082441.00,4333.68785,N,00128.74118,E,1,10,0.86,149.4,M,53.8,M,,*43

19 08 24 42 4333.6878100128.74128149.31 2`@¿C†.‡2‡1004.6 00128.74128 149.3 1101010101 1100010010 1100100110 10000001100 10000111010 1011101110 1100101110 1110011000 1011100010 1101011011 1011010110 1011111110 10000100011 10000111011 1100000000 1011110110 1100000111 1100000000 20.063 55.863 1004.6 19473 16 342 7 59 51 3 $GNGGA,082442.00,4333.68781,N,00128.74128,E,1,10,0.86,149.3,M,53.8,M,,*40

20 08 24 43 4333.6877800128.74118149.21P2`@CÄ.∞2‡1004.6 00128.74118 149.2 1101010110 1100010101 1100100110 10000001111 10000111000 1011101011 1100101110 1110010010 1011100101 1101011011 1011010110 1100000001 10000100011 10000111011 1100000000 1011110111 1100000000 1011111010 20.063 55.855 1004.6 20473 17 340 7 58 51 3 $GNGGA,082443.00,4333.68778,N,00128.74118,E,1,10,0.86,149.2,M,53.8,M,,*45

21 08 24 44 4333.6877600128.74125149.3102êAPC¿.∞3 00128.74125 149.3 1101010101 1100010011 1100101001 10000010101 10000111100 1011101011 1100110000 1110010101 1011100110 1101011011 1011010101 1100000001 10000100110 10000111101 1100000111 1011111100 1011111111 1011111010 20.063 55.855 1004.6 21473 16 340 7 58 52 3 $GNGGA,082444.00,4333.68776,N,00128.74125,E,1,10,0.86,149.3,M,53.8,M,,*43

22 08 24 45 4333.6876700128.74139149.41P2†A0Cê.¿3 00128.74139 149.4 1101010101 1100010101 1100101010 10000010011 10000111001 1011101100 1100110000 1110001101 1011100001 1101011011 1011010111 1100000010 10000100011 10000111011 1100000100 1011111011 1100000100 1011111011 20.063 55.863 1004.6 22473 17 338 8 59 51 3 $GNGGA,082445.00,4333.68767,N,00128.74139,E,1,09,1.04,149.4,M,53.8,M,,*4B

23 08 24 46 4333.6876500128.74130149.61 2†A C`.‡2‡1004.6 00128.74130 149.6 1101010101 1100010010 1100101010 10000010010 10000110110 1011101110 1100101110 1110001101 1011011011 1101011011 1011010111 1011111110 10000100100 10000111010 1100000011 1011111110 1100000100 1011111101 20.063 55.855 1004.6 23473 16 337 8 58 51 4 $GNGGA,082446.00,4333.68765,N,00128.74130,E,1,10,0.86,149.6,M,53.8,M,,*42

24 08 24 47 4333.6876200128.74130149.612PA C`/ 00128.74130 149.6 1101010110 1100010001 1100100101 10000010010 10000110110 1011110000 1100110111 1110010100 1011100100 1101011011 1011011000 1100000001 10000100101 10000111100 1011111111 1011111011 1011111111 1011111101 20.000 55.825 1004.6 24473 16 338 7 59 51 3 $GNGGA,082447.00,4333.68762,N,00128.74130,E,1,10,0.86,149.6,M,53.8,M,,*44

25 08 24 48 4333.6875700128.74137150.0102P@CÄ.Ä2‡1004.6 00128.74137 150.0 1101010101 1100010011 1100100101 10000001111 10000111000 1011101000 1100101110 1110010000 1011100111 1101011011 1011010111 1100000010 10000100000 10000111100 1100000010 1011110111 1100000110 1011111001 20.063 55.787 1004.6 25473 17 337 7 58 51 3 $GNGGA,082448.00,4333.68757,N,00128.74137,E,1,10,0.86,150.0,M,53.8,M,,*44

26 08 24 49 4333.6875200128.74126150.41 2@@ÄCP/3@1004.6 00128.74126 150.4 1101010101 1100010010 1100100100 10000001000 10000110101 1011110001 1100110100 1110010001 1011101000 1101011011 1011010110 1011111110 10000100010 10000111011 1100000000 1011110111 1100000100 1011111011 20.063 55.741 1004.6 26473 16 335 7 59 51 3 $GNGGA,082449.00,4333.68752,N,00128.74126,E,1,10,0.86,150.4,M,53.8,M,,*44

27 08 24 50 4333.6875000128.74120150.312@@pCP.ê301004.6 00128.74120 150.3 1101010101 1100010001 1100100100 10000000111 10000110101 1011101001 1100110011 1110010000 1011100010 1101011011 1011010111 1100000000 10000100100 10000111011 1011111111 1011110111 1100000001 1011111100 20.063 55.726 1004.6 27473 17 330 8 58 51 3 $GNGGA,082450.00,4333.68750,N,00128.74120,E,1,10,0.86,150.3,M,53.8,M,,*4F

28 08 24 51 4333.6874000128.74118150.7102P@†C@.‡3P1004.6 00128.74118 150.7 1101010101 1100010011 1100100101 10000001010 10000110100 1011101110 1100110101 1110010100 1011101001 1101011011 1011011000 1011111110 10000100101 10000111010 1100000101 1011111100 1100000000 1011111001 20.063 55.726 1004.6 28473 17 334 7 58 52 3 $GNGGA,082451.00,4333.68740,N,00128.74118,E,1,10,0.86,150.7,M,53.8,M,,*40

29 08 24 52 4333.6873500128.74104151.01 20@–C`.–301004.6 00128.74104 151.0 1101010101 1100010010 1100100011 10000001101 10000110110 1011101101 1100110011 1110010011 1011100100 1101011011 1011011000 1100000001 10000100000 10000111010 1100000000 1011110110 1100000110 1011111100 20.063 55.710 1004.6 29473 17 333 7 58 51 3 $GNGGA,082452.00,4333.68735,N,00128.74104,E,1,10,0.86,151.0,M,53.8,M,,*4A

30 08 24 53 4333.6873100128.74107151.1102p@pC@.3@1004.6 00128.74107 151.1 1101010101 1100010011 1100100111 10000000111 10000110100 1011101111 1100110100 1110011000 1011100101 1101011011 1011010101 1100000000 10000100001 10000111011 1100000101 1011111010 1011111010 1011110100 20.000 55.687 1004.6 30473 16 331 9 58 52 3 $GNGGA,082453.00,4333.68731,N,00128.74107,E,1,10,0.86,151.1,M,53.8,M,,*4D

31 08 24 54 4333.6872000128.74092151.41 2ÄA 00128.74092 151.4 1101010101 1100010010 1100101000 10000010000 10000111001 1011101101 1100110010 1110010111 1011100101 1101011011 1011011000 1011111111 10000011111 10000111010 1011111111 1011111001 1100000000 1011111010 20.000 55.657 1004.6 31473 16 330 7 59 51 3 $GNGGA,082454.00,4333.68720,N,00128.74092,E,1,10,0.86,151.4,M,53.8,M,,*42

32 08 24 55 4333.6871500128.74048151.60‡2@A Cp.Ä2‡1004.6 00128.74048 151.6 1101010101 1100001110 1100100100 10000010010 10000110111 1011101000 1100101110 1110010111 1011100011 1101011011 1011010111 1100000001 10000011111 10000111100 1100000110 1011111011 1100000100 1011111000 20.000 55.611 1004.6 32473 18 330 7 58 51 3 $GNGGA,082455.00,4333.68715,N,00128.74048,E,1,10,0.86,151.6,M,53.8,M,,*40

33 08 24 56 4333.6871600128.74028151.4102P@∞C`.–21004.6 00128.74028 151.4 1101010101 1100010011 1100100101 10000001011 10000110110 1011101101 1100101111 1110010011 1011100000 1101011011 1011010010 1011111101 10000011111 10000111011 1100000111 1011111100 1011111000 1011110011 20.063 55.550 1004.6 33473 17 329 7 59 51 3 $GNGGA,082456.00,4333.68716,N,00128.74028,E,1,10,0.86,151.4,M,53.8,M,,*44

34 08 24 57 4333.6871800128.74010151.61P2P@¿C`.¿3p1004.6 00128.74010 151.6 1101010101 1100010101 1100100101 10000001100 10000110110 1011101100 1100110111 1110011000 1011100101 1101011011 1011011010 1100000000 10000100100 10000111100 1011111111 1011111001 1100000110 1011111100 20.000 55.497 1004.6 34473 17 328 7 58 51 3 $GNGGA,082457.00,4333.68718,N,00128.74010,E,1,10,0.86,151.6,M,53.8,M,,*42

35 08 24 58 4333.6871600128.73997151.61 2`@¿C`.∞2‡1004.6 00128.73997 151.6 1101010101 1100010010 1100100110 10000001100 10000110110 1011101011 1100101110 1110011011 1011100110 1101011011 1011010111 1011111111 10000011110 10000111100 1100000011 1011111001 1011111111 1011111011 20.000 55.466 1004.6 35473 16 326 8 59 51 3 $GNGGA,082458.00,4333.68716,N,00128.73997,E,1,10,0.86,151.6,M,53.8,M,,*42

36 08 24 59 4333.6871000128.73977151.91@2p@@CP.ê3 00128.73977 151.9 1101010110 1100010100 1100100111 10000000100 10000110101 1011101001 1100110000 1110010110 1011100110 1101011011 1011011100 1011111111 10000100101 10000111011 1011111101 1011110110 1011111100 1011111101 20.000 55.443 1004.6 36473 17 325 7 58 51 3 $GNGGA,082459.00,4333.68710,N,00128.73977,E,1,10,0.86,151.9,M,53.8,M,,*44

37 08 25 00 4333.6869700128.73970151.81@2Ä@–Cê.–21004.6 00128.73970 151.8 1101010101 1100010100 1100101000 10000001101 10000111001 1011101101 1100101111 1110011101 1011101101 1101011011 1011010110 1100000000 10000100010 10000111100 1100000001 1011111000 1100000001 1011111011 20.000 55.428 1004.6 37473 17 325 7 58 52 3 $GNGGA,082500.00,4333.68697,N,00128.73970,E,1,10,0.86,151.8,M,53.8,M,,*41

38 08 25 01 4333.6869200128.73969151.81P2†@êCÄ.†2‡1004.6 00128.73969 151.8 1101010101 1100010101 1100101010 10000001001 10000111000 1011101010 1100101110 1110011001 1011100101 1101011011 1011011001 1100000001 10000100110 10000111010 1100000011 1011111100 1011111100 1011110110 20.000 55.436 1004.6 38473 16 323 8 59 51 3 $GNGGA,082501.00,4333.68692,N,00128.73969,E,1,10,0.86,151.8,M,53.8,M,,*4D

39 08 25 02 4333.6869300128.73962151.91P2@@–CÄ.3Ä1004.6 00128.73962 151.9 1101010101 1100010101 1100100100 10000001101 10000111000 1011101111 1100111000 1110010110 1011101010 1101011011 1011010110 1100000000 10000011101 10000111000 1011111111 1011110111 1011111111 1011111000 20.000 55.436 1004.6 39473 17 323 8 58 51 4 $GNGGA,082502.00,4333.68693,N,00128.73962,E,1,10,0.86,151.9,M,53.8,M,,*45

40 08 25 03 4333.6868900128.73940152.11 2`@`C@.†3P1004.6 00128.73940 152.1 1101010101 1100010010 1100100110 10000000110 10000110100 1011101010 1100110101 1110010100 1011100101 1101011011 1011010101 1011111110 10000011100 10000111000 1011111110 1011110101 1100001001 1011111111 20.000 55.520 1004.6 40473 16 323 8 59 51 3 $GNGGA,082503.00,4333.68689,N,00128.73940,E,1,10,0.86,152.1,M,53.8,M,,*44

41 08 25 04 4333.6868600128.73922152.31P2`@¿CP.301004.6 00128.73922 152.3 1101010101 1100010101 1100100110 10000001100 10000110101 1011101111 1100110011 1110011111 1011101000 1101011011 1011011000 1100000000 10000100011 10000111011 1100000000 1011110110 1011111111 1011111000 20.000 55.573 1004.6 41473 17 323 7 58 51 3 $GNGGA,082504.00,4333.68686,N,00128.73922,E,1,10,0.86,152.3,M,53.8,M,,*4A

42 08 25 05 4333.6868200128.73898152.7102`A0CÄ.–3 00128.73898 152.7 1101010101 1100010011 1100100110 10000010011 10000111000 1011101101 1100110000 1110011011 1011101100 1101011011 1011010011 1011111111 10000100110 10000111100 1100001001 1100000001 1100000000 1011111001 20.000 55.573 1004.6 42473 17 319 8 59 51 3 $GNGGA,082505.00,4333.68682,N,00128.73898,E,1,09,0.97,152.7,M,53.8,M,,*43

43 08 25 06 4333.6867800128.73880153.01P2p@`CP.∞21004.6 00128.73880 153.0 1101010101 1100010101 1100100111 10000000110 10000110101 1011101011 1100101111 1110010111 1011101101 1101011011 1011010101 1011111110 10000100100 10000111011 1100000010 1011110111 1011111101 1011111000 20.000 55.619 1004.6 43473 16 319 7 58 51 3 $GNGGA,082506.00,4333.68678,N,00128.73880,E,1,09,0.97,153.0,M,53.8,M,,*4A

44 08 25 07 4333.6868200128.73830153.3102`@‡CÄ.3@1004.6 00128.73830 153.3 1101010101 1100010011 1100100110 10000001110 10000111000 1011101111 1100110100 1110001111 1011101000 1101011011 1011010110 1011111110 10000101100 10000111110 1100000011 1011111011 1100000011 1011111010 20.000 55.619 1004.6 44473 17 317 8 58 52 3 $GNGGA,082507.00,4333.68682,N,00128.73830,E,1,09,0.97,153.3,M,53.8,M,,*46

45 08 25 08 4333.6867800128.73824153.81 2PA Cê/ 00128.73824 153.8 1101010101 1100010010 1100100101 10000010010 10000111001 1011110000 1100110000 1110010000 1011100010 1101011011 1011011011 1100000000 10000101100 10000111011 1100000110 1011111001 1100000100 1011111111 20.000 55.626 1004.6 45473 16 314 7 58 51 3 $GNGGA,082508.00,4333.68678,N,00128.73824,E,1,09,0.97,153.8,M,53.8,M,,*42

46 08 25 09 4333.6867500128.73840154.2102p@–Cp/ 00128.73840 154.2 1101010101 1100010011 1100100111 10000001101 10000110111 1011110000 1100110100 1110011101 1011101101 1101011010 1011010111 1100000001 10000100101 10000111010 1100000000 1011111001 1100000000 1011111100 20.000 55.611 1004.6 46473 17 317 7 58 52 3 $GNGGA,082509.00,4333.68675,N,00128.73840,E,1,10,0.86,154.2,M,53.8,M,,*49

47 08 25 10 4333.6868000128.73832154.61P2`A C`.3 1004.6 00128.73832 154.6 1101010101 1100010101 1100100110 10000010010 10000110110 1011101111 1100110010 1110011111 1011110010 1101011011 1011011001 1100000000 10000100010 10000111010 1100000101 1011111011 1100000110 1011111100 20.000 55.611 1004.6 47473 16 315 8 59 51 3 $GNGGA,082510.00,4333.68680,N,00128.73832,E,1,10,0.86,154.6,M,53.8,M,,*4A

48 08 25 11 4333.6868800128.73827154.9102PAC†.–3@1004.6 00128.73827 154.9 1101010101 1100010011 1100100101 10000010001 10000111010 1011101101 1100110100 1110011101 1011101001 1101011011 1011010111 1011111110 10000100011 10000111010 1011111010 1011111000 1100000100 1011110111 20.000 55.703 1004.6 48473 17 315 7 58 51 3 $GNGGA,082511.00,4333.68688,N,00128.73827,E,1,10,0.86,154.9,M,53.8,M,,*48

49 08 25 12 4333.6869100128.73825155.31@2ê@‡CÄ.–3 1004.6 00128.73825 155.3 1101010101 1100010100 1100101001 10000001110 10000111000 1011101101 1100110010 1110010101 1011100101 1101011011 1011011010 1100000010 10000011111 10000111010 1100000001 1011110110 1011111110 1011110101 20.000 55.779 1004.6 49473 17 311 7 59 51 3 $GNGGA,082512.00,4333.68691,N,00128.73825,E,1,10,0.86,155.3,M,53.8,M,,*4A

50 08 25 13 4333.6868400128.73800155.91 2`APCÄ.p2¿1004.6 00128.73800 155.9 1101010101 1100010010 1100100110 10000010101 10000111000 1011100111 1100101100 1110010110 1011100101 1101011011 1011011001 1100000001 10000100101 10000111010 1100000010 1011110111 1100000011 1011111101 20.000 55.840 1004.6 50473 17 313 7 58 51 3 $GNGGA,082513.00,4333.68684,N,00128.73800,E,1,10,0.86,155.9,M,53.8,M,,*42

51 08 25 14 4333.6868300128.73770156.3102ÄACÄ.3 1004.6 00128.73770 156.3 1101010101 1100010011 1100101000 10000010001 10000111000 1011101111 1100110010 1110001110 1011100100 1101011011 1011010100 1011111010 10000100010 10000111011 1100000101 1011111111 1011111100 1011110101 20.000 55.901 1004.6 51473 17 312 7 59 51 3 $GNGGA,082514.00,4333.68683,N,00128.73770,E,1,10,0.86,156.3,M,53.8,M,,*43

52 08 25 15 4333.6868900128.73771156.71@2ÄAC`/ 00128.73771 156.7 1101010101 1100010100 1100101000 10000010001 10000110110 1011110000 1100110010 1110010010 1011101001 1101011011 1011010100 1100000001 10000100001 10000111010 1100000011 1011111101 1100000000 1011110110 20.000 55.932 1004.6 52473 16 312 7 58 51 3 $GNGGA,082515.00,4333.68689,N,00128.73771,E,1,10,0.86,156.7,M,53.8,M,,*4D

53 08 25 16 4333.6869300128.73777157.01 2PA`C¿.†21004.6 00128.73777 157.0 1101010101 1100010010 1100100101 10000010110 10000111100 1011101010 1100101111 1110011010 1011101110 1101011010 1011010110 1011111111 10000100000 10000111010 1100000000 1011111001 1011111111 1011110001 20.000 55.954 1004.6 53473 16 309 7 58 52 3 $GNGGA,082516.00,4333.68693,N,00128.73777,E,1,10,0.86,157.0,M,53.8,M,,*45

54 08 25 17 4333.6870000128.73764157.21P2Ä@–Cp.3@1004.6 00128.73764 157.2 1101010101 1100010101 1100101000 10000001101 10000110111 1011101111 1100110100 1110010001 1011100111 1101011011 1011010101 1011111111 10000101001 10000111100 1011111110 1011110110 1100000100 1011111000 20.000 55.954 1004.6 54473 16 308 8 59 51 3 $GNGGA,082517.00,4333.68700,N,00128.73764,E,1,09,0.89,157.2,M,53.8,M,,*48

55 08 25 18 4333.6869700128.73772157.31P2p@C.¿3 1004.6 00128.73772 157.3 1101010101 1100010101 1100100111 10000000001 10000110001 1011101100 1100110010 1110010010 1011100111 1101011011 1011010111 1011111111 10000101010 10000111011 1100000010 1011110100 1100001000 1100000111 20.000 55.977 1004.6 55473 16 308 7 58 51 4 $GNGGA,082518.00,4333.68697,N,00128.73772,E,1,09,0.89,157.3,M,53.8,M,,*4E

56 08 25 19 4333.6869600128.73763157.3102P@C`/3@1004.6 00128.73763 157.3 1101010101 1100010011 1100100101 10000001111 10000110110 1011110001 1100110100 1110010001 1011100001 1101011011 1011011000 1100000001 10000101011 10000111011 1100000001 1011110110 1100000100 1011111100 20.000 55.954 1004.6 56473 18 304 7 59 51 3 $GNGGA,082519.00,4333.68696,N,00128.73763,E,1,09,0.89,157.3,M,53.8,M,,*4E

57 08 25 20 4333.6870500128.73798157.512Ä@†C`/ 00128.73798 157.5 1101010101 1100010001 1100101000 10000001010 10000110110 1011110000 1100111001 1110010011 1011100101 1101011011 1011010110 1011111110 10000100111 10000111011 1100000010 1011111011 1100000010 1011111111 20.000 55.916 1004.6 57473 16 307 8 58 51 3 $GNGGA,082520.00,4333.68705,N,00128.73798,E,1,09,0.89,157.5,M,53.8,M,,*4D

58 08 25 21 4333.6871400128.73802157.712`@C†.–3Ä1004.6 00128.73802 157.7 1101010101 1100010001 1100100110 10000001111 10000111010 1011101101 1100111000 1110010101 1011100110 1101011011 1011011000 1011111111 10000100010 10000111001 1100000010 1011111001 1100000000 1011111001 20.000 55.871 1004.6 58473 17 304 8 59 51 3 $GNGGA,082521.00,4333.68714,N,00128.73802,E,1,10,0.86,157.7,M,53.8,M,,*45

59 08 25 22 4333.6872600128.73836157.71 00128.73836 157.7 1101010101 1100010000 1100100100 10000001101 10000111001 1011110001 1100110101 1110011010 1011100100 1101011011 1011010100 1011111101 10000100001 10000111011 1100000101 1011111001 1100000001 1011111000 20.000 55.855 1004.6 59473 16 303 8 58 51 3 $GNGGA,082522.00,4333.68726,N,00128.73836,E,1,09,0.89,157.7,M,53.8,M,,*47

60 08 25 23 4333.6873400128.73860157.71`2p@êCp/ 00128.73860 157.7 1101010101 1100010110 1100100111 10000001001 10000110111 1011110000 1100110011 1110010011 1011100110 1101011011 1011010101 1100000000 10000101010 10000111011 1100000011 1011111010 1011110111 1011110100 20.000 55.840 1004.6 60473 16 304 7 58 52 3 $GNGGA,082523.00,4333.68734,N,00128.73860,E,1,09,0.89,157.7,M,53.8,M,,*46

61 08 25 24 4333.6871900128.73862158.01 2Ä@ÄCp.Ä3 00128.73862 158.0 1101010101 1100010010 1100101000 10000001000 10000110111 1011101000 1100110000 1110001110 1011101010 1101011011 1011010111 1100000001 10000101011 10000111011 1100000010 1100000000 1011111110 1011111010 20.000 55.802 1004.6 61473 18 302 7 58 51 3 $GNGGA,082524.00,4333.68719,N,00128.73862,E,1,09,0.89,158.0,M,53.8,M,,*44

62 08 25 25 4333.6873300128.73876158.312P@ÄC .p2–1004.6 00128.73876 158.3 1101010101 1100010001 1100100101 10000001000 10000110010 1011100111 1100101101 1110001100 1011100110 1101011011 1011011010 1100000000 10000100100 10000111000 1100000100 1011111101 1011111111 1011110100 20.000 55.810 1004.6 62473 17 301 7 58 52 3 $GNGGA,082525.00,4333.68733,N,00128.73876,E,1,09,0.89,158.3,M,53.8,M,,*4B

63 08 25 26 4333.6872600128.73856158.6102`@êC`/3@1004.6 00128.73856 158.6 1101010101 1100010011 1100100110 10000001001 10000110110 1011110001 1100110100 1110010100 1011101011 1101011011 1011010101 1100000010 10000100001 10000111010 1100000100 1011111010 1100000010 1011111001 20.000 55.832 1004.6 63473 17 300 7 59 51 3 $GNGGA,082526.00,4333.68726,N,00128.73856,E,1,09,0.89,158.6,M,53.8,M,,*4B

64 08 25 27 4333.6873500128.73873159.11@2Ä@∞C@.‡3p1004.6 00128.73873 159.1 1101010101 1100010100 1100101000 10000001011 10000110100 1011101110 1100110111 1110011011 1011100100 1101011011 1011010110 1100000001 10000100001 10000111011 1011111111 1011110111 1011111100 1011110100 20.000 55.840 1004.6 64473 16 300 7 58 51 3 $GNGGA,082527.00,4333.68735,N,00128.73873,E,1,09,0.97,159.1,M,53.8,M,,*46

65 08 25 28 4333.6874900128.73861159.51@2p@–Cp.ê3 1004.6 00128.73861 159.5 1101010101 1100010100 1100100111 10000001101 10000110111 1011101001 1100110010 1110010101 1011100001 1101011011 1011010111 1011111111 10000100111 10000111010 1100000101 1011111000 1011111111 1011111011 20.000 55.825 1004.6 65473 16 298 7 59 51 3 $GNGGA,082528.00,4333.68749,N,00128.73861,E,1,09,0.97,159.5,M,53.8,M,,*45

66 08 25 29 4333.6875300128.73854159.7102p@Cp.ê3 1004.6 00128.73854 159.7 1101010101 1100010011 1100100111 10000001111 10000110111 1011101001 1100110010 1110010111 1011100000 1101011011 1011011100 1100000000 10000100011 10000111100 1100000000 1011111010 1011111011 1011111100 19.938 55.825 1004.6 66473 16 298 8 58 51 3 $GNGGA,082529.00,4333.68753,N,00128.73854,E,1,09,0.97,159.7,M,53.8,M,,*4B

67 08 25 30 4333.6875500128.73838159.81 00128.73838 159.8 1101010101 1100010000 1100100010 10000001011 10000110110 1011101101 1100101101 1110010111 1011110000 1101011011 1011011101 1100000011 10000100011 10000111011 1100000011 1011111100 1100000010 1011111011 20.000 55.825 1004.6 67473 17 295 7 59 51 3 $GNGGA,082530.00,4333.68755,N,00128.73838,E,1,09,0.89,159.8,M,53.8,M,,*4F

68 08 25 31 4333.6874500128.73802159.71@2P@†CÄ/3P1004.6 00128.73802 159.7 1101010101 1100010100 1100100101 10000001010 10000111000 1011110001 1100110101 1110010011 1011100110 1101011011 1011010111 1011111110 10000100010 10000111100 1100000011 1011110110 1011111100 1011110111 19.938 55.810 1004.6 68473 18 294 7 58 51 3 $GNGGA,082531.00,4333.68745,N,00128.73802,E,1,08,1.00,159.7,M,53.8,M,,*48

69 08 25 32 4333.6874700128.73776159.91P2p@‡C`.‡301004.6 00128.73776 159.9 1101010101 1100010101 1100100111 10000001110 10000110110 1011101110 1100110011 1110011000 1011100110 1101011011 1011010101 1011111111 10000100001 10000111010 1011111111 1011111001 1100001000 1011110111 20.000 55.779 1004.6 69473 16 293 8 58 52 3 $GNGGA,082532.00,4333.68747,N,00128.73776,E,1,08,1.00,159.9,M,53.8,M,,*4B

70 08 25 33 4333.6874100128.73723160.11P2p@–C@.¿31004.6 00128.73723 160.1 1101010101 1100010101 1100100111 10000001101 10000110100 1011101100 1100110001 1110011010 1011100111 1101011011 1011011001 1100000001 10000100001 10000111010 1100000110 1100000000 1011111110 1011111001 19.938 55.787 1004.6 70473 17 290 8 59 51 3 $GNGGA,082533.00,4333.68741,N,00128.73723,E,1,08,1.00,160.1,M,53.8,M,,*4E

71 08 25 34 4333.6873900128.73697160.3102p@ÄC`.–21004.6 00128.73697 160.3 1101010101 1100010011 1100100111 10000001000 10000110110 1011101101 1100101111 1110011010 1011100111 1101011011 1011010110 1011111100 10000100111 10000111011 1100000001 1011110111 1100000011 1100000100 20.000 55.810 1004.6 71473 16 289 8 58 51 4 $GNGGA,082534.00,4333.68739,N,00128.73697,E,1,08,1.00,160.3,M,53.8,M,,*4A

72 08 25 35 4333.6873900128.73678160.7102`A 00128.73678 160.7 1101010101 1100010011 1100100110 10000010000 10000110111 1011101100 1100110010 1110011011 1011101010 1101011011 1011011000 1100000001 10000011110 10000111001 1011111101 1011110100 1100000000 1011111011 20.000 55.817 1004.6 72473 16 291 8 59 51 3 $GNGGA,082535.00,4333.68739,N,00128.73678,E,1,08,1.00,160.7,M,53.8,M,,*4E

73 08 25 36 4333.6876100128.73713160.9102p@∞CÄ.¿3@1004.6 00128.73713 160.9 1101010101 1100010011 1100100111 10000001011 10000111000 1011101100 1100110100 1110011101 1011101001 1101011011 1011011011 1100000010 10000011111 10000111001 1011111110 1011111001 1100000101 1100000010 20.000 55.855 1004.6 73473 17 291 8 58 51 3 $GNGGA,082536.00,4333.68761,N,00128.73713,E,1,10,0.86,160.9,M,53.8,M,,*44

74 08 25 37 4333.6876600128.73704161.11 2†@∞Cp/ 00128.73704 161.1 1101010101 1100010010 1100101010 10000001011 10000110111 1011110000 1100110101 1110011110 1011101011 1101011011 1011010110 1011111111 10000100010 10000111011 1100000100 1011111011 1100000000 1011110010 20.000 55.932 1004.6 74473 16 289 8 59 51 3 $GNGGA,082537.00,4333.68766,N,00128.73704,E,1,08,1.00,161.1,M,53.8,M,,*4B

75 08 25 38 4333.6878000128.73752161.31P2Ä@∞Cp.†301004.6 00128.73752 161.3 1101010101 1100010101 1100101000 10000001011 10000110111 1011101010 1100110011 1110010111 1011100011 1101011011 1011011001 1100000010 10000100000 10000111010 1100000100 1011111011 1011111111 1011111101 19.938 55.985 1004.6 75473 17 288 7 58 51 3 $GNGGA,082538.00,4333.68780,N,00128.73752,E,1,08,1.00,161.3,M,53.8,M,,*4D

76 08 25 39 4333.6878200128.73768161.5102p@ÄC`.¿3 1004.6 00128.73768 161.5 1101010101 1100010011 1100100111 10000001000 10000110110 1011101100 1100110010 1110010010 1011100011 1101011011 1011011000 1100000000 10000100111 10000111101 1011111111 1011110111 1100000110 1011111110 20.000 56.008 1004.6 76473 17 286 8 58 52 3 $GNGGA,082539.00,4333.68782,N,00128.73768,E,1,08,1.00,161.5,M,53.8,M,,*41

77 08 25 40 4333.6877500128.73757161.71 2pA 00128.73757 161.7 1101010110 1100010010 1100100111 10000010000 10000111000 1011101100 1100110011 1110010011 1011100010 1101011011 1011010101 1011111111 10000100111 10000111100 1100001000 1100000000 1011111001 1011110101 20.000 55.977 1004.6 77473 16 286 8 58 51 3 $GNGGA,082540.00,4333.68775,N,00128.73757,E,1,08,1.00,161.7,M,53.8,M,,*49

78 08 25 41 4333.6877600128.73751162.01@2ÄA0C`.∞3 1004.6 00128.73751 162.0 1101010110 1100010100 1100101000 10000010011 10000110110 1011101011 1100110010 1110010100 1011100011 1101011011 1011011000 1100000001 10000100101 10000111011 1100000000 1011110111 1011111111 1011110100 20.000 55.947 1004.6 78473 18 282 7 58 52 3 $GNGGA,082541.00,4333.68776,N,00128.73751,E,1,08,1.00,162.0,M,53.8,M,,*49

79 08 25 42 4333.6878400128.73766162.21 2P@‡CÄ.–3`1004.6 00128.73766 162.2 1101010101 1100010010 1100100101 10000001110 10000111000 1011101101 1100110110 1110010110 1011100001 1101011011 1011010110 1100000000 10000100000 10000111010 1100000101 1011111010 1100000100 1011111111 20.000 55.932 1004.6 79473 17 285 7 59 51 3 $GNGGA,082542.00,4333.68784,N,00128.73766,E,1,08,1.00,162.2,M,53.8,M,,*41

80 08 25 43 4333.6878700128.73785162.31p2†A0C–.`21004.6 00128.73785 162.3 1101010101 1100010111 1100101010 10000010011 10000111101 1011100110 1100101111 1110010010 1011100011 1101011011 1011011000 1011111111 10000100011 10000111001 1100000100 1011111100 1011111111 1011111001 19.938 55.932 1004.6 80473 18 284 7 58 51 3 $GNGGA,082543.00,4333.68787,N,00128.73785,E,1,08,1.00,162.3,M,53.8,M,,*4F

81 08 25 44 4333.6878600128.73755162.21@2p@∞C`/ 00128.73755 162.2 1101010101 1100010100 1100100111 10000001011 10000110110 1011110000 1100110000 1110010010 1011100100 1101011011 1011011001 1100000001 10000100110 10000111010 1100000011 1011111001 1100000001 1011111001 20.000 55.939 1004.6 81473 16 283 8 59 51 3 $GNGGA,082544.00,4333.68786,N,00128.73755,E,1,08,1.00,162.2,M,53.8,M,,*45

82 08 25 45 4333.6877200128.73713162.31P2Ä@∞Cp.ê2ê1004.6 00128.73713 162.3 1101010101 1100010101 1100101000 10000001011 10000110111 1011101001 1100101001 1110010000 1011100011 1101011011 1011010110 1011111110 10000100000 10000111010 1100000010 1011111101 1100000001 1011111010 19.938 55.916 1004.6 82473 16 279 7 58 51 3 $GNGGA,082545.00,4333.68772,N,00128.73713,E,1,08,1.00,162.3,M,53.8,M,,*4C

83 08 25 46 4333.6877000128.73686162.41 2P@‡CÄ.¿3P1004.6 00128.73686 162.4 1101010101 1100010010 1100100101 10000001110 10000111000 1011101100 1100110101 1110010101 1011100011 1101011011 1011011000 1100000000 10000100100 10000111101 1100000101 1011111101 1011111111 1011110110 20.000 55.939 1004.6 83473 16 281 8 59 51 3 $GNGGA,082546.00,4333.68770,N,00128.73686,E,1,08,1.00,162.4,M,53.8,M,,*47

84 08 25 47 4333.6876300128.73685162.61`2Ä@CÄ.–3 1004.6 00128.73685 162.6 1101010101 1100010110 1100101000 10000001111 10000111000 1011101101 1100110010 1110011100 1011101010 1101011011 1011011011 1100000000 10000101000 10000111100 1100000101 1011111101 1100000010 1011110010 19.938 55.977 1004.6 84473 17 280 7 58 51 3 $GNGGA,082547.00,4333.68763,N,00128.73685,E,1,08,1.00,162.6,M,53.8,M,,*45

85 08 25 48 4333.6875800128.73674162.71@2@@Cp.3@1004.6 00128.73674 162.7 1101010101 1100010100 1100100100 10000001111 10000110111 1011101111 1100110100 1110010000 1011101000 1101011011 1011010100 1011111111 10000011111 10000111010 1011111111 1011111000 1011111001 1011111001 20.000 55.993 1004.6 85473 18 274 7 58 52 3 $GNGGA,082548.00,4333.68758,N,00128.73674,E,1,08,1.00,162.7,M,53.8,M,,*4D

86 08 25 49 4333.6876100128.73666162.81 2P@–CÄ.–21004.6 00128.73666 162.8 1101010101 1100010010 1100100101 10000001101 10000111000 1011101101 1100101111 1110010010 1011100100 1101011011 1011010110 1011111110 10000100110 10000111011 1100000001 1011111100 1011111010 1011111001 20.000 55.954 1004.6 86473 16 275 8 59 51 3 $GNGGA,082549.00,4333.68761,N,00128.73666,E,1,08,1.00,162.8,M,53.8,M,,*4A

87 08 25 50 4333.6878000128.73717163.012p@êC0.∞2‡1004.6 00128.73717 163.0 1101010101 1100010001 1100100111 10000001001 10000110011 1011101011 1100101110 1110010011 1011101100 1101011011 1011011000 1100000010 10000100101 10000111011 1011111100 1011110111 1011111001 1011110011 20.000 55.939 1004.6 87473 17 276 8 58 51 4 $GNGGA,082550.00,4333.68780,N,00128.73717,E,1,08,1.00,163.0,M,53.8,M,,*43

88 08 25 51 4333.6878300128.73723163.0102@@CP.p2†1004.6 00128.73723 163.0 1101010101 1100010011 1100100100 10000001111 10000110101 1011100111 1100101010 1110010100 1011101000 1101011011 1011011011 1100000001 10000101010 10000111101 1100000010 1011111001 1011111001 1011111000 19.938 55.970 1004.6 88473 17 275 8 59 51 3 $GNGGA,082551.00,4333.68783,N,00128.73723,E,1,08,1.00,163.0,M,53.8,M,,*46

89 08 25 52 4333.6877700128.73679162.91 2P@Cp/3P1004.6 00128.73679 162.9 1101010101 1100010010 1100100101 10000001111 10000110111 1011110001 1100110101 1110011011 1011101011 1101011011 1011010101 1011111110 10000011111 10000111010 1011111111 1011111000 1100000001 1011111010 19.938 55.993 1004.6 89473 16 275 8 58 51 3 $GNGGA,082552.00,4333.68777,N,00128.73679,E,1,08,1.00,162.9,M,53.8,M,,*48

90 08 25 53 4333.6879100128.73693162.91@2êA0Cê.¿3 1004.6 00128.73693 162.9 1101010101 1100010100 1100101001 10000010011 10000111001 1011101100 1100110010 1110010100 1011100101 1101011011 1011010101 1100000001 10000100110 10000111011 1100000001 1011111001 1100000000 1100000000 20.000 56.008 1004.6 90473 18 274 7 59 51 3 $GNGGA,082553.00,4333.68791,N,00128.73693,E,1,08,1.00,162.9,M,53.8,M,,*45

91 08 25 54 4333.6881000128.73744162.91`2ê@†CP.∞3 1004.6 00128.73744 162.9 1101010101 1100010110 1100101001 10000001010 10000110101 1011101011 1100110010 1110010111 1011101010 1101011011 1011011000 1011111111 10000100110 10000111101 1100001000 1011111001 1011111111 1011111101 19.938 56.031 1004.6 91473 16 273 8 58 51 3 $GNGGA,082554.00,4333.68810,N,00128.73744,E,1,08,1.00,162.9,M,53.8,M,,*4F

92 08 25 55 4333.6881000128.73745162.81@2`@êC`.∞3 00128.73745 162.8 1101010101 1100010100 1100100110 10000001001 10000110110 1011101011 1100110000 1110001111 1011100010 1101011011 1011010100 1011111100 10000100111 10000111011 1011111011 1011111001 1100000010 1011111011 20.000 56.038 1004.6 92473 17 272 7 58 52 3 $GNGGA,082555.00,4333.68810,N,00128.73745,E,1,08,1.00,162.8,M,53.8,M,,*4E

93 08 25 56 4333.6880800128.73742162.81`2ê@pCp.ê2–1004.6 00128.73742 162.8 1101010101 1100010110 1100101001 10000000111 10000110111 1011101001 1100101101 1110001111 1011100011 1101011011 1011011001 1011111111 10000100010 10000111011 1100000000 1011111000 1100000010 1011110101 19.938 56.054 1004.6 93473 17 271 7 58 51 3 $GNGGA,082556.00,4333.68808,N,00128.73742,E,1,08,1.00,162.8,M,53.8,M,,*43

94 08 25 57 4333.6880000128.73718162.9102@@¿CP.p31004.6 00128.73718 162.9 1101010101 1100010011 1100100100 10000001100 10000110101 1011100111 1100110001 1110011001 1011100101 1101011011 1011010110 1011111110 10000011111 10000111010 1100000010 1011111001 1100001001 1100000001 20.000 56.054 1004.6 94473 17 270 8 58 52 3 $GNGGA,082557.00,4333.68800,N,00128.73718,E,1,08,1.00,162.9,M,53.8,M,,*44

95 08 25 58 4333.6880200128.73749163.21 2`@CÄ.†3P1004.6 00128.73749 163.2 1101010101 1100010010 1100100110 10000001111 10000111000 1011101010 1100110101 1110010011 1011101010 1101011011 1011010100 1011111110 10000100111 10000111011 1011111100 1011110110 1100000111 1100000111 19.938 56.016 1004.6 95473 17 269 8 59 51 3 $GNGGA,082558.00,4333.68802,N,00128.73749,E,1,08,1.00,163.2,M,53.8,M,,*47

96 08 25 59 4333.6881400128.73758163.2102Ä@¿Cê.–3 1004.6 00128.73758 163.2 1101010101 1100010011 1100101000 10000001100 10000111001 1011101101 1100110010 1110010011 1011100010 1101011011 1011011001 1100000001 10000011110 10000111000 1100000010 1011111000 1100000001 1011111111 20.000 56.016 1004.6 96473 17 266 7 58 51 3 $GNGGA,082559.00,4333.68814,N,00128.73758,E,1,08,1.00,163.2,M,53.8,M,,*41

97 08 26 00 4333.6883300128.73775163.31P2Ä@–Cp.∞301004.6 00128.73775 163.3 1101010101 1100010101 1100101000 10000001101 10000110111 1011101011 1100110011 1110010010 1011101101 1101011011 1011010111 1011111101 10000011110 10000111001 1100000010 1011111010 1011111001 1011110011 20.000 55.993 1004.6 97473 17 267 7 59 51 3 $GNGGA,082600.00,4333.68833,N,00128.73775,E,1,08,1.00,163.3,M,53.8,M,,*45

98 08 26 01 4333.6883600128.73766163.31@2ê@†Cê.†2¿1004.6 00128.73766 163.3 1101010101 1100010100 1100101001 10000001010 10000111001 1011101010 1100101100 1110010000 1011101000 1101011011 1011011010 1100000001 10000100111 10000111110 1100000011 1011110100 1011111110 1011111010 20.000 55.962 1004.6 98473 16 266 7 58 51 3 $GNGGA,082601.00,4333.68836,N,00128.73766,E,1,08,1.00,163.3,M,53.8,M,,*43

99 08 26 02 4333.6883600128.73766163.51 2@@`C`.ê3 1004.6 00128.73766 163.5 1101010101 1100010010 1100100100 10000000110 10000110110 1011101001 1100110010 1110001111 1011101101 1101011011 1011010110 1011111100 10000100110 10000111011 1100000011 1011111101 1100000000 1011111001 20.000 55.947 1004.6 99473 18 262 7 59 51 3 $GNGGA,082602.00,4333.68836,N,00128.73766,E,1,08,1.00,163.5,M,53.8,M,,*46

100 08 26 03 4333.6883100128.73723162.81 2p@ÄCp.‡3 1004.6 00128.73723 162.8 1101010101 1100010010 1100100111 10000001000 10000110111 1011101110 1100110010 1110010110 1011101010 1101011011 1011010101 1011111101 10000101100 10000111110 1100000100 1011111110 1011111110 1011110100 19.938 55.939 1004.6 100473 16 265 8 58 51 3 $GNGGA,082603.00,4333.68831,N,00128.73723,E,1,08,0.99,162.8,M,53.8,M,,*4C

101 08 26 04 4333.6883900128.73710161.91P2ê@¿C`/ 3`1004.6 00128.73710 161.9 1101010101 1100010101 1100101001 10000001100 10000110110 1011110010 1100110110 1110010011 1011100110 1101011011 1011010110 1100000010 10000100101 10000111101 1100000100 1011111001 1011111101 1011110110 20.000 55.893 1004.6 101473 16 264 7 58 52 3 $GNGGA,082604.00,4333.68839,N,00128.73710,E,1,08,0.99,161.9,M,53.8,M,,*41

102 08 26 05 4333.6883700128.73705161.812 @`C`.3 1004.6 00128.73705 161.8 1101010101 1100010001 1100100010 10000000110 10000110110 1011101111 1100110010 1110010100 1011101000 1101011011 1011010111 1100000000 10000100101 10000111010 1100000101 1011111100 1100000010 1011111010 19.938 55.840 1004.6 102473 17 263 7 59 51 3 $GNGGA,082605.00,4333.68837,N,00128.73705,E,1,08,0.99,161.8,M,53.8,M,,*4B

103 08 26 06 4333.6882100128.73655161.31 2`A 00128.73655 161.3 1101010110 1100010010 1100100110 10000010000 10000111001 1011101111 1100110111 1110011101 1011111000 1101011011 1011011000 1011111111 10000100001 10000111001 1100000010 1011111110 1100000000 1011110101 19.938 55.825 1004.6 103473 16 260 7 58 51 4 $GNGGA,082606.00,4333.68821,N,00128.73655,E,1,07,1.06,161.3,M,53.8,M,,*48

104 08 26 07 4333.6880700128.73578161.21P2`@¿CÄ/3ê1004.6 00128.73578 161.2 1101010101 1100010101 1100100110 10000001100 10000111000 1011110001 1100111001 1110011011 1011100111 1101011011 1011010111 1011111111 10000011110 10000111000 1100000000 1011111101 1100001000 1100000010 20.000 55.817 1004.6 104473 17 260 7 59 51 3 $GNGGA,082607.00,4333.68807,N,00128.73578,E,1,07,1.06,161.2,M,53.8,M,,*40

105 08 26 08 4333.6884100128.73549161.41@2ÄAC@.‡3P1004.6 00128.73549 161.4 1101010101 1100010100 1100101000 10000010001 10000110100 1011101110 1100110101 1110010111 1011101000 1101011011 1011010110 1100000001 10000100001 10000111101 1100000100 1011111001 1100000010 1011110111 20.000 55.802 1004.6 105473 16 261 7 58 51 3 $GNGGA,082608.00,4333.68841,N,00128.73549,E,1,07,1.06,161.4,M,53.8,M,,*49

106 08 26 09 4333.6885800128.73537161.21`2êA 00128.73537 161.2 1101010101 1100010110 1100101001 10000010000 10000110110 1011101010 1100101110 1110010000 1011101000 1101011011 1011010111 1011111111 10000100010 10000111011 1100000001 1011111011 1100000100 1011111011 20.000 55.802 1004.6 106473 17 259 7 59 51 3 $GNGGA,082609.00,4333.68858,N,00128.73537,E,1,07,1.06,161.2,M,53.8,M,,*4F

107 08 26 10 4333.6885800128.73598161.21p2†@–CP.‡3P1004.6 00128.73598 161.2 1101010101 1100010111 1100101010 10000001101 10000110101 1011101110 1100110101 1110010001 1011100101 1101011011 1011011001 1100000001 10000101001 10000111010 1100000101 1011111001 1100000001 1011110011 19.938 55.794 1004.6 107473 17 255 7 58 51 3 $GNGGA,082610.00,4333.68858,N,00128.73598,E,1,08,0.94,161.2,M,53.8,M,,*47

108 08 26 11 4333.6887000128.73646160.71 2`@∞Cp.Ä2–1004.6 00128.73646 160.7 1101010101 1100010010 1100100110 10000001011 10000110111 1011101000 1100101101 1110100000 1011110001 1101011011 1011011011 1011111111 10000100001 10000111001 1011111111 1011111001 1100000100 1011111100 20.000 55.802 1004.6 108473 16 257 7 58 52 3 $GNGGA,082611.00,4333.68870,N,00128.73646,E,1,08,0.94,160.7,M,53.8,M,,*48

109 08 26 12 4333.6889400128.73695161.11P2Ä@C`.‡2¿1004.6 00128.73695 161.1 1101010101 1100010101 1100101000 10000001111 10000110110 1011101110 1100101100 1110010101 1011100110 1101011011 1011011001 1100000010 10000011100 10000111000 1100000010 1011111010 1011111100 1011110100 19.938 55.810 1004.6 109473 17 255 8 58 51 3 $GNGGA,082612.00,4333.68894,N,00128.73695,E,1,08,0.94,161.1,M,53.8,M,,*48

110 08 26 13 4333.6892300128.73718160.4120@Cê.3`1004.6 00128.73718 160.4 1101010101 1100010001 1100100011 10000001111 10000111001 1011101111 1100110110 1110001101 1011100110 1101011011 1011010100 1011111100 10000100000 10000111100 1100000100 1011111011 1011111110 1011110011 20.000 55.825 1004.6 110473 17 255 7 58 52 3 $GNGGA,082613.00,4333.68923,N,00128.73718,E,1,08,0.94,160.4,M,53.8,M,,*44

111 08 26 14 4333.6894000128.73740159.61@20@‡CÄ/ 00128.73740 159.6 1101010101 1100010100 1100100011 10000001110 10000111000 1011110000 1100110100 1110010100 1011100110 1101011011 1011010110 1011111111 10000100001 10000111100 1100000101 1011111010 1100000010 1011111000 20.000 55.840 1004.6 111473 18 255 7 59 51 3 $GNGGA,082614.00,4333.68940,N,00128.73740,E,1,08,0.94,159.6,M,53.8,M,,*43

112 08 26 15 4333.6895200128.73747159.712P@ 00128.73747 159.7 1101010101 1100010001 1100100101 10000000000 10000110011 1011101000 1100110000 1110010000 1011011111 1101011011 1011010101 1011111101 10000011110 10000111010 1100000010 1011111001 1100000010 1011111100 19.938 55.832 1004.6 112473 16 255 8 58 51 3 $GNGGA,082615.00,4333.68952,N,00128.73747,E,1,08,0.94,159.7,M,53.8,M,,*47

113 08 26 16 4333.6896900128.73761159.61 2`@ÄCP/03`1004.6 00128.73761 159.6 1101010101 1100010010 1100100110 10000001000 10000110101 1011110011 1100110110 1110010100 1011100011 1101011011 1011010110 1100000001 10000100010 10000111010 1100000010 1011111000 1011111011 1011111011 20.000 55.832 1004.6 113473 16 253 7 59 51 3 $GNGGA,082616.00,4333.68969,N,00128.73761,E,1,08,0.94,159.6,M,53.8,M,,*49

114 08 26 17 4333.6896500128.73722158.6102p@∞Cp.¿2‡1004.6 00128.73722 158.6 1101010101 1100010011 1100100111 10000001011 10000110111 1011101100 1100101110 1110010010 1011100010 1101011011 1011010011 1011111101 10000100100 10000111010 1011111011 1011110111 1011111101 1011111000 19.938 55.863 1004.6 114473 17 248 8 58 51 3 $GNGGA,082617.00,4333.68965,N,00128.73722,E,1,08,0.94,158.6,M,53.8,M,,*42

115 08 26 18 4333.6896000128.73683157.81P2`@∞CÄ.p2–1004.6 00128.73683 157.8 1101010101 1100010101 1100100110 10000001011 10000111000 1011100111 1100101101 1110010011 1011101000 1101011011 1011010111 1011111111 10000100011 10000111010 1100000100 1011111001 1100000101 1011111101 20.000 55.878 1004.6 115473 16 250 7 59 51 3 $GNGGA,082618.00,4333.68960,N,00128.73683,E,1,08,0.94,157.8,M,53.8,M,,*43

116 08 26 19 4333.6896000128.73673157.61`2`@0C@.‡31004.6 00128.73673 157.6 1101010101 1100010110 1100100110 10000000011 10000110100 1011101110 1100110001 1110001110 1011101001 1101011011 1011010101 1011111110 10000100101 10000111011 1100000000 1011110111 1011111011 1011110100 19.938 55.893 1004.6 116473 17 250 7 58 51 3 $GNGGA,082619.00,4333.68960,N,00128.73673,E,1,08,0.94,157.6,M,53.8,M,,*43

117 08 26 20 4333.6898400128.73726157.61 2@@∞CP.∞21004.6 00128.73726 157.6 1101010101 1100010010 1100100100 10000001011 10000110101 1011101011 1100101111 1110010111 1011101110 1101011011 1011011010 1011111111 10000100111 10000111000 1100000011 1011111011 1100000000 1011111101 20.000 55.901 1004.6 117473 17 249 7 58 52 3 $GNGGA,082620.00,4333.68984,N,00128.73726,E,1,08,0.94,157.6,M,53.8,M,,*42

118 08 26 21 4333.6897200128.73685156.9102ÄA 00128.73685 156.9 1101010110 1100010011 1100101000 10000010000 10000110111 1011101101 1100110010 1110010011 1011100010 1101011011 1011011001 1011111111 10000100001 10000111011 1100001010 1011111010 1100000011 1011111010 19.938 55.909 1004.6 118473 17 245 7 59 51 3 $GNGGA,082621.00,4333.68972,N,00128.73685,E,1,08,0.94,156.9,M,53.8,M,,*4C

119 08 26 22 4333.6897300128.73676155.71@2†A 00128.73676 155.7 1101010101 1100010100 1100101010 10000010000 10000111000 1011101100 1100110010 1110010011 1011100111 1101011011 1011010111 1011111111 10000101000 10000111010 1100000111 1011111111 1011111111 1011110100 19.938 55.932 1004.6 119473 16 246 8 58 51 4 $GNGGA,082622.00,4333.68973,N,00128.73676,E,1,08,0.94,155.7,M,53.8,M,,*4F

120 08 26 23 4333.6898000128.73679154.71 2@@–CÄ.∞3ê1004.6 00128.73679 154.7 1101010101 1100010010 1100100100 10000001101 10000111000 1011101011 1100111001 1110010100 1011100101 1101011011 1011010110 1011111110 10000100100 10000111011 1100000100 1011111010 1100000110 1100000000 19.938 55.947 1004.6 120473 17 246 7 59 51 3 $GNGGA,082623.00,4333.68980,N,00128.73679,E,1,08,0.94,154.7,M,53.8,M,,*4C

121 08 26 24 4333.6899600128.73686155.11@2p@PC@.–3@1004.6 00128.73686 155.1 1101010101 1100010100 1100100111 10000000101 10000110100 1011101101 1100110100 1110010111 1011100101 1101011011 1011010100 1011111110 10000100111 10000111100 1100000001 1011111010 1100000001 1011111010 19.938 55.954 1004.6 121473 18 245 7 58 51 3 $GNGGA,082624.00,4333.68996,N,00128.73686,E,1,08,0.94,155.1,M,53.8,M,,*4B

122 08 26 25 4333.6900200128.73668154.71@2êA0CP.–3 00128.73668 154.7 1101010101 1100010100 1100101001 10000010011 10000110101 1011101101 1100110000 1110010011 1011100001 1101011011 1011010110 1011111100 10000100101 10000111010 1100000000 1011110101 1100000111 1100000000 20.000 55.947 1004.6 122473 16 244 7 59 51 3 $GNGGA,082625.00,4333.69002,N,00128.73668,E,1,08,0.94,154.7,M,53.8,M,,*48

123 08 26 26 4333.6900900128.73657154.11@2pACÄ/ 00128.73657 154.1 1101010101 1100010100 1100100111 10000010001 10000111000 1011110000 1100110001 1110011010 1011101100 1101011011 1011011000 1011111110 10000100010 10000111010 1100000001 1011110111 1100000111 1011111101 19.938 55.947 1004.6 123473 17 242 8 58 51 3 $GNGGA,082626.00,4333.69009,N,00128.73657,E,1,07,1.03,154.1,M,53.8,M,,*4A

124 08 26 27 4333.6900300128.73644153.012P@–CP.p2–1004.6 00128.73644 153.0 1101010101 1100010001 1100100101 10000001101 10000110101 1011100111 1100101101 1110011010 1011101011 1101011011 1011010101 1011111111 10000101010 10000111100 1100000011 1011111011 1011111101 1011111010 19.938 55.909 1004.6 124473 16 241 8 58 52 3 $GNGGA,082627.00,4333.69003,N,00128.73644,E,1,07,1.03,153.0,M,53.8,M,,*45

125 08 26 28 4333.6900100128.73646152.61P2pA CP.‡3p1004.6 00128.73646 152.6 1101010110 1100010101 1100100111 10000010010 10000110101 1011101110 1100110111 1110010111 1011100110 1101011011 1011010111 1100000000 10000101000 10000111010 1100000001 1011111001 1011111111 1100000000 19.938 55.855 1004.6 125473 16 237 7 58 51 3 $GNGGA,082628.00,4333.69001,N,00128.73646,E,1,07,1.03,152.6,M,53.8,M,,*4D

126 08 26 29 4333.6900100128.73662152.71P2êA0Cp.∞3 00128.73662 152.7 1101010101 1100010101 1100101001 10000010011 10000110111 1011101011 1100110000 1110001111 1011100010 1101011011 1011010101 1011111110 10000101000 10000111110 1011111111 1011111010 1100000001 1011111011 19.938 55.886 1004.6 126473 17 238 7 58 52 3 $GNGGA,082629.00,4333.69001,N,00128.73662,E,1,07,1.03,152.7,M,53.8,M,,*4B

127 08 26 30 4333.6899900128.73619151.81 00128.73619 151.8 1101010101 1100010000 1100100101 10000010000 10000110101 1011101010 1100101111 1110010100 1011100100 1101011011 1011010111 1011111101 10000101000 10000111101 1011111111 1011111001 1100000100 1011111100 19.938 55.878 1004.6 127473 16 239 7 59 51 3 $GNGGA,082630.00,4333.68999,N,00128.73619,E,1,07,1.03,151.8,M,53.8,M,,*4A

128 08 26 31 4333.6899400128.73600151.11 2@@¿C@.ê2¿1004.6 00128.73600 151.1 1101010101 1100010010 1100100100 10000001100 10000110100 1011101001 1100101100 1110010110 1011100110 1101011011 1011010111 1100000001 10000100111 10000111010 1100000001 1011110110 1100000000 1011110111 19.938 55.855 1004.6 128473 17 236 7 58 51 3 $GNGGA,082631.00,4333.68994,N,00128.73600,E,1,07,1.03,151.1,M,53.8,M,,*47

129 08 26 32 4333.6897200128.73544150.71 2@@†Cp.∞3 1004.6 00128.73544 150.7 1101010101 1100010010 1100100100 10000001010 10000110111 1011101011 1100110010 1110010101 1011100111 1101011011 1011010111 1100000000 10000100011 10000111010 1100000010 1011111100 1100000101 1011111110 19.938 55.787 1004.6 129473 16 234 9 59 51 3 $GNGGA,082632.00,4333.68972,N,00128.73544,E,1,07,1.03,150.7,M,53.8,M,,*48

130 08 26 33 4333.6891300128.73483151.01P2ê@¿CP/3†1004.6 00128.73483 151.0 1101010101 1100010101 1100101001 10000001100 10000110101 1011110001 1100111010 1110010000 1011100001 1101011011 1011010111 1011111111 10000100111 10000111001 1100000100 1011110110 1100001010 1011111011 19.938 55.794 1004.6 130473 17 233 7 58 51 3 $GNGGA,082633.00,4333.68913,N,00128.73483,E,1,06,1.14,151.0,M,53.8,M,,*45

131 08 26 34 4333.6892500128.73489150.8102`@¿C@.–2¿1004.6 00128.73489 150.8 1101010101 1100010011 1100100110 10000001100 10000110100 1011101101 1100101100 1110011000 1011110000 1101011011 1011011010 1100000001 10000100111 10000111010 1100000111 1011111101 1100001011 1011111100 19.938 55.855 1004.6 131473 17 233 7 59 51 3 $GNGGA,082634.00,4333.68925,N,00128.73489,E,1,07,1.03,150.8,M,53.8,M,,*43

132 08 26 35 4333.6895600128.73528150.61@2`A@C†.–3 1004.6 00128.73528 150.6 1101010101 1100010100 1100100110 10000010100 10000111010 1011101101 1100110010 1110011101 1011110100 1101011011 1011010110 1011111110 10000100001 10000111011 1011111011 1011110100 1100000111 1011111011 19.938 55.871 1004.6 132473 16 234 7 58 51 3 $GNGGA,082635.00,4333.68956,N,00128.73528,E,1,07,1.02,150.6,M,53.8,M,,*43

133 08 26 36 4333.6899700128.73564149.912@@pC`/3P1004.6 00128.73564 149.9 1101010101 1100010001 1100100100 10000000111 10000110110 1011110001 1100110101 1110010101 1011110001 1101011011 1011011001 1100000000 10000011110 10000111010 1100000110 1011111001 1100001110 1100000001 19.938 55.878 1004.6 133473 17 232 8 58 52 3 $GNGGA,082636.00,4333.68997,N,00128.73564,E,1,07,1.02,149.9,M,53.8,M,,*42

134 08 26 37 4333.6902800128.73562149.11 2 @–Cê.3Ä1004.6 00128.73562 149.1 1101010101 1100010010 1100100010 10000001101 10000111001 1011101111 1100111000 1110010111 1011110100 1101011011 1011010111 1011111111 10000100010 10000111100 1100000000 1011111001 1011111011 1011101101 19.938 55.901 1004.6 134473 16 232 8 59 51 3 $GNGGA,082637.00,4333.69028,N,00128.73562,E,1,07,1.02,149.1,M,53.8,M,,*41

135 08 26 38 4333.6901300128.73581149.31 2ê@–Cp.–3P1004.6 00128.73581 149.3 1101010110 1100010010 1100101001 10000001101 10000110111 1011101101 1100110101 1110010101 1011100101 1101011011 1011011011 1100000001 10000011101 10000111000 1100000010 1011111010 1100000001 1100000000 19.938 55.878 1004.6 135473 18 231 7 58 51 4 $GNGGA,082638.00,4333.69013,N,00128.73581,E,1,08,0.97,149.3,M,53.8,M,,*4B

136 08 26 39 4333.6903000128.73586148.2102p@–Cp.†3 00128.73586 148.2 1101010101 1100010011 1100100111 10000001101 10000110111 1011101010 1100110000 1110010100 1011100111 1101011011 1011011000 1100000001 10000100001 10000111100 1100000001 1011110111 1011111100 1011111000 19.938 55.779 1004.6 136473 16 227 8 59 51 3 $GNGGA,082639.00,4333.69030,N,00128.73586,E,1,08,0.97,148.2,M,53.8,M,,*4C

137 08 26 40 4333.6903100128.73610149.11@2p@‡CP.P3 00128.73610 149.1 1101010101 1100010100 1100100111 10000001110 10000110101 1011100101 1100110000 1110010000 1011100011 1101011011 1011010111 1011111111 10000100000 10000111011 1100000110 1011111011 1100000010 1011111101 19.938 55.749 1004.6 137473 17 230 7 58 51 3 $GNGGA,082640.00,4333.69031,N,00128.73610,E,1,09,0.91,149.1,M,53.8,M,,*4A

138 08 26 41 4333.6902300128.73611148.31@2@@êC@.¿3 00128.73611 148.3 1101010110 1100010100 1100100100 10000001001 10000110100 1011101100 1100110000 1110001101 1011100000 1101011011 1011010111 1011111110 10000100011 10000111010 1011111100 1011110101 1100000001 1011111101 19.938 55.680 1004.6 138473 18 226 7 59 51 3 $GNGGA,082641.00,4333.69023,N,00128.73611,E,1,08,0.97,148.3,M,53.8,M,,*4D

139 08 26 42 4333.6900400128.73667149.612@@¿Cp.3p1004.6 00128.73667 149.6 1101010101 1100010001 1100100100 10000001100 10000110111 1011101111 1100110111 1110011011 1011100010 1101011011 1011010110 1011111110 10000101001 10000111100 1100000010 1011110101 1100000110 1100000001 19.938 55.588 1004.6 139473 16 228 7 58 51 3 $GNGGA,082642.00,4333.69004,N,00128.73667,E,1,08,0.92,149.6,M,53.8,M,,*4B

140 08 26 43 4333.6900900128.73700149.312@@ÄC@.ê3 00128.73700 149.3 1101010101 1100010001 1100100100 10000001000 10000110100 1011101001 1100110000 1110010010 1011100010 1101011011 1011010111 1011111111 10000100110 10000111100 1100000111 1011111010 1100000011 1011111011 19.875 55.489 1004.6 140473 17 226 7 58 52 3 $GNGGA,082643.00,4333.69009,N,00128.73700,E,1,07,0.98,149.3,M,53.8,M,,*47

141 08 26 44 4333.6900500128.73754150.71 2P@pC`/21004.6 00128.73754 150.7 1101010101 1100010010 1100100101 10000000111 10000110110 1011110001 1100101111 1110010000 1011101001 1101011011 1011011000 1100000001 10000100001 10000111010 1100000000 1011111000 1011111111 1011111111 19.938 55.451 1004.6 141473 16 225 8 58 51 3 $GNGGA,082644.00,4333.69005,N,00128.73754,E,1,08,0.92,150.7,M,53.8,M,,*44

142 08 26 45 4333.6901100128.73768150.71@2Ä@∞CÄ.∞2∞1004.6 00128.73768 150.7 1101010110 1100010100 1100101000 10000001011 10000111000 1011101011 1100101011 1110010110 1011101000 1101011011 1011010101 1011111111 10000100110 10000111101 1100000010 1011111011 1100000001 1011111010 19.938 55.420 1004.6 142473 16 224 8 58 52 3 $GNGGA,082645.00,4333.69011,N,00128.73768,E,1,08,0.92,150.7,M,53.8,M,,*4F

143 08 26 46 4333.6903200128.73792149.902PA@C∞.ê31004.6 00128.73792 149.9 1101010101 1100001111 1100100101 10000010100 10000111011 1011101001 1100110001 1110011001 1011101100 1101011011 1011010101 1100000000 10000100010 10000111011 1100000011 1011111100 1011111111 1011111101 19.938 55.428 1004.6 143473 17 223 7 59 51 3 $GNGGA,082646.00,4333.69032,N,00128.73792,E,1,08,0.92,149.9,M,53.8,M,,*4E

144 08 26 47 4333.6902400128.73777149.21@2p@¿C`.Ä2ê1004.6 00128.73777 149.2 1101010110 1100010100 1100100111 10000001100 10000110110 1011101000 1100101001 1110010110 1011101100 1101011011 1011010111 1100000000 10000100101 10000111100 1100000011 1011111011 1100000001 1011111001 19.938 55.443 1004.6 144473 16 223 8 58 51 3 $GNGGA,082647.00,4333.69024,N,00128.73777,E,1,08,0.92,149.2,M,53.8,M,,*48

145 08 26 48 4333.6903200128.73852150.51P2p@ÄC`.‡3@1004.6 00128.73852 150.5 1101010101 1100010101 1100100111 10000001000 10000110110 1011101110 1100110100 1110010110 1011101000 1101011011 1011010111 1011111110 10000100011 10000111010 1100000110 1011111010 1100000001 1011111000 19.938 55.481 1004.6 145473 17 223 7 59 51 3 $GNGGA,082648.00,4333.69032,N,00128.73852,E,1,09,0.86,150.5,M,53.8,M,,*43

146 08 26 49 4333.6904700128.73862149.61@2`@`C`/ 00128.73862 149.6 1101010101 1100010100 1100100110 10000000110 10000110110 1011110000 1100110101 1110011010 1011101010 1101011011 1011010101 1100000000 10000011010 10000111000 1100000000 1011111001 1100000001 1011110100 19.938 55.489 1004.6 146473 16 221 7 58 51 3 $GNGGA,082649.00,4333.69047,N,00128.73862,E,1,08,0.92,149.6,M,53.8,M,,*4C

147 08 26 50 4333.6904700128.73916150.612`@pC /3 1004.6 00128.73916 150.6 1101010101 1100010001 1100100110 10000000111 10000110010 1011110001 1100110010 1110010111 1011100010 1101011011 1011011000 1011111111 10000100111 10000111101 1011111111 1011111010 1100000101 1011111100 19.938 55.489 1004.6 147473 16 217 7 59 51 3 $GNGGA,082650.00,4333.69047,N,00128.73916,E,1,09,0.86,150.6,M,53.8,M,,*4A

148 08 26 51 4333.6905200128.73978151.91 2`@ÄC@.‡3@1004.6 00128.73978 151.9 1101010101 1100010010 1100100110 10000001000 10000110100 1011101110 1100110100 1110011001 1011100111 1101011011 1011010111 1100000010 10000100001 10000111011 1100000010 1011110100 1100000101 1100000000 19.875 55.497 1004.6 148473 16 219 8 58 51 3 $GNGGA,082651.00,4333.69052,N,00128.73978,E,1,09,0.86,151.9,M,53.8,M,,*49

149 08 26 52 4333.6904500128.73973151.31@2Ä@¿C`.‡3`1004.6 00128.73973 151.3 1101010101 1100010100 1100101000 10000001100 10000110110 1011101110 1100110110 1110011110 1011101010 1101011011 1011010100 1011111111 10000100011 10000111100 1100000100 1011111010 1100001011 1100000010 19.938 55.497 1004.6 149473 16 218 8 58 52 3 $GNGGA,082652.00,4333.69045,N,00128.73973,E,1,08,0.91,151.3,M,53.8,M,,*4A

