id HH MM SS longitude latitude altitude adc_1_ch0 adc_1_ch1 adc_1_ch2 adc_1_ch3 adc_1_ch4 adc_1_ch5 adc_1_ch6 adc_1_ch7 adc_1_ch8 adc_2_ch0 adc_2_ch1 adc_2_ch2 adc_2_ch3 adc_2_ch4 adc_2_ch5 adc_2_ch6 adc_2_ch7 adc_2_ch8 temp hum pres t_prog t_gps t_split t_adc t_temp t_hum t_pres trame_gga
1 08 27 27 4333.6909900128.74044131.21 2@@êC@.∞3795.83 00128.74044 131.2 1101010101 1100010010 1100100100 10000001001 10000110100 1011101011 1100110001 1110010100 1011101000 1101011011 1011010111 1100000001 10000011111 10000111001 1100001000 1011111110 1011111000 1011110011 19.875 55.306 795.83 1869 16 231 7 58 51 3 $GNGGA,082727.00,4333.69099,N,00128.74044,E,1,08,0.89,131.2,M,53.8,M,,*4C
dc_
2 08 27 28 4333.6912800128.74109131.31 2p@ÄC@.∞301004.6 00128.74109 131.3 1101010101 1100010010 1100100111 10000001000 10000110100 1011101011 1100110011 1110010001 1011100011 1101011011 1011010110 1100000000 10000100110 10000111011 1100000010 1011110101 1100000011 1100000011 19.875 55.314 1004.6 2869 17 228 7 58 52 3 $GNGGA,082728.00,4333.69128,N,00128.74109,E,1,08,0.89,131.3,M,53.8,M,,*41
dc_
3 08 27 29 4333.6914100128.74125131.6102p@†Cê.ê2‡1004.6 00128.74125 131.6 1101010101 1100010011 1100100111 10000001010 10000111001 1011101001 1100101110 1110001110 1011100010 1101011011 1011011001 1100000000 10000100010 10000111011 1100000001 1011111001 1011111111 1011111010 19.875 55.329 1004.6 3869 17 228 8 59 51 3 $GNGGA,082729.00,4333.69141,N,00128.74125,E,1,08,0.88,131.6,M,53.8,M,,*45
dc_
4 08 27 30 4333.6915000128.74129131.51@2P@†C†.†3P1004.6 00128.74129 131.5 1101010101 1100010100 1100100101 10000001010 10000111010 1011101010 1100110101 1110010010 1011100110 1101011011 1011011001 1100000001 10000100010 10000111011 1100000010 1011110111 1011111110 1011111100 19.875 55.283 1004.6 4869 16 225 7 58 51 4 $GNGGA,082730.00,4333.69150,N,00128.74129,E,1,08,0.88,131.5,M,53.8,M,,*42
dc_
5 08 27 31 4333.6915800128.74173131.21@2p@†Cp/ 00128.74173 131.2 1101010101 1100010100 1100100111 10000001010 10000110111 1011110000 1100110100 1110010011 1011101000 1101011011 1011010010 1011111101 10000101010 10000111101 1100000010 1011110111 1100000100 1100000111 19.875 55.222 1004.6 5869 18 226 7 59 51 3 $GNGGA,082731.00,4333.69158,N,00128.74173,E,1,08,0.88,131.2,M,53.8,M,,*43
dc_
6 08 27 32 4333.6917400128.74226131.11P2ÄA 00128.74226 131.1 1101010101 1100010101 1100101000 10000010000 10000110110 1011101011 1100110010 1110010001 1011101011 1101011011 1011010011 1011111100 10000101001 10000111100 1100000000 1011111010 1100000000 1011110100 19.875 55.207 1004.6 6870 16 226 7 58 51 3 $GNGGA,082732.00,4333.69174,N,00128.74226,E,1,08,1.16,131.1,M,53.8,M,,*48
dc_
7 08 27 33 4333.6918200128.74249131.11 2`A C†.–21004.6 00128.74249 131.1 1101010101 1100010010 1100100110 10000010010 10000111010 1011101101 1100101111 1110010001 1011101001 1101011011 1011011001 1100000000 10000100010 10000111010 1011111110 1011110101 1011111011 1011111001 19.875 55.245 1004.6 7870 18 224 7 59 51 3 $GNGGA,082733.00,4333.69182,N,00128.74249,E,1,08,1.16,131.1,M,53.8,M,,*49
dc_
8 08 27 34 4333.6918900128.74276131.1102P@–C`.∞2∞1004.6 00128.74276 131.1 1101010110 1100010011 1100100101 10000001101 10000110110 1011101011 1100101011 1110001111 1011101001 1101011011 1011011010 1100000011 10000100001 10000111011 1100000010 1011111001 1011111100 1011111010 19.875 55.253 1004.6 8870 16 224 7 58 51 3 $GNGGA,082734.00,4333.69189,N,00128.74276,E,1,09,0.88,131.1,M,53.8,M,,*4E
dc_
9 08 27 35 4333.6919400128.74291131.11 2p@Cp.ê2†1004.6 00128.74291 131.1 1101010110 1100010010 1100100111 10000001111 10000110111 1011101001 1100101010 1110010101 1011101101 1101011011 1011010100 1011111111 10000011111 10000111100 1100000001 1011110100 1011111101 1011110101 19.875 55.260 1004.6 9870 18 223 7 58 52 3 $GNGGA,082735.00,4333.69194,N,00128.74291,E,1,09,0.88,131.1,M,53.8,M,,*4A
dc_
10 08 27 36 4333.6918700128.74279131.21@2@@∞C@.3@1004.6 00128.74279 131.2 1101010101 1100010100 1100100100 10000001011 10000110100 1011101111 1100110100 1110011000 1011101111 1101011011 1011010111 1100000001 10000100011 10000111011 1011111111 1011110111 1100000101 1011111101 19.875 55.314 1004.6 10870 16 221 8 58 51 3 $GNGGA,082736.00,4333.69187,N,00128.74279,E,1,08,0.88,131.2,M,53.8,M,,*4F
dc_
11 08 27 37 4333.6918500128.74281131.2102P@pCP.¿3 00128.74281 131.2 1101010101 1100010011 1100100101 10000000111 10000110101 1011101100 1100110000 1110010100 1011101110 1101011011 1011010101 1011111111 10000011111 10000111011 1100000111 1011111011 1100000011 1011110101 19.875 55.260 1004.6 11870 16 218 7 58 52 3 $GNGGA,082737.00,4333.69185,N,00128.74281,E,1,08,0.88,131.2,M,53.8,M,,*4B
dc_
12 08 27 38 4333.6917400128.74250131.1102P@†CÄ/3 1004.6 00128.74250 131.1 1101010101 1100010011 1100100101 10000001010 10000111000 1011110001 1100110010 1110010101 1011101001 1101011011 1011010111 1011111111 10000011101 10000111001 1100000110 1011110111 1100000010 1011111111 19.875 55.230 1004.6 12870 17 220 7 59 51 3 $GNGGA,082738.00,4333.69174,N,00128.74250,E,1,09,0.88,131.1,M,53.8,M,,*44
dc_
13 08 27 39 4333.6917700128.74260131.51 00128.74260 131.5 1101010101 1100010000 1100100110 10000001000 10000110110 1011101100 1100110000 1110010000 1011100100 1101011011 1011010111 1011111111 10000100001 10000111010 1100000011 1011111010 1100000010 1011110111 19.875 55.253 1004.6 13870 16 219 8 58 51 3 $GNGGA,082739.00,4333.69177,N,00128.74260,E,1,09,0.88,131.5,M,53.8,M,,*41
dc_
14 08 27 40 4333.6918600128.74296131.51@2ê@`C.–301004.6 00128.74296 131.5 1101010101 1100010100 1100101001 10000000110 10000110001 1011101101 1100110011 1110010010 1011101110 1101011011 1011010100 1011111110 10000011111 10000111011 1011111110 1011110101 1011111111 1011110101 19.875 55.275 1004.6 14870 17 217 8 59 51 3 $GNGGA,082740.00,4333.69186,N,00128.74296,E,1,08,0.88,131.5,M,53.8,M,,*49
dc_
15 08 27 41 4333.6919100128.74303131.61 2`@∞CP.Ä2‡1004.6 00128.74303 131.6 1101010101 1100010010 1100100110 10000001011 10000110101 1011101000 1100101110 1110011000 1011011101 1101011011 1011010101 1100000000 10000100011 10000111010 1100000100 1011111100 1100000100 1011111101 19.875 55.283 1004.6 15870 16 216 9 58 51 3 $GNGGA,082741.00,4333.69191,N,00128.74303,E,1,09,0.88,131.6,M,53.8,M,,*41
dc_
16 08 27 42 4333.6919800128.74334131.61 2Ä@–Cê.¿3@1004.6 00128.74334 131.6 1101010101 1100010010 1100101000 10000001101 10000111001 1011101100 1100110100 1110010000 1011011101 1101011011 1011010111 1100000011 10000100011 10000111011 1100000101 1011111011 1011111110 1011110100 19.875 55.260 1004.6 16870 16 215 8 59 51 3 $GNGGA,082742.00,4333.69198,N,00128.74334,E,1,08,0.88,131.6,M,53.8,M,,*4E
dc_
17 08 27 43 4333.6918500128.74277131.71 00128.74277 131.7 1101010101 1100010000 1100100100 10000010001 10000110111 1011101111 1100110110 1110010110 1011100010 1101011011 1011010110 1011111111 10000011011 10000111001 1100000101 1011111010 1100000110 1011111111 19.875 55.214 1004.7 17870 17 214 7 58 51 3 $GNGGA,082743.00,4333.69185,N,00128.74277,E,1,08,0.88,131.7,M,53.8,M,,*44
dc_
18 08 27 44 4333.6917200128.74249131.3102`ApC∞.31004.7 00128.74249 131.3 1101010110 1100010011 1100100110 10000010111 10000111011 1011101111 1100110001 1110010010 1011011110 1101011011 1011010110 1011111111 10000011011 10000111010 1100000000 1011111000 1100000010 1100000001 19.875 55.192 1004.7 18870 16 212 7 58 52 3 $GNGGA,082744.00,4333.69172,N,00128.74249,E,1,07,0.90,131.3,M,53.8,M,,*44
dc_
19 08 27 45 4333.6916500128.74248130.71 2pAC@.∞3`1004.7 00128.74248 130.7 1101010101 1100010010 1100100111 10000010001 10000110100 1011101011 1100110110 1110010100 1011100100 1101011011 1011010101 1100000001 10000100011 10000111011 1100000101 1011111101 1100001011 1100000010 19.875 55.161 1004.7 19870 17 212 7 59 51 3 $GNGGA,082745.00,4333.69165,N,00128.74248,E,1,06,1.19,130.7,M,53.8,M,,*46
dc_
20 08 27 46 4333.6915400128.74237130.21@2`@‡C@/ 00128.74237 130.2 1101010101 1100010100 1100100110 10000001110 10000110100 1011110000 1100110110 1110001101 1011100001 1101011011 1011010101 1011111111 10000011011 10000111010 1011111111 1011110010 1011111111 1011110101 19.875 55.169 1004.6 20870 16 209 8 58 51 4 $GNGGA,082746.00,4333.69154,N,00128.74237,E,1,07,1.18,130.2,M,53.8,M,,*4A
dc_
21 08 27 47 4333.6914200128.74229129.51@2ê@†C0.‡3P1004.6 00128.74229 129.5 1101010101 1100010100 1100101001 10000001010 10000110011 1011101110 1100110101 1110001101 1011100111 1101011011 1011010011 1011111101 10000100100 10000111100 1100000000 1011111111 1100000100 1011110101 19.875 55.222 1004.6 21870 16 209 7 59 51 3 $GNGGA,082747.00,4333.69142,N,00128.74229,E,1,07,1.18,129.5,M,53.8,M,,*4C
dc_
22 08 27 48 4333.6913300128.74215129.01 2Ä@–CÄ.‡21004.6 00128.74215 129.0 1101010101 1100010010 1100101000 10000001101 10000111000 1011101110 1100101111 1110001111 1011101001 1101011011 1011010101 1011111111 10000100001 10000111010 1100000011 1011111011 1100000011 1011111101 19.875 55.245 1004.6 22870 18 206 7 58 51 3 $GNGGA,082748.00,4333.69133,N,00128.74215,E,1,08,1.16,129.0,M,53.8,M,,*4E
dc_
23 08 27 49 4333.6912400128.74203128.61 2Ä@pCp.¿3P1004.6 00128.74203 128.6 1101010101 1100010010 1100101000 10000000111 10000110111 1011101100 1100110101 1110001111 1011101010 1101011011 1011011000 1100000010 10000100010 10000111011 1100000011 1011111100 1100000001 1100000011 19.875 55.237 1004.6 23870 16 207 7 59 51 3 $GNGGA,082749.00,4333.69124,N,00128.74203,E,1,07,1.18,128.6,M,53.8,M,,*48
dc_
24 08 27 50 4333.6912000128.74202128.2102Ä@∞C@.¿3 00128.74202 128.2 1101010101 1100010011 1100101000 10000001011 10000110100 1011101100 1100110000 1110010000 1011011100 1101011011 1011010100 1011111110 10000100010 10000111100 1100000111 1011111011 1011111001 1011111011 19.875 55.207 1004.6 24870 17 205 7 58 51 3 $GNGGA,082750.00,4333.69120,N,00128.74202,E,1,05,1.24,128.2,M,53.8,M,,*4C
dc_
25 08 27 51 4333.6911600128.74210128.212P@@C@.p301004.6 00128.74210 128.2 1101010101 1100010001 1100100101 10000000100 10000110100 1011100111 1100110011 1110010000 1011101010 1101011011 1011010100 1100000000 10000100011 10000111011 1100000111 1011111111 1011111101 1011111101 19.875 55.222 1004.6 25870 16 205 7 58 52 3 $GNGGA,082751.00,4333.69116,N,00128.74210,E,1,06,1.22,128.2,M,53.8,M,,*4E
dc_
26 08 27 52 4333.6911700128.74244127.61P2`@†CÄ.p2‡1004.6 00128.74244 127.6 1101010101 1100010101 1100100110 10000001010 10000111000 1011100111 1100101110 1110010101 1011100111 1101011011 1011011000 1011111111 10000100101 10000111011 1100000011 1011111100 1100000100 1100000010 19.875 55.214 1004.6 26870 16 201 7 58 51 3 $GNGGA,082752.00,4333.69117,N,00128.74244,E,1,04,1.33,127.6,M,53.8,M,,*44
dc_
27 08 27 53 4333.6912300128.74253127.2102Ä@†Cp.†2¿1004.6 00128.74253 127.2 1101010101 1100010011 1100101000 10000001010 10000110111 1011101010 1100101100 1110010100 1011100000 1101011011 1011011010 1100000010 10000100100 10000111011 1100000010 1011111001 1011111010 1011110111 19.875 55.237 1004.6 27870 16 201 8 58 52 3 $GNGGA,082753.00,4333.69123,N,00128.74253,E,1,05,1.24,127.2,M,53.8,M,,*47
dc_
28 08 27 54 4333.6910400128.74218126.9102`@∞CÄ.‡3 1004.6 00128.74218 126.9 1101010101 1100010011 1100100110 10000001011 10000111000 1011101110 1100110010 1110010101 1011100111 1101011011 1011010100 1100000000 10000100001 10000111101 1100000110 1011111011 1011111101 1011110101 19.875 55.253 1004.6 28870 16 200 8 59 51 3 $GNGGA,082754.00,4333.69104,N,00128.74218,E,1,05,1.24,126.9,M,53.8,M,,*40
dc_
29 08 27 55 4333.6910100128.74206126.6102`@–Cp.¿31004.6 00128.74206 126.6 1101010101 1100010011 1100100110 10000001101 10000110111 1011101100 1100110001 1110010010 1011101010 1101011011 1011010011 1011111110 10000100001 10000111001 1100000110 1011111011 1011111101 1011111001 19.875 55.253 1004.6 29870 17 202 7 58 51 3 $GNGGA,082755.00,4333.69101,N,00128.74206,E,1,07,1.18,126.6,M,53.8,M,,*49
dc_
30 08 27 56 4333.6911900128.74261126.6102P@¿Cp.‡3 1004.6 00128.74261 126.6 1101010101 1100010011 1100100101 10000001100 10000110111 1011101110 1100110010 1110010101 1011101100 1101011011 1011010011 1011111101 10000100000 10000111011 1100000000 1011110110 1100000101 1100000000 19.875 55.268 1004.6 30870 17 200 7 59 51 3 $GNGGA,082756.00,4333.69119,N,00128.74261,E,1,08,1.16,126.6,M,53.8,M,,*43
dc_
31 08 27 57 4333.6912600128.74299126.61`2Ä@–Cp.¿3P1004.6 00128.74299 126.6 1101010101 1100010110 1100101000 10000001101 10000110111 1011101100 1100110101 1110001101 1011101101 1101011011 1011011010 1100000001 10000101001 10000111101 1100000000 1011111101 1011111111 1011111110 19.875 55.283 1004.6 31870 17 199 7 58 51 3 $GNGGA,082757.00,4333.69126,N,00128.74299,E,1,07,1.18,126.6,M,53.8,M,,*48
dc_
32 08 27 58 4333.6912900128.74307126.51@2Ä@ÄC@/ 3`1004.6 00128.74307 126.5 1101010101 1100010100 1100101000 10000001000 10000110100 1011110010 1100110110 1110011001 1011101111 1101011011 1011010110 1100000001 10000100011 10000111011 1100000010 1011110101 1100000000 1011111001 19.875 55.260 1004.6 32870 17 197 8 59 51 3 $GNGGA,082758.00,4333.69129,N,00128.74307,E,1,06,1.22,126.5,M,53.8,M,,*45
dc_
33 08 27 59 4333.6913600128.74352126.21 2p@†Cp.∞301004.6 00128.74352 126.2 1101010110 1100010010 1100100111 10000001010 10000110111 1011101011 1100110011 1110010111 1011101101 1101011011 1011010100 1011111100 10000100100 10000111011 1100000101 1011111101 1100000001 1011111000 19.875 55.268 1004.6 33870 16 196 7 58 51 3 $GNGGA,082759.00,4333.69136,N,00128.74352,E,1,06,1.22,126.2,M,53.8,M,,*4D
dc_
34 08 28 00 4333.6913400128.74370125.91p2†@êCÄ.3 1004.6 00128.74370 125.9 1101010110 1100010111 1100101010 10000001001 10000111000 1011101111 1100110010 1110011000 1011101101 1101011011 1011010110 1011111111 10000100111 10000111010 1100000001 1011111010 1100000101 1011111111 19.875 55.275 1004.6 34870 17 194 8 58 52 3 $GNGGA,082800.00,4333.69134,N,00128.74370,E,1,06,1.22,125.9,M,53.8,M,,*44
dc_
35 08 28 01 4333.6913300128.74390125.91 2`@pCp.∞31004.6 00128.74390 125.9 1101010101 1100010010 1100100110 10000000111 10000110111 1011101011 1100110001 1110001101 1011101000 1101011011 1011010111 1011111111 10000011101 10000111010 1100001001 1011111110 1100000001 1011111001 19.875 55.298 1004.6 35870 16 196 7 59 51 3 $GNGGA,082801.00,4333.69133,N,00128.74390,E,1,07,1.18,125.9,M,53.8,M,,*44
dc_
36 08 28 02 4333.6914000128.74408126.31@2`@`C@.301004.6 00128.74408 126.3 1101010110 1100010100 1100100110 10000000110 10000110100 1011101111 1100110011 1110010010 1011101000 1101011011 1011010101 1011111111 10000100000 10000111001 1100000000 1011111011 1100000010 1011111101 19.875 55.268 1004.6 36870 18 194 7 58 51 4 $GNGGA,082802.00,4333.69140,N,00128.74408,E,1,08,1.06,126.3,M,53.8,M,,*4C
dc_
37 08 28 03 4333.6914000128.74412125.912p@`C@.‡301004.6 00128.74412 125.9 1101010110 1100010001 1100100111 10000000110 10000110100 1011101110 1100110011 1110010001 1011100100 1101011011 1011011010 1100000001 10000100000 10000111100 1100001000 1100000000 1100001011 1100000101 19.875 55.237 1004.6 37870 16 196 7 59 51 3 $GNGGA,082803.00,4333.69140,N,00128.74412,E,1,08,1.06,125.9,M,53.8,M,,*4F
dc_
38 08 28 04 4333.6914500128.74419126.21 2ÄA 00128.74419 126.2 1101010101 1100010010 1100101000 10000010000 10000111001 1011101011 1100110001 1110010110 1011100001 1101011011 1011010101 1100000001 10000011101 10000111010 1100000100 1011111000 1100000110 1100000001 19.875 55.214 1004.6 38870 17 194 7 58 51 3 $GNGGA,082804.00,4333.69145,N,00128.74419,E,1,08,1.09,126.2,M,53.8,M,,*41
dc_
39 08 28 05 4333.6915100128.74439126.51@2ÄA 00128.74439 126.5 1101010110 1100010100 1100101000 10000010000 10000110101 1011101000 1100101101 1110010100 1011011111 1101011011 1011010110 1100000001 10000100000 10000111011 1100000010 1011111000 1011111111 1011110101 19.875 55.207 1004.6 39870 17 191 8 59 51 3 $GNGGA,082805.00,4333.69151,N,00128.74439,E,1,08,1.09,126.5,M,53.8,M,,*40
dc_
40 08 28 06 4333.6915600128.74466126.71@2`@êCÄ.†2–1004.6 00128.74466 126.7 1101010101 1100010100 1100100110 10000001001 10000111000 1011101010 1100101101 1110001011 1011100010 1101011011 1011011000 1011111110 10000100001 10000111010 1100000001 1011110110 1100000000 1011111011 19.875 55.207 1004.6 40870 16 188 7 58 51 3 $GNGGA,082806.00,4333.69156,N,00128.74466,E,1,06,1.28,126.7,M,53.8,M,,*41
dc_
41 08 28 07 4333.6916500128.74496127.21 20@∞Cp.ê31004.6 00128.74496 127.2 1101010101 1100010010 1100100011 10000001011 10000110111 1011101001 1100110001 1110010001 1011100000 1101011011 1011010010 1011111111 10000100101 10000111101 1100000001 1011111010 1100000100 1011111101 19.875 55.222 1004.6 41870 17 189 8 58 52 3 $GNGGA,082807.00,4333.69165,N,00128.74496,E,1,07,1.23,127.2,M,53.8,M,,*41
dc_
42 08 28 08 4333.6916200128.74493127.51 00128.74493 127.5 1101010101 1100010000 1100100101 10000001101 10000110110 1011100110 1100110010 1110001100 1011011010 1101011011 1011010110 1011111111 10000100011 10000111010 1100000011 1011111011 1011111110 1011110111 19.875 55.222 1004.6 42870 17 188 7 58 51 3 $GNGGA,082808.00,4333.69162,N,00128.74493,E,1,07,1.23,127.5,M,53.8,M,,*4B
dc_
43 08 28 09 4333.6914800128.74457127.7102`@¿CÄ.‡3@1004.6 00128.74457 127.7 1101010101 1100010011 1100100110 10000001100 10000111000 1011101110 1100110100 1110010110 1011100101 1101011011 1011011010 1100000001 10000100001 10000111000 1100000010 1011111000 1100001000 1100000000 19.875 55.199 1004.6 43870 17 187 7 58 52 3 $GNGGA,082809.00,4333.69148,N,00128.74457,E,1,06,1.28,127.7,M,53.8,M,,*42
dc_
44 08 28 10 4333.6914000128.74446127.8102Ä@PC`/@3p1004.6 00128.74446 127.8 1101010101 1100010011 1100101000 10000000101 10000110110 1011110100 1100110111 1110010100 1011011100 1101011011 1011011000 1011111111 10000100010 10000111010 1100000001 1011110111 1100000000 1011110100 19.875 55.192 1004.6 44870 16 186 8 59 51 3 $GNGGA,082810.00,4333.69140,N,00128.74446,E,1,06,1.28,127.8,M,53.8,M,,*4D
dc_
45 08 28 11 4333.6913800128.74439128.31@2`@êC@/3@1004.6 00128.74439 128.3 1101010101 1100010100 1100100110 10000001001 10000110100 1011110001 1100110100 1110010111 1011101010 1101011011 1011011100 1100000010 10000100110 10000111011 1100000010 1011111001 1011111110 1011111100 19.875 55.184 1004.6 45870 16 187 7 58 51 3 $GNGGA,082811.00,4333.69138,N,00128.74439,E,1,08,1.09,128.3,M,53.8,M,,*42
dc_
46 08 28 12 4333.6913600128.74443128.41@2`@0CP.‡31004.6 00128.74443 128.4 1101010101 1100010100 1100100110 10000000011 10000110101 1011101110 1100110001 1110010111 1011011100 1101011011 1011010110 1011111111 10000100011 10000111011 1100000001 1011111011 1100000110 1100000000 19.875 55.192 1004.6 46870 17 185 7 59 51 3 $GNGGA,082812.00,4333.69136,N,00128.74443,E,1,08,1.09,128.4,M,53.8,M,,*45
dc_
47 08 28 13 4333.6913800128.74454128.61P2Ä@pCp.–301004.6 00128.74454 128.6 1101010101 1100010101 1100101000 10000000111 10000110111 1011101101 1100110011 1110010101 1011100001 1101011011 1011010100 1011111111 10000100010 10000111101 1100000001 1011111100 1100000001 1011111111 19.875 55.199 1004.6 47870 16 185 7 58 51 3 $GNGGA,082813.00,4333.69138,N,00128.74454,E,1,08,1.09,128.6,M,53.8,M,,*4E
dc_
48 08 28 14 4333.6913200128.74446128.612@ACÄ.3`1004.6 00128.74446 128.6 1101010101 1100010001 1100100100 10000010001 10000111000 1011101111 1100110110 1110010101 1011100111 1101011011 1011011001 1100000000 10000100011 10000111101 1100000011 1011110110 1011111110 1011110010 19.875 55.199 1004.6 48870 17 184 8 59 51 3 $GNGGA,082814.00,4333.69132,N,00128.74446,E,1,08,1.09,128.6,M,53.8,M,,*40
dc_
49 08 28 15 4333.6912700128.74430128.71@2p@¿C`/3`1004.6 00128.74430 128.7 1101010101 1100010100 1100100111 10000001100 10000110110 1011110001 1100110110 1110011110 1011110010 1101011011 1011010100 1100000000 10000011110 10000111001 1100000010 1011111000 1100000000 1011111001 19.875 55.184 1004.6 49870 16 184 7 58 51 3 $GNGGA,082815.00,4333.69127,N,00128.74430,E,1,08,1.09,128.7,M,53.8,M,,*45
dc_
50 08 28 16 4333.6913100128.74447128.81@2Ä@¿CÄ.Ä31004.6 00128.74447 128.8 1101010101 1100010100 1100101000 10000001100 10000111000 1011101000 1100110001 1110010111 1011100111 1101011011 1011010110 1100000000 10000100100 10000111100 1100000101 1011111010 1100000001 1011110110 19.875 55.184 1004.6 50870 17 181 8 58 52 3 $GNGGA,082816.00,4333.69131,N,00128.74447,E,1,08,1.09,128.8,M,53.8,M,,*4E
dc_
51 08 28 17 4333.6912800128.74440129.21 2PA C`.ê2‡1004.6 00128.74440 129.2 1101010101 1100010010 1100100101 10000010010 10000110110 1011101001 1100101110 1110001110 1011101011 1101011011 1011010100 1100000000 10000100001 10000111010 1100000100 1011111010 1011111111 1011111100 19.875 55.184 1004.6 51870 16 180 8 59 51 3 $GNGGA,082817.00,4333.69128,N,00128.74440,E,1,08,1.09,129.2,M,53.8,M,,*4B
dc_
52 08 28 18 4333.6912600128.74435129.21P2Ä@ÄC@.†2‡1004.6 00128.74435 129.2 1101010101 1100010101 1100101000 10000001000 10000110100 1011101010 1100101110 1110010000 1011101111 1101011010 1011010110 1100000000 10000011110 10000111010 1100000110 1011111110 1011111111 1011110111 19.875 55.199 1004.6 52870 17 182 7 58 51 4 $GNGGA,082818.00,4333.69126,N,00128.74435,E,1,09,1.04,129.2,M,53.8,M,,*44
dc_
53 08 28 19 4333.6912300128.74435129.2102@@PCP.∞2‡1004.6 00128.74435 129.2 1101010101 1100010011 1100100100 10000000101 10000110101 1011101011 1100101110 1110010010 1011101011 1101011011 1011010111 1011111111 10000100010 10000111011 1011111111 1011110111 1100000101 1011111001 19.875 55.214 1004.6 53870 17 180 7 59 51 3 $GNGGA,082819.00,4333.69123,N,00128.74435,E,1,09,1.04,129.2,M,53.8,M,,*40
dc_
54 08 28 20 4333.6911900128.74439129.6102p@¿CÄ.3P1004.6 00128.74439 129.6 1101010110 1100010011 1100100111 10000001100 10000111000 1011101111 1100110101 1110001101 1011101001 1101011011 1011011000 1100000001 10000100110 10000111100 1100000111 1011111101 1100000100 1011111001 19.875 55.222 1004.6 54870 16 180 8 58 51 3 $GNGGA,082820.00,4333.69119,N,00128.74439,E,1,09,1.04,129.6,M,53.8,M,,*4B
dc_
55 08 28 21 4333.6910100128.74385130.21020@pC`/ 00128.74385 130.2 1101010110 1100010011 1100100011 10000000111 10000110110 1011110000 1100110101 1110010100 1011101001 1101011011 1011011000 1100000010 10000100011 10000111100 1011111110 1011110011 1011111100 1011110111 19.875 55.230 1004.6 55870 17 178 7 59 51 3 $GNGGA,082821.00,4333.69101,N,00128.74385,E,1,09,1.04,130.2,M,53.8,M,,*4F
dc_
56 08 28 22 4333.6909900128.74417130.31 2P@0CP.‡3 1004.6 00128.74417 130.3 1101010101 1100010010 1100100101 10000000011 10000110101 1011101110 1100110010 1110011010 1011101011 1101011011 1011011000 1100000000 10000100001 10000111011 1011111110 1011111001 1100000001 1011111000 19.875 55.260 1004.6 56870 16 177 8 58 51 3 $GNGGA,082822.00,4333.69099,N,00128.74417,E,1,09,1.04,130.3,M,53.8,M,,*41
dc_
57 08 28 23 4333.6909500128.74418130.61P2`@ C .∞2¿1004.6 00128.74418 130.6 1101010101 1100010101 1100100110 10000000010 10000110010 1011101011 1100101100 1110001110 1011100101 1101011011 1011010110 1011111111 10000100010 10000111010 1100000011 1011111100 1100000000 1011110111 19.875 55.237 1004.6 57870 16 177 7 58 52 3 $GNGGA,082823.00,4333.69095,N,00128.74418,E,1,09,1.04,130.6,M,53.8,M,,*46
dc_
58 08 28 24 4333.6908700128.74415130.81 20@pCP/ 00128.74415 130.8 1101010101 1100010010 1100100011 10000000111 10000110101 1011110000 1100110001 1110010001 1011101000 1101011011 1011011000 1100000001 10000100110 10000111110 1011111110 1011110010 1100000001 1011111110 19.875 55.207 1004.6 58870 18 173 7 58 51 3 $GNGGA,082824.00,4333.69087,N,00128.74415,E,1,08,1.19,130.8,M,53.8,M,,*4C
dc_
59 08 28 25 4333.6908300128.74426131.3102Ä@0Cê.†31004.6 00128.74426 131.3 1101010101 1100010011 1100101000 10000000011 10000111001 1011101010 1100110001 1110010010 1011100110 1101011011 1011010100 1100000001 10000100011 10000111010 1100000101 1011111100 1100000001 1011110111 19.875 55.192 1004.6 59870 16 173 7 58 52 3 $GNGGA,082825.00,4333.69083,N,00128.74426,E,1,08,1.19,131.3,M,53.8,M,,*43
dc_
60 08 28 26 4333.6907900128.74434131.61 2`@ÄC`.301004.6 00128.74434 131.6 1101010101 1100010010 1100100110 10000001000 10000110110 1011101111 1100110011 1110001011 1011101001 1101011011 1011010011 1011111110 10000100101 10000111100 1100000111 1011111110 1011111001 1011111000 19.875 55.268 1004.6 60870 17 172 7 59 51 3 $GNGGA,082826.00,4333.69079,N,00128.74434,E,1,08,1.19,131.6,M,53.8,M,,*43
dc_
61 08 28 27 4333.6906400128.74402131.802P@êC†/@3–1004.6 00128.74402 131.8 1101010110 1100001111 1100100101 10000001001 10000111010 1011110100 1100111101 1110010111 1011101010 1101011011 1011011000 1100000001 10000011101 10000111000 1100001011 1100000000 1100000011 1011110110 19.875 55.329 1004.6 61870 16 174 7 58 51 3 $GNGGA,082827.00,4333.69064,N,00128.74402,E,1,08,1.19,131.8,M,53.8,M,,*45
dc_
62 08 28 28 4333.6905300128.74386131.61@2`@∞CÄ.¿3p1004.6 00128.74386 131.6 1101010101 1100010100 1100100110 10000001011 10000111000 1011101100 1100110111 1110010010 1011011110 1101011011 1011010011 1011111110 10000100001 10000111010 1100000111 1100000000 1100000000 1011110111 19.875 55.375 1004.6 62870 16 168 7 59 51 3 $GNGGA,082828.00,4333.69053,N,00128.74386,E,1,08,1.19,131.6,M,53.8,M,,*4B
dc_
63 08 28 29 4333.6903400128.74378132.01P2ê@†CÄ/03∞1004.6 00128.74378 132.0 1101010110 1100010101 1100101001 10000001010 10000111000 1011110011 1100111011 1110010000 1011100101 1101011011 1011010001 1011111110 10000011010 10000111001 1100000000 1011111001 1011111011 1011111000 19.875 55.405 1004.6 63870 16 171 8 58 51 3 $GNGGA,082829.00,4333.69034,N,00128.74378,E,1,08,1.19,132.0,M,53.8,M,,*4F
dc_
64 08 28 30 4333.6902500128.74367131.9102p@∞C`.‡3p1004.6 00128.74367 131.9 1101010101 1100010011 1100100111 10000001011 10000110110 1011101110 1100110111 1110001111 1011011110 1101011011 1011010101 1011111110 10000100111 10000111100 1100000010 1011111100 1011111101 1011110111 19.875 55.413 1004.6 64870 16 171 7 59 51 3 $GNGGA,082830.00,4333.69025,N,00128.74367,E,1,09,1.04,131.9,M,53.8,M,,*4E
dc_
65 08 28 31 4333.6902200128.74371132.01P2ê@¿C`.∞3p1004.6 00128.74371 132.0 1101010101 1100010101 1100101001 10000001100 10000110110 1011101011 1100110111 1110011001 1011100101 1101011011 1011011000 1011111111 10000011110 10000111001 1011111110 1011110111 1011111111 1011110111 19.875 55.382 1004.6 65870 17 170 7 58 51 3 $GNGGA,082831.00,4333.69022,N,00128.74371,E,1,09,1.04,132.0,M,53.8,M,,*45
dc_
66 08 28 32 4333.6902400128.74410131.812Ä@∞CÄ.P2¿1004.6 00128.74410 131.8 1101010101 1100010001 1100101000 10000001011 10000111000 1011100101 1100101100 1110011101 1011101111 1101011011 1011011000 1100000001 10000011001 10000111000 1100000001 1011111011 1100001001 1011111011 19.875 55.359 1004.6 66870 16 168 8 58 52 3 $GNGGA,082832.00,4333.69024,N,00128.74410,E,1,09,1.04,131.8,M,53.8,M,,*4B
dc_
67 08 28 33 4333.6902200128.74413131.81@2†@êCp/3p1004.6 00128.74413 131.8 1101010101 1100010100 1100101010 10000001001 10000110111 1011110001 1100110111 1110010010 1011100101 1101011011 1011010100 1011111111 10000101000 10000111101 1100000011 1011111001 1100000110 1011111111 19.875 55.352 1004.6 67870 17 167 7 59 51 3 $GNGGA,082833.00,4333.69022,N,00128.74413,E,1,09,1.04,131.8,M,53.8,M,,*4F
dc_
68 08 28 34 4333.6900200128.74384132.01 2P@êC`.∞2–1004.6 00128.74384 132.0 1101010101 1100010010 1100100101 10000001001 10000110110 1011101011 1100101101 1110010011 1011101000 1101011011 1011010111 1100000001 10000100000 10000111100 1100000000 1011111100 1100000111 1011111010 19.875 55.359 1004.6 68870 16 164 8 58 51 4 $GNGGA,082834.00,4333.69002,N,00128.74384,E,1,08,1.19,132.0,M,53.8,M,,*45
dc_
69 08 28 35 4333.6899200128.74333132.31 2`@∞CÄ/ 3Ä1004.6 00128.74333 132.3 1101010101 1100010010 1100100110 10000001011 10000111000 1011110010 1100111000 1110011000 1011101110 1101011011 1011010111 1100000001 10000100100 10000111010 1011111001 1011110000 1100000011 1011111011 19.875 55.367 1004.6 69870 17 162 7 59 51 3 $GNGGA,082835.00,4333.68992,N,00128.74333,E,1,08,1.19,132.3,M,53.8,M,,*4A
dc_
70 08 28 36 4333.6898000128.74320132.41 2†@‡C0.ê31004.6 00128.74320 132.4 1101010101 1100010010 1100101010 10000001110 10000110011 1011101001 1100110001 1110010110 1011100001 1101011011 1011010111 1100000001 10000100001 10000111001 1100000101 1011111010 1100000100 1011111111 19.875 55.359 1004.6 70870 17 165 7 58 51 3 $GNGGA,082836.00,4333.68980,N,00128.74320,E,1,08,1.19,132.4,M,53.8,M,,*4F
dc_
71 08 28 37 4333.6896200128.74310132.51P2ê@¿Cp.@3 00128.74310 132.5 1101010101 1100010101 1100101001 10000001100 10000110111 1011100100 1100110000 1110010111 1011100001 1101011011 1011010011 1011111110 10000101010 10000111101 1100000010 1011111011 1011111101 1011111000 19.875 55.337 1004.6 71870 16 164 7 59 51 3 $GNGGA,082837.00,4333.68962,N,00128.74310,E,1,08,1.19,132.5,M,53.8,M,,*40
dc_
72 08 28 38 4333.6895500128.74290133.0102Ä@pC`.∞31004.6 00128.74290 133.0 1101010110 1100010011 1100101000 10000000111 10000110110 1011101011 1100110001 1110001111 1011011111 1101011011 1011010110 1011111111 10000011111 10000111001 1100000001 1011111010 1100000001 1011111110 19.875 55.306 1004.6 72870 18 162 7 58 51 3 $GNGGA,082838.00,4333.68955,N,00128.74290,E,1,08,1.19,133.0,M,53.8,M,,*46
dc_
73 08 28 39 4333.6893000128.74265133.31@2p@CÄ.‡2¿1004.6 00128.74265 133.3 1101010101 1100010100 1100100111 10000001111 10000111000 1011101110 1100101100 1110011001 1011100011 1101011011 1011010110 1100000000 10000011111 10000111010 1100000000 1011111001 1100001001 1011111011 19.875 55.291 1004.6 73870 17 157 8 58 52 3 $GNGGA,082839.00,4333.68930,N,00128.74265,E,1,08,1.19,133.3,M,53.8,M,,*4D
dc_
74 08 28 40 4333.6891700128.74213133.11 2`@‡C@/ 3`1004.6 00128.74213 133.1 1101010101 1100010010 1100100110 10000001110 10000110100 1011110010 1100110110 1110011011 1011100110 1101011011 1011010011 1100000001 10000100000 10000111101 1100000101 1011111110 1011111110 1011110011 19.875 55.253 1004.6 74870 16 158 7 58 51 3 $GNGGA,082840.00,4333.68917,N,00128.74213,E,1,08,1.19,133.1,M,53.8,M,,*45
dc_
75 08 28 41 4333.6890200128.74178133.11 2P@‡CÄ.†301004.6 00128.74178 133.1 1101010101 1100010010 1100100101 10000001110 10000111000 1011101010 1100110011 1110011000 1011100010 1101011011 1011010110 1011111111 10000011100 10000111010 1100000010 1011111001 1100000100 1011110110 19.875 55.207 1004.6 75870 16 158 8 58 52 3 $GNGGA,082841.00,4333.68902,N,00128.74178,E,1,08,1.19,133.1,M,53.8,M,,*4E
dc_
76 08 28 42 4333.6889000128.74157132.91 00128.74157 132.9 1101010101 1100010000 1100100100 10000010011 10000111010 1011101110 1100110110 1110010011 1011100100 1101011011 1011011000 1011111101 10000100110 10000111011 1100000011 1011111110 1100000101 1011111010 19.875 55.115 1004.6 76870 16 159 7 59 51 3 $GNGGA,082842.00,4333.68890,N,00128.74157,E,1,07,1.23,132.9,M,53.8,M,,*45
dc_
77 08 28 43 4333.6887900128.74154133.4102P@¿C0/p3∞1004.6 00128.74154 133.4 1101010101 1100010011 1100100101 10000001100 10000110011 1011110111 1100111011 1110011001 1011101000 1101011011 1011010100 1011111110 10000100101 10000111110 1100000010 1011110111 1100000010 1011111010 19.875 55.100 1004.6 77870 17 157 7 58 51 3 $GNGGA,082843.00,4333.68879,N,00128.74154,E,1,08,1.19,133.4,M,53.8,M,,*4A
dc_
78 08 28 44 4333.6886700128.74124133.31P2p@PC.p2–1004.6 00128.74124 133.3 1101010101 1100010101 1100100111 10000000101 10000110001 1011100111 1100101101 1110001111 1011100110 1101011011 1011010111 1100000000 10000100100 10000111100 1100000100 1011111001 1100000011 1011111001 19.875 55.153 1004.6 78870 16 155 7 59 51 3 $GNGGA,082844.00,4333.68867,N,00128.74124,E,1,07,1.23,133.3,M,53.8,M,,*44
dc_
79 08 28 45 4333.6886700128.74076133.312P@∞CÄ.¿3P1004.6 00128.74076 133.3 1101010110 1100010001 1100100101 10000001011 10000111000 1011101100 1100110101 1110010110 1011110000 1101011011 1011011000 1011111111 10000100101 10000111100 1100000000 1011111011 1100000011 1011111011 19.875 55.153 1004.6 79870 18 153 7 58 51 3 $GNGGA,082845.00,4333.68867,N,00128.74076,E,1,07,1.23,133.3,M,53.8,M,,*43
dc_
80 08 28 46 4333.6885300128.74053133.31@2†@‡Cê.–301004.6 00128.74053 133.3 1101010101 1100010100 1100101010 10000001110 10000111001 1011101101 1100110011 1110001110 1011100011 1101011011 1011011000 1100000000 10000100011 10000111100 1100000111 1011111100 1100000000 1011110101 19.875 55.138 1004.6 80870 16 150 9 59 51 3 $GNGGA,082846.00,4333.68853,N,00128.74053,E,1,07,1.23,133.3,M,53.8,M,,*40
dc_
81 08 28 47 4333.6883300128.74050133.5102@@ÄC`.–301004.6 00128.74050 133.5 1101010101 1100010011 1100100100 10000001000 10000110110 1011101101 1100110011 1110010100 1011100000 1101011011 1011011000 1100000001 10000100001 10000111011 1100000011 1011111001 1011111110 1011111010 19.875 55.169 1004.6 81870 16 151 8 58 51 3 $GNGGA,082847.00,4333.68833,N,00128.74050,E,1,07,1.23,133.5,M,53.8,M,,*42
dc_
82 08 28 48 4333.6882400128.74015133.41 2p@pCÄ/ 3`1004.6 00128.74015 133.4 1101010101 1100010010 1100100111 10000000111 10000111000 1011110010 1100110110 1110010011 1011101001 1101011011 1011010011 1011111110 10000100010 10000111011 1100000010 1011111011 1011111110 1011111000 19.875 55.214 1004.6 82870 18 150 7 58 52 3 $GNGGA,082848.00,4333.68824,N,00128.74015,E,1,07,1.23,133.4,M,53.8,M,,*4B
dc_
83 08 28 49 4333.6880900128.73995133.91@2¿@PC0.3@1004.6 00128.73995 133.9 1101010101 1100010100 1100101100 10000000101 10000110011 1011101111 1100110100 1110010000 1011101000 1101011011 1011010111 1100000000 10000011100 10000111010 1100000001 1011111010 1100000011 1011111011 19.875 55.245 1004.6 83870 16 150 7 59 51 3 $GNGGA,082849.00,4333.68809,N,00128.73995,E,1,08,1.19,133.9,M,53.8,M,,*48
dc_
84 08 28 50 4333.6879600128.73966134.21 2p@∞Cp.∞31004.6 00128.73966 134.2 1101010101 1100010010 1100100111 10000001011 10000110111 1011101011 1100110001 1110010010 1011101010 1101011011 1011010100 1011111111 10000100010 10000111010 1100000010 1011111000 1100000001 1011110101 19.875 55.253 1004.6 84870 17 151 7 58 51 4 $GNGGA,082850.00,4333.68796,N,00128.73966,E,1,08,1.19,134.2,M,53.8,M,,*49
dc_
85 08 28 51 4333.6879000128.73983134.502 @êC`.Ä2¿1004.6 00128.73983 134.5 1101010101 1100001111 1100100010 10000001001 10000110110 1011101000 1100101100 1110001110 1011100011 1101011011 1011010010 1100000001 10000100100 10000111011 1100000100 1011111111 1100000011 1100000000 19.875 55.237 1004.6 85870 16 147 9 59 51 3 $GNGGA,082851.00,4333.68790,N,00128.73983,E,1,08,1.19,134.5,M,53.8,M,,*42
dc_
86 08 28 52 4333.6876900128.73995134.7102Ä@–CÄ.¿3 00128.73995 134.7 1101010101 1100010011 1100101000 10000001101 10000111000 1011101100 1100110000 1110010010 1011100101 1101011011 1011010110 1011111101 10000101010 10000111100 1011111110 1011110010 1100000100 1100000011 19.875 55.245 1004.6 86870 16 150 7 58 51 3 $GNGGA,082852.00,4333.68769,N,00128.73995,E,1,08,1.19,134.7,M,53.8,M,,*42
dc_
87 08 28 53 4333.6878800128.73945134.5020@‡CÄ.∞3†1004.6 00128.73945 134.5 1101010101 1100001111 1100100011 10000001110 10000111000 1011101011 1100111010 1110010001 1011100001 1101011011 1011010110 1100000000 10000100000 10000111100 1100000011 1011110110 1011111100 1011111001 19.875 55.245 1004.6 87870 17 146 7 59 51 3 $GNGGA,082853.00,4333.68788,N,00128.73945,E,1,07,1.23,134.5,M,53.8,M,,*45
dc_
88 08 28 54 4333.6879200128.73901134.41P2pA Cê.Ä31004.6 00128.73901 134.4 1101010101 1100010101 1100100111 10000010010 10000111001 1011101000 1100110001 1110001110 1011100011 1101011011 1011010101 1011111100 10000100000 10000111100 1100000000 1011111101 1100000101 1011111011 19.875 55.214 1004.6 88870 16 145 8 58 51 3 $GNGGA,082854.00,4333.68792,N,00128.73901,E,1,07,1.23,134.4,M,53.8,M,,*48
dc_
89 08 28 55 4333.6879000128.73880134.4102Ä@ÄCp.†3 00128.73880 134.4 1101010110 1100010011 1100101000 10000001000 10000110111 1011101010 1100110000 1110001011 1011011101 1101011011 1011011001 1100000001 10000100001 10000111101 1100000100 1011110110 1011111010 1011101110 19.875 55.184 1004.6 89870 18 143 7 58 52 3 $GNGGA,082855.00,4333.68790,N,00128.73880,E,1,06,1.26,134.4,M,53.8,M,,*47
dc_
90 08 28 56 4333.6878600128.73847134.21 00128.73847 134.2 1101010101 1100010000 1100100101 10000001011 10000110100 1011101111 1100110011 1110010010 1011101000 1101011011 1011010110 1011111110 10000100100 10000111011 1100001000 1011111011 1100000001 1011110101 19.875 55.146 1004.6 90870 17 143 7 58 51 3 $GNGGA,082856.00,4333.68786,N,00128.73847,E,1,06,1.26,134.2,M,53.8,M,,*4E
dc_
91 08 28 57 4333.6879100128.73833134.31 2`AC`.ê21004.6 00128.73833 134.3 1101010101 1100010010 1100100110 10000010001 10000110110 1011101001 1100101111 1110001111 1011100011 1101011011 1011011000 1100000011 10000101000 10000111011 1100000011 1011111010 1100000000 1011111010 19.875 55.062 1004.6 91870 16 140 8 58 52 3 $GNGGA,082857.00,4333.68791,N,00128.73833,E,1,06,1.26,134.3,M,53.8,M,,*4B
dc_
92 08 28 58 4333.6879600128.73800134.21@2`AC`/3@1004.6 00128.73800 134.2 1101010110 1100010100 1100100110 10000010001 10000110110 1011110001 1100110100 1110001111 1011100101 1101011011 1011010110 1011111111 10000100100 10000111100 1100001000 1011111101 1100000100 1011111111 19.875 54.940 1004.6 92870 16 139 9 59 51 3 $GNGGA,082858.00,4333.68796,N,00128.73800,E,1,06,1.26,134.2,M,53.8,M,,*42
dc_
93 08 28 59 4333.6880400128.73760134.012`@‡C.3p1004.6 00128.73760 134.0 1101010101 1100010001 1100100110 10000001110 10000110001 1011101111 1100110111 1110001111 1011100110 1101011011 1011011000 1011111111 10000100001 10000111001 1100000110 1011111111 1100000100 1100000010 19.813 54.879 1004.6 93870 17 140 7 58 51 3 $GNGGA,082859.00,4333.68804,N,00128.73760,E,1,06,1.26,134.0,M,53.8,M,,*4C
dc_
94 08 29 00 4333.6880500128.73730133.912@@‡C`.3`1004.6 00128.73730 133.9 1101010110 1100010001 1100100100 10000001110 10000110110 1011101111 1100110110 1110001001 1011100011 1101011011 1011010100 1011111101 10000100000 10000111100 1100000000 1011111010 1100000110 1011111011 19.875 54.886 1004.6 94870 17 139 7 59 51 3 $GNGGA,082900.00,4333.68805,N,00128.73730,E,1,06,1.26,133.9,M,53.8,M,,*4B
dc_
95 08 29 01 4333.6880500128.73717133.812`@†C†/ 3`1004.6 00128.73717 133.8 1101010101 1100010001 1100100110 10000001010 10000111010 1011110010 1100110110 1110001011 1011100011 1101011011 1011011010 1100000010 10000100011 10000111010 1100000100 1011111010 1011110111 1011110100 19.813 54.886 1004.6 95870 16 138 7 58 51 3 $GNGGA,082901.00,4333.68805,N,00128.73717,E,1,06,1.26,133.8,M,53.8,M,,*4E
dc_
96 08 29 02 4333.6879800128.73717133.81 00128.73717 133.8 1101010101 1100010000 1100100111 10000001000 10000110110 1011101010 1100110000 1110001000 1011100001 1101011011 1011011000 1100000010 10000100001 10000111011 1100000101 1011111010 1011111101 1011111100 19.813 54.886 1004.6 96870 17 138 7 59 51 3 $GNGGA,082902.00,4333.68798,N,00128.73717,E,1,06,1.26,133.8,M,53.8,M,,*46
dc_
97 08 29 03 4333.6879900128.73695133.61 2p@êC@.–21004.6 00128.73695 133.6 1101010101 1100010010 1100100111 10000001001 10000110100 1011101101 1100101111 1110001011 1011011101 1101011011 1011010101 1100000000 10000100100 10000111010 1100000000 1011111010 1100000100 1100000011 19.875 54.902 1004.6 97870 17 136 8 58 51 3 $GNGGA,082903.00,4333.68799,N,00128.73695,E,1,06,1.26,133.6,M,53.8,M,,*43
dc_
98 08 29 04 4333.6878900128.73681133.4102pA@C¿.–3P1004.6 00128.73681 133.4 1101010101 1100010011 1100100111 10000010100 10000111100 1011101101 1100110101 1110001001 1011100111 1101011011 1011011000 1100000011 10000100010 10000111011 1100000011 1011111101 1100000101 1011111110 19.813 55.008 1004.6 98870 17 135 7 58 52 3 $GNGGA,082904.00,4333.68789,N,00128.73681,E,1,06,1.26,133.4,M,53.8,M,,*42
dc_
99 08 29 05 4333.6879000128.73654133.1102ê@∞Cp.¿3p1004.6 00128.73654 133.1 1101010101 1100010011 1100101001 10000001011 10000110111 1011101100 1100110111 1110001111 1011100100 1101011011 1011010100 1100000000 10000100111 10000111100 1100000101 1011111010 1011111100 1100000000 19.813 55.108 1004.6 99870 16 137 8 59 51 3 $GNGGA,082905.00,4333.68790,N,00128.73654,E,1,06,1.26,133.1,M,53.8,M,,*46
dc_
100 08 29 06 4333.6878200128.73630132.91@2ê@`C .‡3 1004.6 00128.73630 132.9 1101010110 1100010100 1100101001 10000000110 10000110010 1011101110 1100110010 1110001110 1011100101 1101011011 1011010101 1011111111 10000100010 10000111010 1011111111 1011110110 1011111101 1011111010 19.813 55.161 1004.6 100870 16 134 8 58 51 4 $GNGGA,082906.00,4333.68782,N,00128.73630,E,1,06,1.26,132.9,M,53.8,M,,*4D
dc_
101 08 29 07 4333.6876800128.73604132.7102P@@C .–2–1004.6 00128.73604 132.7 1101010101 1100010011 1100100101 10000000100 10000110010 1011101101 1100101101 1110010001 1011100011 1101011011 1011010101 1011111101 10000101001 10000111100 1100000010 1011110111 1011111011 1011110100 19.875 55.169 1004.6 101870 17 133 7 59 51 3 $GNGGA,082907.00,4333.68768,N,00128.73604,E,1,07,1.13,132.7,M,53.8,M,,*46
dc_
102 08 29 08 4333.6876200128.73569132.312P@pCê.–301004.6 00128.73569 132.3 1101010101 1100010001 1100100101 10000000111 10000111001 1011101101 1100110011 1110001001 1011011100 1101011011 1011010110 1011111111 10000100000 10000111001 1100000101 1011111001 1011111100 1011111100 19.813 55.199 1004.6 102870 16 130 9 58 51 3 $GNGGA,082908.00,4333.68762,N,00128.73569,E,1,07,1.13,132.3,M,53.8,M,,*4F
dc_
103 08 29 09 4333.6876000128.73541132.31P2Ä@`CP.p21004.6 00128.73541 132.3 1101010101 1100010101 1100101000 10000000110 10000110101 1011100111 1100101111 1110001111 1011110001 1101011011 1011010100 1100000000 10000100011 10000111011 1100000011 1011110101 1100000001 1011111001 19.875 55.207 1004.6 103870 17 133 8 59 51 3 $GNGGA,082909.00,4333.68760,N,00128.73541,E,1,07,1.13,132.3,M,53.8,M,,*46
dc_
104 08 29 10 4333.6875000128.73499131.9102`@ 00128.73499 131.9 1101010101 1100010011 1100100110 10000000000 10000110010 1011110001 1100110000 1110001011 1011101000 1101011011 1011010111 1100000000 10000100001 10000111101 1100000000 1011111001 1011111110 1011111011 19.875 55.222 1004.6 104870 16 132 9 58 51 3 $GNGGA,082910.00,4333.68750,N,00128.73499,E,1,07,1.13,131.9,M,53.8,M,,*40
dc_
105 08 29 11 4333.6874900128.73507131.712Ä@ C@/ 00128.73507 131.7 1101010101 1100010001 1100101000 10000000010 10000110100 1011110000 1100110110 1110001011 1011100011 1101011011 1011010011 1100000000 10000100100 10000111010 1100000100 1011111100 1100000010 1011111010 19.813 55.260 1004.6 105870 16 131 7 58 52 3 $GNGGA,082911.00,4333.68749,N,00128.73507,E,1,06,1.26,131.7,M,53.8,M,,*46
dc_
106 08 29 12 4333.6873900128.73495131.3102p@–CP.∞21004.6 00128.73495 131.3 1101010101 1100010011 1100100111 10000001101 10000110101 1011101011 1100101111 1110010010 1011101100 1101011011 1011010111 1100000001 10000100010 10000111011 1100000101 1011111101 1100000001 1011111100 19.875 55.283 1004.6 106870 17 130 7 58 51 3 $GNGGA,082912.00,4333.68739,N,00128.73495,E,1,06,1.26,131.3,M,53.8,M,,*4C
dc_
107 08 29 13 4333.6873600128.73495131.41@2`@êC@.ê21004.6 00128.73495 131.4 1101010101 1100010100 1100100110 10000001001 10000110100 1011101001 1100101111 1110010001 1011100010 1101011011 1011010110 1100000000 10000011111 10000111010 1100000001 1011110100 1011110110 1011110110 19.813 55.283 1004.6 107870 17 129 7 58 52 3 $GNGGA,082913.00,4333.68736,N,00128.73495,E,1,07,1.23,131.4,M,53.8,M,,*41
dc_
108 08 29 14 4333.6873000128.73403131.3102Ä@pCP/3Ä1004.6 00128.73403 131.3 1101010101 1100010011 1100101000 10000000111 10000110101 1011110001 1100111000 1110010000 1011101111 1101011011 1011010100 1011111111 10000011110 10000111010 1100000011 1011111100 1011111100 1011110111 19.813 55.268 1004.6 108870 17 129 7 59 51 3 $GNGGA,082914.00,4333.68730,N,00128.73403,E,1,08,1.04,131.3,M,53.8,M,,*42
dc_
